[
  {
    "OBJECTID": 1,
    "ProviderNa": "Memorial Hermann Cypress Hospital",
    "OrgType": "Hospital",
    "Address": "27800 Highway 290",
    "City": "Cypress",
    "State": "TX",
    "ZIP": 77433,
    "County": "HARRIS",
    "Wk1Pfizer": 975,
    "Wk2Pfizer": 0,
    "PfizerTota": 975,
    "Wk2Moderna": 0,
    "ModernaTot": 0,
    "GrandTotal": 975,
    "OrgGroup": "Hospital",
    "N_LAT": 29.985767,
    "N_LON": -95.732576,
    "N_LCODE": "AS0"
  },
  {
    "OBJECTID": 2,
    "ProviderNa": "Cook Children's Medical Center",
    "OrgType": "Hospital",
    "Address": "801 7th Ave",
    "City": "Fort Worth",
    "State": "TX",
    "ZIP": 76104,
    "County": "TARRANT",
    "Wk1Pfizer": 4875,
    "Wk2Pfizer": 0,
    "PfizerTota": 4875,
    "Wk2Moderna": 0,
    "ModernaTot": 0,
    "GrandTotal": 4875,
    "OrgGroup": "Hospital",
    "N_LAT": 32.736372,
    "N_LON": -97.341795,
    "N_LCODE": "AS0"
  },
  {
    "OBJECTID": 3,
    "ProviderNa": "Seton Medical Center Austin",
    "OrgType": "Hospital",
    "Address": "1201 W 38th St",
    "City": "Austin",
    "State": "TX",
    "ZIP": 78705,
    "County": "TRAVIS",
    "Wk1Pfizer": 2925,
    "Wk2Pfizer": 0,
    "PfizerTota": 2925,
    "Wk2Moderna": 0,
    "ModernaTot": 0,
    "GrandTotal": 2925,
    "OrgGroup": "Hospital",
    "N_LAT": 30.306041,
    "N_LON": -97.745307,
    "N_LCODE": "AS0"
  },
  {
    "OBJECTID": 4,
    "ProviderNa": "St Lukes Hospital At The Vintage",
    "OrgType": "Hospital",
    "Address": "20171 Chasewood Park Dr",
    "City": "Houston",
    "State": "TX",
    "ZIP": 77070,
    "County": "HARRIS",
    "Wk1Pfizer": 975,
    "Wk2Pfizer": 0,
    "PfizerTota": 975,
    "Wk2Moderna": 0,
    "ModernaTot": 0,
    "GrandTotal": 975,
    "OrgGroup": "Hospital",
    "N_LAT": 29.989182,
    "N_LON": -95.57013,
    "N_LCODE": "AS0"
  },
  {
    "OBJECTID": 5,
    "ProviderNa": "Round Rock Medical Center",
    "OrgType": "Hospital",
    "Address": "2400 Round Rock Ave",
    "City": "Round Rock",
    "State": "TX",
    "ZIP": 78681,
    "County": "WILLIAMSON",
    "Wk1Pfizer": 975,
    "Wk2Pfizer": 0,
    "PfizerTota": 975,
    "Wk2Moderna": 0,
    "ModernaTot": 0,
    "GrandTotal": 975,
    "OrgGroup": "Hospital",
    "N_LAT": 30.509451,
    "N_LON": -97.712469,
    "N_LCODE": "AS0"
  },
  {
    "OBJECTID": 6,
    "ProviderNa": "Mission Regional Medical Center",
    "OrgType": "Hospital",
    "Address": "900 S Bryan Rd",
    "City": "Mission",
    "State": "TX",
    "ZIP": 78572,
    "County": "HIDALGO",
    "Wk1Pfizer": 1950,
    "Wk2Pfizer": 0,
    "PfizerTota": 1950,
    "Wk2Moderna": 0,
    "ModernaTot": 0,
    "GrandTotal": 1950,
    "OrgGroup": "Hospital",
    "N_LAT": 26.196752,
    "N_LON": -98.31279,
    "N_LCODE": "AS0"
  },
  {
    "OBJECTID": 7,
    "ProviderNa": "The Medical Center Of Plano",
    "OrgType": "Hospital",
    "Address": "3901 W 15th St",
    "City": "Plano",
    "State": "TX",
    "ZIP": 75075,
    "County": "COLLIN",
    "Wk1Pfizer": 2925,
    "Wk2Pfizer": 0,
    "PfizerTota": 2925,
    "Wk2Moderna": 0,
    "ModernaTot": 0,
    "GrandTotal": 2925,
    "OrgGroup": "Hospital",
    "N_LAT": 33.019511,
    "N_LON": -96.765825,
    "N_LCODE": "AS0"
  },
  {
    "OBJECTID": 8,
    "ProviderNa": "Medical Center Of Mckinney",
    "OrgType": "Hospital",
    "Address": "4500 Medical Center Dr",
    "City": "McKinney",
    "State": "TX",
    "ZIP": 75069,
    "County": "COLLIN",
    "Wk1Pfizer": 975,
    "Wk2Pfizer": 0,
    "PfizerTota": 975,
    "Wk2Moderna": 0,
    "ModernaTot": 0,
    "GrandTotal": 975,
    "OrgGroup": "Hospital",
    "N_LAT": 33.159749,
    "N_LON": -96.635672,
    "N_LCODE": "AS0"
  },
  {
    "OBJECTID": 9,
    "ProviderNa": "Hendrick Medical Center",
    "OrgType": "Hospital",
    "Address": "1900 Pine St",
    "City": "Abilene",
    "State": "TX",
    "ZIP": 79601,
    "County": "TAYLOR",
    "Wk1Pfizer": 2925,
    "Wk2Pfizer": 0,
    "PfizerTota": 2925,
    "Wk2Moderna": 0,
    "ModernaTot": 0,
    "GrandTotal": 2925,
    "OrgGroup": "Hospital",
    "N_LAT": 32.47169,
    "N_LON": -99.731341,
    "N_LCODE": "AS0"
  },
  {
    "OBJECTID": 10,
    "ProviderNa": "Seton Medical Center Hays",
    "OrgType": "Hospital",
    "Address": "6001 Kyle Pkwy",
    "City": "Kyle",
    "State": "TX",
    "ZIP": 78640,
    "County": "HAYS",
    "Wk1Pfizer": 975,
    "Wk2Pfizer": 0,
    "PfizerTota": 975,
    "Wk2Moderna": 0,
    "ModernaTot": 0,
    "GrandTotal": 975,
    "OrgGroup": "Hospital",
    "N_LAT": 30.007645,
    "N_LON": -97.855059,
    "N_LCODE": "AS0"
  },
  {
    "OBJECTID": 11,
    "ProviderNa": "Wadley Regional Medical Center",
    "OrgType": "Hospital",
    "Address": "1000 Pine",
    "City": "Texarkana",
    "State": "TX",
    "ZIP": 75501,
    "County": "BOWIE",
    "Wk1Pfizer": 975,
    "Wk2Pfizer": 0,
    "PfizerTota": 975,
    "Wk2Moderna": 0,
    "ModernaTot": 0,
    "GrandTotal": 975,
    "OrgGroup": "Hospital",
    "N_LAT": 33.428217,
    "N_LON": -94.046856,
    "N_LCODE": "AS0"
  },
  {
    "OBJECTID": 12,
    "ProviderNa": "Hca Houston Healthcare Northwest",
    "OrgType": "Hospital",
    "Address": "710 Cypress Creek Parkway",
    "City": "Houston",
    "State": "TX",
    "ZIP": 77090,
    "County": "HARRIS",
    "Wk1Pfizer": 1950,
    "Wk2Pfizer": 0,
    "PfizerTota": 1950,
    "Wk2Moderna": 0,
    "ModernaTot": 0,
    "GrandTotal": 1950,
    "OrgGroup": "Hospital",
    "N_LAT": 30.018193,
    "N_LON": -95.439967,
    "N_LCODE": "AS0"
  },
  {
    "OBJECTID": 13,
    "ProviderNa": "Texas Scottish Rite Hospital For Children",
    "OrgType": "Hospital",
    "Address": "2222 Welborn St",
    "City": "Dallas",
    "State": "TX",
    "ZIP": 75219,
    "County": "DALLAS",
    "Wk1Pfizer": 975,
    "Wk2Pfizer": 0,
    "PfizerTota": 975,
    "Wk2Moderna": 0,
    "ModernaTot": 0,
    "GrandTotal": 975,
    "OrgGroup": "Hospital",
    "N_LAT": 32.802496,
    "N_LON": -96.814036,
    "N_LCODE": "AS0"
  },
  {
    "OBJECTID": 14,
    "ProviderNa": "Dell Childrens Medical Center Of Central Texas",
    "OrgType": "Hospital",
    "Address": "4900 Mueller Blvd",
    "City": "Austin",
    "State": "TX",
    "ZIP": 78723,
    "County": "TRAVIS",
    "Wk1Pfizer": 1950,
    "Wk2Pfizer": 0,
    "PfizerTota": 1950,
    "Wk2Moderna": 0,
    "ModernaTot": 0,
    "GrandTotal": 1950,
    "OrgGroup": "Hospital",
    "N_LAT": 30.302736,
    "N_LON": -97.705016,
    "N_LCODE": "AS0"
  },
  {
    "OBJECTID": 15,
    "ProviderNa": "Christus St Michael Health System",
    "OrgType": "Hospital",
    "Address": "2600 Saint Michael Dr",
    "City": "Texarkana",
    "State": "TX",
    "ZIP": 75503,
    "County": "BOWIE",
    "Wk1Pfizer": 975,
    "Wk2Pfizer": 0,
    "PfizerTota": 975,
    "Wk2Moderna": 0,
    "ModernaTot": 0,
    "GrandTotal": 975,
    "OrgGroup": "Hospital",
    "N_LAT": 33.462662,
    "N_LON": -94.07434,
    "N_LCODE": "AS0"
  },
  {
    "OBJECTID": 16,
    "ProviderNa": "Christus Health Clinic- Irving - 9521",
    "OrgType": "Hospital",
    "Address": "919 Hidden Ridge",
    "City": "Irving",
    "State": "TX",
    "ZIP": 75038,
    "County": "DALLAS",
    "Wk1Pfizer": 1950,
    "Wk2Pfizer": 0,
    "PfizerTota": 1950,
    "Wk2Moderna": 0,
    "ModernaTot": 0,
    "GrandTotal": 1950,
    "OrgGroup": "Hospital",
    "N_LAT": 32.877534,
    "N_LON": -96.959989,
    "N_LCODE": "AS0"
  },
  {
    "OBJECTID": 17,
    "ProviderNa": "South Austin Medical Center",
    "OrgType": "Hospital",
    "Address": "901 W Ben White Blvd",
    "City": "Austin",
    "State": "TX",
    "ZIP": 78704,
    "County": "TRAVIS",
    "Wk1Pfizer": 975,
    "Wk2Pfizer": 975,
    "PfizerTota": 1950,
    "Wk2Moderna": 0,
    "ModernaTot": 0,
    "GrandTotal": 1950,
    "OrgGroup": "Hospital",
    "N_LAT": 30.227164,
    "N_LON": -97.774094,
    "N_LCODE": "AS0"
  },
  {
    "OBJECTID": 18,
    "ProviderNa": "The Medical Center Of Southeast Texas",
    "OrgType": "Hospital",
    "Address": "2555 Jimmy Johnson Blvd",
    "City": "Port Arthur",
    "State": "TX",
    "ZIP": 77640,
    "County": "JEFFERSON",
    "Wk1Pfizer": 975,
    "Wk2Pfizer": 0,
    "PfizerTota": 975,
    "Wk2Moderna": 0,
    "ModernaTot": 0,
    "GrandTotal": 975,
    "OrgGroup": "Hospital",
    "N_LAT": 29.935124,
    "N_LON": -93.984973,
    "N_LCODE": "AS0"
  },
  {
    "OBJECTID": 19,
    "ProviderNa": "San Antonio State Hospital",
    "OrgType": "Hospital",
    "Address": "6711 S New Braunfels Ave",
    "City": "San Antonio",
    "State": "TX",
    "ZIP": 78223,
    "County": "BEXAR",
    "Wk1Pfizer": 975,
    "Wk2Pfizer": 0,
    "PfizerTota": 975,
    "Wk2Moderna": 0,
    "ModernaTot": 0,
    "GrandTotal": 975,
    "OrgGroup": "Hospital",
    "N_LAT": 29.36083,
    "N_LON": -98.449812,
    "N_LCODE": "AS0"
  },
  {
    "OBJECTID": 20,
    "ProviderNa": "Memorial Hermann The Woodlands Hospital",
    "OrgType": "Hospital",
    "Address": "9250 Pinecroft Drive",
    "City": "Spring",
    "State": "TX",
    "ZIP": 77380,
    "County": "MONTGOMERY",
    "Wk1Pfizer": 1950,
    "Wk2Pfizer": 0,
    "PfizerTota": 1950,
    "Wk2Moderna": 0,
    "ModernaTot": 0,
    "GrandTotal": 1950,
    "OrgGroup": "Hospital",
    "N_LAT": 30.173849,
    "N_LON": -95.455996,
    "N_LCODE": "AS0"
  },
  {
    "OBJECTID": 21,
    "ProviderNa": "Memorial Hermann Greater Heights",
    "OrgType": "Hospital",
    "Address": "1635 North Loop W",
    "City": "Houston",
    "State": "TX",
    "ZIP": 77008,
    "County": "HARRIS",
    "Wk1Pfizer": 1950,
    "Wk2Pfizer": 0,
    "PfizerTota": 1950,
    "Wk2Moderna": 0,
    "ModernaTot": 0,
    "GrandTotal": 1950,
    "OrgGroup": "Hospital",
    "N_LAT": 29.812146,
    "N_LON": -95.430684,
    "N_LCODE": "AS0"
  },
  {
    "OBJECTID": 22,
    "ProviderNa": "Memorial Hermann Katy Hospital",
    "OrgType": "Hospital",
    "Address": "23900 Katy Fwy",
    "City": "Katy",
    "State": "TX",
    "ZIP": 77494,
    "County": "HARRIS",
    "Wk1Pfizer": 975,
    "Wk2Pfizer": 0,
    "PfizerTota": 975,
    "Wk2Moderna": 0,
    "ModernaTot": 0,
    "GrandTotal": 975,
    "OrgGroup": "Hospital",
    "N_LAT": 29.786054,
    "N_LON": -95.785498,
    "N_LCODE": "AS0"
  },
  {
    "OBJECTID": 23,
    "ProviderNa": "Memorial Hermann SE Hospital",
    "OrgType": "Hospital",
    "Address": "11800 Astoria Blvd",
    "City": "Houston",
    "State": "TX",
    "ZIP": 77089,
    "County": "HARRIS",
    "Wk1Pfizer": 1950,
    "Wk2Pfizer": 0,
    "PfizerTota": 1950,
    "Wk2Moderna": 0,
    "ModernaTot": 0,
    "GrandTotal": 1950,
    "OrgGroup": "Hospital",
    "N_LAT": 29.5837,
    "N_LON": -95.208399,
    "N_LCODE": "AS0"
  },
  {
    "OBJECTID": 24,
    "ProviderNa": "Cook Childrens Occupational Health Services",
    "OrgType": "Hospital",
    "Address": "901 7th Ave Ste 4200",
    "City": "Fort Worth",
    "State": "TX",
    "ZIP": 76104,
    "County": "TARRANT",
    "Wk1Pfizer": 1950,
    "Wk2Pfizer": 0,
    "PfizerTota": 1950,
    "Wk2Moderna": 0,
    "ModernaTot": 0,
    "GrandTotal": 1950,
    "OrgGroup": "Hospital",
    "N_LAT": 32.735087,
    "N_LON": -97.341812,
    "N_LCODE": "AS0"
  },
  {
    "OBJECTID": 25,
    "ProviderNa": "Christus Mother Frances Hospital - Tyler",
    "OrgType": "Hospital",
    "Address": "800 E Dawson",
    "City": "Tyler",
    "State": "TX",
    "ZIP": 75701,
    "County": "SMITH",
    "Wk1Pfizer": 975,
    "Wk2Pfizer": 975,
    "PfizerTota": 1950,
    "Wk2Moderna": 0,
    "ModernaTot": 0,
    "GrandTotal": 1950,
    "OrgGroup": "Hospital",
    "N_LAT": 32.341826,
    "N_LON": -95.29074,
    "N_LCODE": "AS0"
  },
  {
    "OBJECTID": 26,
    "ProviderNa": "Houston Methodist Clear Lake Hospital",
    "OrgType": "Hospital",
    "Address": "18300 Houston Methodist Dr",
    "City": "Houston",
    "State": "TX",
    "ZIP": 77058,
    "County": "HARRIS",
    "Wk1Pfizer": 975,
    "Wk2Pfizer": 0,
    "PfizerTota": 975,
    "Wk2Moderna": 0,
    "ModernaTot": 0,
    "GrandTotal": 975,
    "OrgGroup": "Hospital",
    "N_LAT": 29.549731,
    "N_LON": -95.085351,
    "N_LCODE": "AS0"
  },
  {
    "OBJECTID": 27,
    "ProviderNa": "Christus Health St Elizabeth Hospital",
    "OrgType": "Hospital",
    "Address": "2830 Calder St",
    "City": "Beaumont",
    "State": "TX",
    "ZIP": 77702,
    "County": "JEFFERSON",
    "Wk1Pfizer": 975,
    "Wk2Pfizer": 0,
    "PfizerTota": 975,
    "Wk2Moderna": 0,
    "ModernaTot": 0,
    "GrandTotal": 975,
    "OrgGroup": "Hospital",
    "N_LAT": 30.085721,
    "N_LON": -94.131674,
    "N_LCODE": "AS0"
  },
  {
    "OBJECTID": 28,
    "ProviderNa": "North Texas State Hospital",
    "OrgType": "Hospital",
    "Address": "6515 Kemp Blvd",
    "City": "Wichita Falls",
    "State": "TX",
    "ZIP": 76308,
    "County": "WICHITA",
    "Wk1Pfizer": 975,
    "Wk2Pfizer": 0,
    "PfizerTota": 975,
    "Wk2Moderna": 0,
    "ModernaTot": 0,
    "GrandTotal": 975,
    "OrgGroup": "Hospital",
    "N_LAT": 33.840246,
    "N_LON": -98.527498,
    "N_LCODE": "AS0"
  },
  {
    "OBJECTID": 29,
    "ProviderNa": "Kingwood Medical Center",
    "OrgType": "Hospital",
    "Address": "22999 Us Highway 59",
    "City": "Kingwood",
    "State": "TX",
    "ZIP": 77339,
    "County": "MONTGOMERY",
    "Wk1Pfizer": 975,
    "Wk2Pfizer": 0,
    "PfizerTota": 975,
    "Wk2Moderna": 0,
    "ModernaTot": 0,
    "GrandTotal": 975,
    "OrgGroup": "Hospital",
    "N_LAT": 30.050179,
    "N_LON": -95.253129,
    "N_LCODE": "AS0"
  },
  {
    "OBJECTID": 30,
    "ProviderNa": "North Central Baptist Hospital",
    "OrgType": "Hospital",
    "Address": "520 Madison Oak Dr",
    "City": "San Antonio",
    "State": "TX",
    "ZIP": 78258,
    "County": "BEXAR",
    "Wk1Pfizer": 975,
    "Wk2Pfizer": 0,
    "PfizerTota": 975,
    "Wk2Moderna": 0,
    "ModernaTot": 0,
    "GrandTotal": 975,
    "OrgGroup": "Hospital",
    "N_LAT": 29.62112,
    "N_LON": -98.491518,
    "N_LCODE": "AS0"
  },
  {
    "OBJECTID": 31,
    "ProviderNa": "Hunt Regional Medical Center",
    "OrgType": "Hospital",
    "Address": "4215 Joe Ramsey Blvd E",
    "City": "Greenville",
    "State": "TX",
    "ZIP": 75401,
    "County": "HUNT",
    "Wk1Pfizer": 975,
    "Wk2Pfizer": 0,
    "PfizerTota": 975,
    "Wk2Moderna": 0,
    "ModernaTot": 0,
    "GrandTotal": 975,
    "OrgGroup": "Hospital",
    "N_LAT": 33.123267,
    "N_LON": -96.123191,
    "N_LCODE": "AS0"
  },
  {
    "OBJECTID": 32,
    "ProviderNa": "Dell Seton Medical Center At University Of Texas",
    "OrgType": "Hospital",
    "Address": "1500 Red River St",
    "City": "Austin",
    "State": "TX",
    "ZIP": 78701,
    "County": "TRAVIS",
    "Wk1Pfizer": 1950,
    "Wk2Pfizer": 0,
    "PfizerTota": 1950,
    "Wk2Moderna": 0,
    "ModernaTot": 0,
    "GrandTotal": 1950,
    "OrgGroup": "Hospital",
    "N_LAT": 30.275578,
    "N_LON": -97.733982,
    "N_LCODE": "AS0"
  },
  {
    "OBJECTID": 33,
    "ProviderNa": "Christus Santa Rosa Hospital - Westover Hills",
    "OrgType": "Hospital",
    "Address": "11212 Tx-151",
    "City": "San Antonio",
    "State": "TX",
    "ZIP": 78251,
    "County": "DALLAS",
    "Wk1Pfizer": 4875,
    "Wk2Pfizer": 0,
    "PfizerTota": 4875,
    "Wk2Moderna": 0,
    "ModernaTot": 0,
    "GrandTotal": 4875,
    "OrgGroup": "Hospital",
    "N_LAT": 29.46807,
    "N_LON": -98.695096,
    "N_LCODE": "AS0"
  },
  {
    "OBJECTID": 34,
    "ProviderNa": "Valley Baptist Medical Center",
    "OrgType": "Hospital",
    "Address": "2101 Pease St",
    "City": "Harlingen",
    "State": "TX",
    "ZIP": 78550,
    "County": "CAMERON",
    "Wk1Pfizer": 2925,
    "Wk2Pfizer": 0,
    "PfizerTota": 2925,
    "Wk2Moderna": 0,
    "ModernaTot": 0,
    "GrandTotal": 2925,
    "OrgGroup": "Hospital",
    "N_LAT": 26.17406,
    "N_LON": -97.671038,
    "N_LCODE": "AS0"
  },
  {
    "OBJECTID": 35,
    "ProviderNa": "St Lukes Baptist Hospital",
    "OrgType": "Hospital",
    "Address": "7930 Floyd Curl Dr",
    "City": "San Antonio",
    "State": "TX",
    "ZIP": 78229,
    "County": "BEXAR",
    "Wk1Pfizer": 975,
    "Wk2Pfizer": 0,
    "PfizerTota": 975,
    "Wk2Moderna": 0,
    "ModernaTot": 0,
    "GrandTotal": 975,
    "OrgGroup": "Hospital",
    "N_LAT": 29.511737,
    "N_LON": -98.57548,
    "N_LCODE": "AS0"
  },
  {
    "OBJECTID": 36,
    "ProviderNa": "Austin State Hospital",
    "OrgType": "Hospital",
    "Address": "4110 Guadalupe St",
    "City": "Austin",
    "State": "TX",
    "ZIP": 78751,
    "County": "TRAVIS",
    "Wk1Pfizer": 975,
    "Wk2Pfizer": 0,
    "PfizerTota": 975,
    "Wk2Moderna": 0,
    "ModernaTot": 0,
    "GrandTotal": 975,
    "OrgGroup": "Hospital",
    "N_LAT": 30.30767,
    "N_LON": -97.735188,
    "N_LCODE": "AS0"
  },
  {
    "OBJECTID": 37,
    "ProviderNa": "North Austin Medical Center",
    "OrgType": "Hospital",
    "Address": "12221 Mopac Exp North",
    "City": "Austin",
    "State": "TX",
    "ZIP": 78758,
    "County": "TRAVIS",
    "Wk1Pfizer": 975,
    "Wk2Pfizer": 0,
    "PfizerTota": 975,
    "Wk2Moderna": 0,
    "ModernaTot": 0,
    "GrandTotal": 975,
    "OrgGroup": "Hospital",
    "N_LAT": 30.412158,
    "N_LON": -97.707889,
    "N_LCODE": "AS0"
  },
  {
    "OBJECTID": 38,
    "ProviderNa": "Christus Santa Rosa Medical Center",
    "OrgType": "Hospital",
    "Address": "2827 Babcock Rd",
    "City": "San Antonio",
    "State": "TX",
    "ZIP": 78229,
    "County": "BEXAR",
    "Wk1Pfizer": 3900,
    "Wk2Pfizer": 975,
    "PfizerTota": 4875,
    "Wk2Moderna": 0,
    "ModernaTot": 0,
    "GrandTotal": 4875,
    "OrgGroup": "Hospital",
    "N_LAT": 29.512782,
    "N_LON": -98.591378,
    "N_LCODE": "AS0"
  },
  {
    "OBJECTID": 39,
    "ProviderNa": "Midland Memorial Hospital",
    "OrgType": "Hospital",
    "Address": "400 Rosalind Redfern Grover Pkwy",
    "City": "Midland",
    "State": "TX",
    "ZIP": 79701,
    "County": "MIDLAND",
    "Wk1Pfizer": 1950,
    "Wk2Pfizer": 0,
    "PfizerTota": 1950,
    "Wk2Moderna": 0,
    "ModernaTot": 0,
    "GrandTotal": 1950,
    "OrgGroup": "Hospital",
    "N_LAT": 31.997345,
    "N_LON": -102.100007,
    "N_LCODE": "AS0"
  },
  {
    "OBJECTID": 40,
    "ProviderNa": "University Health System - Inpatient",
    "OrgType": "Hospital",
    "Address": "4502 Medical Dr",
    "City": "San Antonio",
    "State": "TX",
    "ZIP": 78229,
    "County": "BEXAR",
    "Wk1Pfizer": 5850,
    "Wk2Pfizer": 975,
    "PfizerTota": 6825,
    "Wk2Moderna": 0,
    "ModernaTot": 0,
    "GrandTotal": 6825,
    "OrgGroup": "Hospital",
    "N_LAT": 29.509319,
    "N_LON": -98.57695,
    "N_LCODE": "AS0"
  },
  {
    "OBJECTID": 41,
    "ProviderNa": "Rio Grande Regional Hospital",
    "OrgType": "Hospital",
    "Address": "101 E Ridge Road",
    "City": "McAllen",
    "State": "TX",
    "ZIP": 78503,
    "County": "HIDALGO",
    "Wk1Pfizer": 975,
    "Wk2Pfizer": 0,
    "PfizerTota": 975,
    "Wk2Moderna": 0,
    "ModernaTot": 0,
    "GrandTotal": 975,
    "OrgGroup": "Hospital",
    "N_LAT": 26.185799,
    "N_LON": -98.224113,
    "N_LCODE": "AS0"
  },
  {
    "OBJECTID": 42,
    "ProviderNa": "The Hospitals of Providence East Campus",
    "OrgType": "Hospital",
    "Address": "3280 Joe Battle Blvd",
    "City": "El Paso",
    "State": "TX",
    "ZIP": 79938,
    "County": "EL PASO",
    "Wk1Pfizer": 975,
    "Wk2Pfizer": 0,
    "PfizerTota": 975,
    "Wk2Moderna": 3000,
    "ModernaTot": 3000,
    "GrandTotal": 3975,
    "OrgGroup": "Hospital",
    "N_LAT": 31.79019,
    "N_LON": -106.267485,
    "N_LCODE": "AS0"
  },
  {
    "OBJECTID": 43,
    "ProviderNa": "Terrell State Hospital",
    "OrgType": "Hospital",
    "Address": "1200 E Brin St",
    "City": "Terrell",
    "State": "TX",
    "ZIP": 75160,
    "County": "KAUFMAN",
    "Wk1Pfizer": 975,
    "Wk2Pfizer": 0,
    "PfizerTota": 975,
    "Wk2Moderna": 0,
    "ModernaTot": 0,
    "GrandTotal": 975,
    "OrgGroup": "Hospital",
    "N_LAT": 32.738317,
    "N_LON": -96.262982,
    "N_LCODE": "AS0"
  },
  {
    "OBJECTID": 44,
    "ProviderNa": "Corpus Christi Medical Center",
    "OrgType": "Hospital",
    "Address": "3315 S Alameda St",
    "City": "Corpus Christi",
    "State": "TX",
    "ZIP": 78411,
    "County": "NUECES",
    "Wk1Pfizer": 975,
    "Wk2Pfizer": 0,
    "PfizerTota": 975,
    "Wk2Moderna": 0,
    "ModernaTot": 0,
    "GrandTotal": 975,
    "OrgGroup": "Hospital",
    "N_LAT": 27.753605,
    "N_LON": -97.388034,
    "N_LCODE": "AS0"
  },
  {
    "OBJECTID": 45,
    "ProviderNa": "Medical City Dallas Hospital",
    "OrgType": "Hospital",
    "Address": "7777 Forest Lane",
    "City": "Dallas",
    "State": "TX",
    "ZIP": 75230,
    "County": "DALLAS",
    "Wk1Pfizer": 1950,
    "Wk2Pfizer": 0,
    "PfizerTota": 1950,
    "Wk2Moderna": 0,
    "ModernaTot": 0,
    "GrandTotal": 1950,
    "OrgGroup": "Hospital",
    "N_LAT": 32.909603,
    "N_LON": -96.772193,
    "N_LCODE": "AS0"
  },
  {
    "OBJECTID": 46,
    "ProviderNa": "The Hospitals of Providence Memorial Campus",
    "OrgType": "Pharmacy",
    "Address": "2001 N Oregon St",
    "City": "El Paso",
    "State": "TX",
    "ZIP": 79902,
    "County": "EL PASO",
    "Wk1Pfizer": 975,
    "Wk2Pfizer": 0,
    "PfizerTota": 975,
    "Wk2Moderna": 0,
    "ModernaTot": 0,
    "GrandTotal": 975,
    "OrgGroup": "Hospital",
    "N_LAT": 31.771217,
    "N_LON": -106.499591,
    "N_LCODE": "AS0"
  },
  {
    "OBJECTID": 47,
    "ProviderNa": "Wise Health System",
    "OrgType": "Hospital",
    "Address": "609 Medical Center Dr",
    "City": "Decatur",
    "State": "TX",
    "ZIP": 76234,
    "County": "WISE",
    "Wk1Pfizer": 975,
    "Wk2Pfizer": 0,
    "PfizerTota": 975,
    "Wk2Moderna": 0,
    "ModernaTot": 0,
    "GrandTotal": 975,
    "OrgGroup": "Hospital",
    "N_LAT": 33.219871,
    "N_LON": -97.593651,
    "N_LCODE": "AS0"
  },
  {
    "OBJECTID": 48,
    "ProviderNa": "CHRISTUS Good Shepherd Medical Center Longview",
    "OrgType": "Hospital",
    "Address": "700 E Marshall Ave",
    "City": "Longview",
    "State": "TX",
    "ZIP": 75601,
    "County": "GREGG",
    "Wk1Pfizer": 975,
    "Wk2Pfizer": 975,
    "PfizerTota": 1950,
    "Wk2Moderna": 0,
    "ModernaTot": 0,
    "GrandTotal": 1950,
    "OrgGroup": "Hospital",
    "N_LAT": 32.501383,
    "N_LON": -94.731253,
    "N_LCODE": "AS0"
  },
  {
    "OBJECTID": 49,
    "ProviderNa": "Methodist Metropolitan Hospital",
    "OrgType": "Hospital",
    "Address": "1310 McCullough Ave",
    "City": "San Antonio",
    "State": "TX",
    "ZIP": 78212,
    "County": "BEXAR",
    "Wk1Pfizer": 975,
    "Wk2Pfizer": 0,
    "PfizerTota": 975,
    "Wk2Moderna": 0,
    "ModernaTot": 0,
    "GrandTotal": 975,
    "OrgGroup": "Hospital",
    "N_LAT": 29.440816,
    "N_LON": -98.491682,
    "N_LCODE": "AS0"
  },
  {
    "OBJECTID": 50,
    "ProviderNa": "Medical Center Of Arlington",
    "OrgType": "Hospital",
    "Address": "3301 Matlock Rd",
    "City": "Arlington",
    "State": "TX",
    "ZIP": 76015,
    "County": "TARRANT",
    "Wk1Pfizer": 975,
    "Wk2Pfizer": 0,
    "PfizerTota": 975,
    "Wk2Moderna": 0,
    "ModernaTot": 0,
    "GrandTotal": 975,
    "OrgGroup": "Hospital",
    "N_LAT": 32.691813,
    "N_LON": -97.114634,
    "N_LCODE": "AS0"
  },
  {
    "OBJECTID": 51,
    "ProviderNa": "Northeast Baptist Hospital",
    "OrgType": "Hospital",
    "Address": "8811 Village",
    "City": "San Antonio",
    "State": "TX",
    "ZIP": 78217,
    "County": "BEXAR",
    "Wk1Pfizer": 975,
    "Wk2Pfizer": 0,
    "PfizerTota": 975,
    "Wk2Moderna": 0,
    "ModernaTot": 0,
    "GrandTotal": 975,
    "OrgGroup": "Hospital",
    "N_LAT": 29.519794,
    "N_LON": -98.427654,
    "N_LCODE": "AS0"
  },
  {
    "OBJECTID": 52,
    "ProviderNa": "Del Sol Campus Of Lpds",
    "OrgType": "Hospital",
    "Address": "10301 Gateway Blvd W",
    "City": "El Paso",
    "State": "TX",
    "ZIP": 79925,
    "County": "EL PASO",
    "Wk1Pfizer": 975,
    "Wk2Pfizer": 0,
    "PfizerTota": 975,
    "Wk2Moderna": 0,
    "ModernaTot": 0,
    "GrandTotal": 975,
    "OrgGroup": "Hospital",
    "N_LAT": 31.756792,
    "N_LON": -106.351167,
    "N_LCODE": "AS0"
  },
  {
    "OBJECTID": 53,
    "ProviderNa": "Houston Methodist Willowbrook Hospital",
    "OrgType": "Hospital",
    "Address": "18220 State Highway 249",
    "City": "Houston",
    "State": "TX",
    "ZIP": 77070,
    "County": "HARRIS",
    "Wk1Pfizer": 975,
    "Wk2Pfizer": 0,
    "PfizerTota": 975,
    "Wk2Moderna": 1000,
    "ModernaTot": 1000,
    "GrandTotal": 1975,
    "OrgGroup": "Hospital",
    "N_LAT": 29.964231,
    "N_LON": -95.550785,
    "N_LCODE": "AS0"
  },
  {
    "OBJECTID": 54,
    "ProviderNa": "Baptist Medical Center",
    "OrgType": "Hospital",
    "Address": "111 Dallas Street",
    "City": "San Antonio",
    "State": "TX",
    "ZIP": 78205,
    "County": "BEXAR",
    "Wk1Pfizer": 975,
    "Wk2Pfizer": 975,
    "PfizerTota": 1950,
    "Wk2Moderna": 0,
    "ModernaTot": 0,
    "GrandTotal": 1950,
    "OrgGroup": "Hospital",
    "N_LAT": 29.432965,
    "N_LON": -98.492892,
    "N_LCODE": "AS0"
  },
  {
    "OBJECTID": 55,
    "ProviderNa": "HCA Houston Healthcare Southeast",
    "OrgType": "Hospital",
    "Address": "4000 spencer highway",
    "City": "Pasadena",
    "State": "TX",
    "ZIP": 77504,
    "County": "HARRIS",
    "Wk1Pfizer": 975,
    "Wk2Pfizer": 0,
    "PfizerTota": 975,
    "Wk2Moderna": 0,
    "ModernaTot": 0,
    "GrandTotal": 975,
    "OrgGroup": "Hospital",
    "N_LAT": 29.665027,
    "N_LON": -95.183681,
    "N_LCODE": "AS0"
  },
  {
    "OBJECTID": 56,
    "ProviderNa": "St Davids Medical Center",
    "OrgType": "Hospital",
    "Address": "919 E 32nd St",
    "City": "Austin",
    "State": "TX",
    "ZIP": 78705,
    "County": "TRAVIS",
    "Wk1Pfizer": 975,
    "Wk2Pfizer": 0,
    "PfizerTota": 975,
    "Wk2Moderna": 0,
    "ModernaTot": 0,
    "GrandTotal": 975,
    "OrgGroup": "Hospital",
    "N_LAT": 30.290325,
    "N_LON": -97.725943,
    "N_LCODE": "AS0"
  },
  {
    "OBJECTID": 57,
    "ProviderNa": "Las Palmas Medical Center",
    "OrgType": "Hospital",
    "Address": "1801 N Oregon St",
    "City": "El Paso",
    "State": "TX",
    "ZIP": 79902,
    "County": "EL PASO",
    "Wk1Pfizer": 975,
    "Wk2Pfizer": 0,
    "PfizerTota": 975,
    "Wk2Moderna": 0,
    "ModernaTot": 0,
    "GrandTotal": 975,
    "OrgGroup": "Hospital",
    "N_LAT": 31.770082,
    "N_LON": -106.498586,
    "N_LCODE": "AS0"
  },
  {
    "OBJECTID": 58,
    "ProviderNa": "Longview Medical Center  L.P.",
    "OrgType": "Hospital",
    "Address": "2901 North 4Th Street",
    "City": "Longview",
    "State": "TX",
    "ZIP": 75605,
    "County": "GREGG",
    "Wk1Pfizer": 975,
    "Wk2Pfizer": 0,
    "PfizerTota": 975,
    "Wk2Moderna": 0,
    "ModernaTot": 0,
    "GrandTotal": 975,
    "OrgGroup": "Hospital",
    "N_LAT": 32.532234,
    "N_LON": -94.728973,
    "N_LCODE": "AS0"
  },
  {
    "OBJECTID": 59,
    "ProviderNa": "STAT Specialty Hospital",
    "OrgType": "Hospital",
    "Address": "2502 NE Bob Bullock Loop",
    "City": "Laredo",
    "State": "TX",
    "ZIP": 78045,
    "County": "WEBB",
    "Wk1Pfizer": 1950,
    "Wk2Pfizer": 0,
    "PfizerTota": 1950,
    "Wk2Moderna": 0,
    "ModernaTot": 0,
    "GrandTotal": 1950,
    "OrgGroup": "Hospital",
    "N_LAT": 27.612292,
    "N_LON": -99.469038,
    "N_LCODE": "AI0"
  },
  {
    "OBJECTID": 60,
    "ProviderNa": "Citizens Medical Center - Victoria 1",
    "OrgType": "Hospital",
    "Address": "2701 Hospital Dr",
    "City": "Victoria",
    "State": "TX",
    "ZIP": 77901,
    "County": "VICTORIA",
    "Wk1Pfizer": 975,
    "Wk2Pfizer": 0,
    "PfizerTota": 975,
    "Wk2Moderna": 0,
    "ModernaTot": 0,
    "GrandTotal": 975,
    "OrgGroup": "Hospital",
    "N_LAT": 28.813138,
    "N_LON": -96.976912,
    "N_LCODE": "AS0"
  },
  {
    "OBJECTID": 61,
    "ProviderNa": "Baylor Scott And White All Saints Medical Center - Fort Worth",
    "OrgType": "Hospital",
    "Address": "1400 8th Ave",
    "City": "Fort Worth",
    "State": "TX",
    "ZIP": 76104,
    "County": "TARRANT",
    "Wk1Pfizer": 975,
    "Wk2Pfizer": 0,
    "PfizerTota": 975,
    "Wk2Moderna": 0,
    "ModernaTot": 0,
    "GrandTotal": 975,
    "OrgGroup": "Hospital",
    "N_LAT": 32.730424,
    "N_LON": -97.343891,
    "N_LCODE": "AS0"
  },
  {
    "OBJECTID": 62,
    "ProviderNa": "Laredo Medical Center",
    "OrgType": "Hospital",
    "Address": "1700 East Saunders",
    "City": "Laredo",
    "State": "TX",
    "ZIP": 78041,
    "County": "WEBB",
    "Wk1Pfizer": 975,
    "Wk2Pfizer": 975,
    "PfizerTota": 1950,
    "Wk2Moderna": 0,
    "ModernaTot": 0,
    "GrandTotal": 1950,
    "OrgGroup": "Hospital",
    "N_LAT": 27.530725,
    "N_LON": -99.479209,
    "N_LCODE": "AS0"
  },
  {
    "OBJECTID": 63,
    "ProviderNa": "Baylor Scott And White Medical Center - Irving",
    "OrgType": "Hospital",
    "Address": "1901 N Macarthur Blvd",
    "City": "Irving",
    "State": "TX",
    "ZIP": 75061,
    "County": "DALLAS",
    "Wk1Pfizer": 975,
    "Wk2Pfizer": 0,
    "PfizerTota": 975,
    "Wk2Moderna": 0,
    "ModernaTot": 0,
    "GrandTotal": 975,
    "OrgGroup": "Hospital",
    "N_LAT": 32.835514,
    "N_LON": -96.959388,
    "N_LCODE": "AS0"
  },
  {
    "OBJECTID": 64,
    "ProviderNa": "Northwest Texas Hospital Pharmacy",
    "OrgType": "Hospital",
    "Address": "1501 S Coulter St",
    "City": "Amarillo",
    "State": "TX",
    "ZIP": 79106,
    "County": "POTTER",
    "Wk1Pfizer": 975,
    "Wk2Pfizer": 975,
    "PfizerTota": 1950,
    "Wk2Moderna": 0,
    "ModernaTot": 0,
    "GrandTotal": 1950,
    "OrgGroup": "Hospital",
    "N_LAT": 35.199904,
    "N_LON": -101.921712,
    "N_LCODE": "AS0"
  },
  {
    "OBJECTID": 65,
    "ProviderNa": "Texas Children's Hospital West Campus",
    "OrgType": "Hospital",
    "Address": "18200 Katy Freeway",
    "City": "Houston",
    "State": "TX",
    "ZIP": 77094,
    "County": "HARRIS",
    "Wk1Pfizer": 975,
    "Wk2Pfizer": 0,
    "PfizerTota": 975,
    "Wk2Moderna": 0,
    "ModernaTot": 0,
    "GrandTotal": 975,
    "OrgGroup": "Hospital",
    "N_LAT": 29.785656,
    "N_LON": -95.695444,
    "N_LCODE": "AS0"
  },
  {
    "OBJECTID": 66,
    "ProviderNa": "Texas Children's Hospital Woodlands",
    "OrgType": "Hospital",
    "Address": "17600 Interstate 45 S",
    "City": "Conroe",
    "State": "TX",
    "ZIP": 77384,
    "County": "MONTGOMERY",
    "Wk1Pfizer": 975,
    "Wk2Pfizer": 0,
    "PfizerTota": 975,
    "Wk2Moderna": 0,
    "ModernaTot": 0,
    "GrandTotal": 975,
    "OrgGroup": "Hospital",
    "N_LAT": 30.201028,
    "N_LON": -95.455971,
    "N_LCODE": "AS0"
  },
  {
    "OBJECTID": 67,
    "ProviderNa": "Baylor Scott White Health MC Round Rock",
    "OrgType": "Hospital",
    "Address": "300 University Blvd",
    "City": "Round Rock",
    "State": "TX",
    "ZIP": 78665,
    "County": "WILLIAMSON",
    "Wk1Pfizer": 975,
    "Wk2Pfizer": 0,
    "PfizerTota": 975,
    "Wk2Moderna": 0,
    "ModernaTot": 0,
    "GrandTotal": 975,
    "OrgGroup": "Hospital",
    "N_LAT": 30.560374,
    "N_LON": -97.685113,
    "N_LCODE": "AS0"
  },
  {
    "OBJECTID": 68,
    "ProviderNa": "Memorial Hermann Memorial City Medical Center",
    "OrgType": "Hospital",
    "Address": "921 Gessner Rd",
    "City": "Houston",
    "State": "TX",
    "ZIP": 77024,
    "County": "HARRIS",
    "Wk1Pfizer": 2925,
    "Wk2Pfizer": 0,
    "PfizerTota": 2925,
    "Wk2Moderna": 0,
    "ModernaTot": 0,
    "GrandTotal": 2925,
    "OrgGroup": "Hospital",
    "N_LAT": 29.781186,
    "N_LON": -95.544542,
    "N_LCODE": "AS0"
  },
  {
    "OBJECTID": 69,
    "ProviderNa": "South Texas Health System Mcallen",
    "OrgType": "Hospital",
    "Address": "301 W Expressway 83",
    "City": "McAllen",
    "State": "TX",
    "ZIP": 78503,
    "County": "HIDALGO",
    "Wk1Pfizer": 975,
    "Wk2Pfizer": 975,
    "PfizerTota": 1950,
    "Wk2Moderna": 0,
    "ModernaTot": 0,
    "GrandTotal": 1950,
    "OrgGroup": "Hospital",
    "N_LAT": 26.188061,
    "N_LON": -98.225683,
    "N_LCODE": "AS0"
  },
  {
    "OBJECTID": 70,
    "ProviderNa": "Houston Methodist The Woodlands Hsptl",
    "OrgType": "Hospital",
    "Address": "17201 Interstate 45 S",
    "City": "Conroe",
    "State": "TX",
    "ZIP": 77385,
    "County": "MONTGOMERY",
    "Wk1Pfizer": 975,
    "Wk2Pfizer": 0,
    "PfizerTota": 975,
    "Wk2Moderna": 900,
    "ModernaTot": 900,
    "GrandTotal": 1875,
    "OrgGroup": "Hospital",
    "N_LAT": 30.20597,
    "N_LON": -95.455495,
    "N_LCODE": "AS0"
  },
  {
    "OBJECTID": 71,
    "ProviderNa": "Providence Health - Providence Health Center",
    "OrgType": "Hospital",
    "Address": "6901 Medical Pkwy",
    "City": "Waco",
    "State": "TX",
    "ZIP": 76712,
    "County": "MCLENNAN",
    "Wk1Pfizer": 975,
    "Wk2Pfizer": 0,
    "PfizerTota": 975,
    "Wk2Moderna": 0,
    "ModernaTot": 0,
    "GrandTotal": 975,
    "OrgGroup": "Hospital",
    "N_LAT": 31.513426,
    "N_LON": -97.198506,
    "N_LCODE": "AS0"
  },
  {
    "OBJECTID": 72,
    "ProviderNa": "Baylor Scott & White Hospital - Grapevine",
    "OrgType": "Hospital",
    "Address": "1650 W College St Ste 119",
    "City": "Grapevine",
    "State": "TX",
    "ZIP": 76051,
    "County": "TARRANT",
    "Wk1Pfizer": 975,
    "Wk2Pfizer": 0,
    "PfizerTota": 975,
    "Wk2Moderna": 0,
    "ModernaTot": 0,
    "GrandTotal": 975,
    "OrgGroup": "Hospital",
    "N_LAT": 32.935659,
    "N_LON": -97.094451,
    "N_LCODE": "AS0"
  },
  {
    "OBJECTID": 73,
    "ProviderNa": "Texoma Medical Center- Hospital Patients",
    "OrgType": "Hospital",
    "Address": "5016 S Us Highway 75",
    "City": "Denison",
    "State": "TX",
    "ZIP": 75020,
    "County": "GRAYSON",
    "Wk1Pfizer": 1950,
    "Wk2Pfizer": 975,
    "PfizerTota": 2925,
    "Wk2Moderna": 0,
    "ModernaTot": 0,
    "GrandTotal": 2925,
    "OrgGroup": "Hospital",
    "N_LAT": 33.710947,
    "N_LON": -96.58689,
    "N_LCODE": "AS0"
  },
  {
    "OBJECTID": 74,
    "ProviderNa": "North Texas Infectious Diseases Consultants - Nc Expy",
    "OrgType": "Private Practice",
    "Address": "9301 North Central Expressway",
    "City": "Dallas",
    "State": "TX",
    "ZIP": 75231,
    "County": "DALLAS",
    "Wk1Pfizer": 975,
    "Wk2Pfizer": 0,
    "PfizerTota": 975,
    "Wk2Moderna": 0,
    "ModernaTot": 0,
    "GrandTotal": 975,
    "OrgGroup": "Medical Practice",
    "N_LAT": 32.8754,
    "N_LON": -96.770791,
    "N_LCODE": "AS0"
  },
  {
    "OBJECTID": 75,
    "ProviderNa": "Houston Methodist West Hospital",
    "OrgType": "Hospital",
    "Address": "18500 Katy Fwy",
    "City": "Houston",
    "State": "TX",
    "ZIP": 77094,
    "County": "HARRIS",
    "Wk1Pfizer": 975,
    "Wk2Pfizer": 0,
    "PfizerTota": 975,
    "Wk2Moderna": 800,
    "ModernaTot": 800,
    "GrandTotal": 1775,
    "OrgGroup": "Hospital",
    "N_LAT": 29.785668,
    "N_LON": -95.697304,
    "N_LCODE": "AS0"
  },
  {
    "OBJECTID": 76,
    "ProviderNa": "Baylor Scott & White Medical Center - College Station",
    "OrgType": "Hospital",
    "Address": "700 Scott And White Dr",
    "City": "College Station",
    "State": "TX",
    "ZIP": 77845,
    "County": "BRAZOS",
    "Wk1Pfizer": 975,
    "Wk2Pfizer": 0,
    "PfizerTota": 975,
    "Wk2Moderna": 0,
    "ModernaTot": 0,
    "GrandTotal": 975,
    "OrgGroup": "Hospital",
    "N_LAT": 30.585864,
    "N_LON": -96.280578,
    "N_LCODE": "AS0"
  },
  {
    "OBJECTID": 77,
    "ProviderNa": "Baylor Scott White Med Ctr Hillcrest",
    "OrgType": "Hospital",
    "Address": "100 Hillcrest Medical Blvd",
    "City": "Waco",
    "State": "TX",
    "ZIP": 76712,
    "County": "MCLENNAN",
    "Wk1Pfizer": 975,
    "Wk2Pfizer": 0,
    "PfizerTota": 975,
    "Wk2Moderna": 0,
    "ModernaTot": 0,
    "GrandTotal": 975,
    "OrgGroup": "Hospital",
    "N_LAT": 31.488374,
    "N_LON": -97.155879,
    "N_LCODE": "AS0"
  },
  {
    "OBJECTID": 78,
    "ProviderNa": "Texas Health Huguley Hospital - Fort Worth South",
    "OrgType": "Hospital",
    "Address": "11801 South Fwy",
    "City": "Burleson",
    "State": "TX",
    "ZIP": 76028,
    "County": "TARRANT",
    "Wk1Pfizer": 975,
    "Wk2Pfizer": 0,
    "PfizerTota": 975,
    "Wk2Moderna": 0,
    "ModernaTot": 0,
    "GrandTotal": 975,
    "OrgGroup": "Hospital",
    "N_LAT": 32.586406,
    "N_LON": -97.318937,
    "N_LCODE": "AS0"
  },
  {
    "OBJECTID": 79,
    "ProviderNa": "Houston Methodist Baytown Hospital",
    "OrgType": "Hospital",
    "Address": "4401 Garth Rd",
    "City": "Baytown",
    "State": "TX",
    "ZIP": 77521,
    "County": "HARRIS",
    "Wk1Pfizer": 1950,
    "Wk2Pfizer": 975,
    "PfizerTota": 2925,
    "Wk2Moderna": 0,
    "ModernaTot": 0,
    "GrandTotal": 2925,
    "OrgGroup": "Hospital",
    "N_LAT": 29.768783,
    "N_LON": -94.977704,
    "N_LCODE": "AS0"
  },
  {
    "OBJECTID": 80,
    "ProviderNa": "Baylor University Med Cntr Dallas",
    "OrgType": "Hospital",
    "Address": "3500 Gaston Ave",
    "City": "Dallas",
    "State": "TX",
    "ZIP": 75246,
    "County": "DALLAS",
    "Wk1Pfizer": 2925,
    "Wk2Pfizer": 0,
    "PfizerTota": 2925,
    "Wk2Moderna": 0,
    "ModernaTot": 0,
    "GrandTotal": 2925,
    "OrgGroup": "Hospital",
    "N_LAT": 32.790577,
    "N_LON": -96.780559,
    "N_LCODE": "AS0"
  },
  {
    "OBJECTID": 81,
    "ProviderNa": "Baptist Hospitals of Southeast Texas",
    "OrgType": "Hospital",
    "Address": "3080 College St",
    "City": "Beaumont",
    "State": "TX",
    "ZIP": 77701,
    "County": "JEFFERSON",
    "Wk1Pfizer": 975,
    "Wk2Pfizer": 975,
    "PfizerTota": 1950,
    "Wk2Moderna": 0,
    "ModernaTot": 0,
    "GrandTotal": 1950,
    "OrgGroup": "Hospital",
    "N_LAT": 30.068619,
    "N_LON": -94.119792,
    "N_LCODE": "AS0"
  },
  {
    "OBJECTID": 82,
    "ProviderNa": "United Regional Health Care System",
    "OrgType": "Hospital",
    "Address": "1600 11th Street",
    "City": "Wichita Falls",
    "State": "TX",
    "ZIP": 76301,
    "County": "WICHITA",
    "Wk1Pfizer": 975,
    "Wk2Pfizer": 0,
    "PfizerTota": 975,
    "Wk2Moderna": 0,
    "ModernaTot": 0,
    "GrandTotal": 975,
    "OrgGroup": "Hospital",
    "N_LAT": 33.902975,
    "N_LON": -98.500552,
    "N_LCODE": "AS0"
  },
  {
    "OBJECTID": 83,
    "ProviderNa": "Methodist Hospital & Methodist Children's Hospital",
    "OrgType": "Hospital",
    "Address": "7700 Floyd Curl Drive",
    "City": "San Antonio",
    "State": "TX",
    "ZIP": 78229,
    "County": "BEXAR",
    "Wk1Pfizer": 1950,
    "Wk2Pfizer": 975,
    "PfizerTota": 2925,
    "Wk2Moderna": 0,
    "ModernaTot": 0,
    "GrandTotal": 2925,
    "OrgGroup": "Hospital",
    "N_LAT": 29.507035,
    "N_LON": -98.572968,
    "N_LCODE": "AS0"
  },
  {
    "OBJECTID": 84,
    "ProviderNa": "Houston Methodist Sugar Land Hospital",
    "OrgType": "Hospital",
    "Address": "16655 Southwest Freeway",
    "City": "Sugar Land",
    "State": "TX",
    "ZIP": 77479,
    "County": "FORT BEND",
    "Wk1Pfizer": 1950,
    "Wk2Pfizer": 0,
    "PfizerTota": 1950,
    "Wk2Moderna": 400,
    "ModernaTot": 400,
    "GrandTotal": 2350,
    "OrgGroup": "Hospital",
    "N_LAT": 29.590459,
    "N_LON": -95.631742,
    "N_LCODE": "AS0"
  },
  {
    "OBJECTID": 85,
    "ProviderNa": "University Of Texas Medical Branch - Clear Lake",
    "OrgType": "Hospital",
    "Address": "200 Blossom",
    "City": "Webster",
    "State": "TX",
    "ZIP": 77598,
    "County": "HARRIS",
    "Wk1Pfizer": 975,
    "Wk2Pfizer": 0,
    "PfizerTota": 975,
    "Wk2Moderna": 0,
    "ModernaTot": 0,
    "GrandTotal": 975,
    "OrgGroup": "Hospital",
    "N_LAT": 29.544389,
    "N_LON": -95.125198,
    "N_LCODE": "AS0"
  },
  {
    "OBJECTID": 86,
    "ProviderNa": "UNIVERSITY MEDICAL CENTER LUBBOCK",
    "OrgType": "Hospital",
    "Address": "602 Indiana Ave",
    "City": "Lubbock",
    "State": "TX",
    "ZIP": 79415,
    "County": "LUBBOCK",
    "Wk1Pfizer": 1950,
    "Wk2Pfizer": 0,
    "PfizerTota": 1950,
    "Wk2Moderna": 0,
    "ModernaTot": 0,
    "GrandTotal": 1950,
    "OrgGroup": "Hospital",
    "N_LAT": 33.589295,
    "N_LON": -101.88814,
    "N_LCODE": "AS0"
  },
  {
    "OBJECTID": 87,
    "ProviderNa": "Ben Taub General Hospital",
    "OrgType": "Hospital",
    "Address": "1504 Taub Loop",
    "City": "Houston",
    "State": "TX",
    "ZIP": 77030,
    "County": "HARRIS",
    "Wk1Pfizer": 1950,
    "Wk2Pfizer": 975,
    "PfizerTota": 2925,
    "Wk2Moderna": 0,
    "ModernaTot": 0,
    "GrandTotal": 2925,
    "OrgGroup": "Hospital",
    "N_LAT": 29.711306,
    "N_LON": -95.393892,
    "N_LCODE": "AS0"
  },
  {
    "OBJECTID": 88,
    "ProviderNa": "UT MD Anderson Cancer Center",
    "OrgType": "Hospital",
    "Address": "1515 Holcombe Blvd",
    "City": "Houston",
    "State": "TX",
    "ZIP": 77030,
    "County": "HARRIS",
    "Wk1Pfizer": 4875,
    "Wk2Pfizer": 975,
    "PfizerTota": 5850,
    "Wk2Moderna": 0,
    "ModernaTot": 0,
    "GrandTotal": 5850,
    "OrgGroup": "Hospital",
    "N_LAT": 29.706447,
    "N_LON": -95.396849,
    "N_LCODE": "AS0"
  },
  {
    "OBJECTID": 89,
    "ProviderNa": "Christus Spohn Health System Shoreline",
    "OrgType": "Hospital",
    "Address": "600 Elizabeth St",
    "City": "Corpus Christi",
    "State": "TX",
    "ZIP": 78404,
    "County": "NUECES",
    "Wk1Pfizer": 4875,
    "Wk2Pfizer": 0,
    "PfizerTota": 4875,
    "Wk2Moderna": 0,
    "ModernaTot": 0,
    "GrandTotal": 4875,
    "OrgGroup": "Hospital",
    "N_LAT": 27.777634,
    "N_LON": -97.394974,
    "N_LCODE": "AS0"
  },
  {
    "OBJECTID": 90,
    "ProviderNa": "Covenant Medical Center",
    "OrgType": "Hospital",
    "Address": "3615 19th St",
    "City": "Lubbock",
    "State": "TX",
    "ZIP": 79410,
    "County": "LUBBOCK",
    "Wk1Pfizer": 2925,
    "Wk2Pfizer": 975,
    "PfizerTota": 3900,
    "Wk2Moderna": 0,
    "ModernaTot": 0,
    "GrandTotal": 3900,
    "OrgGroup": "Hospital",
    "N_LAT": 33.577727,
    "N_LON": -101.892518,
    "N_LCODE": "AS0"
  },
  {
    "OBJECTID": 91,
    "ProviderNa": "Memorial Hermann Texas Medical Center",
    "OrgType": "Hospital",
    "Address": "6411 Fannin St",
    "City": "Houston",
    "State": "TX",
    "ZIP": 77030,
    "County": "HARRIS",
    "Wk1Pfizer": 5850,
    "Wk2Pfizer": 975,
    "PfizerTota": 6825,
    "Wk2Moderna": 0,
    "ModernaTot": 0,
    "GrandTotal": 6825,
    "OrgGroup": "Hospital",
    "N_LAT": 29.713581,
    "N_LON": -95.397514,
    "N_LCODE": "AS0"
  },
  {
    "OBJECTID": 92,
    "ProviderNa": "University Of Texas Medical Branch Hospital",
    "OrgType": "Hospital",
    "Address": "301 University Blvd",
    "City": "Galveston",
    "State": "TX",
    "ZIP": 77555,
    "County": "GALVESTON",
    "Wk1Pfizer": 2925,
    "Wk2Pfizer": 1950,
    "PfizerTota": 4875,
    "Wk2Moderna": 0,
    "ModernaTot": 0,
    "GrandTotal": 4875,
    "OrgGroup": "Hospital",
    "N_LAT": 29.311543,
    "N_LON": -94.776452,
    "N_LCODE": "AI0"
  },
  {
    "OBJECTID": 93,
    "ProviderNa": "Lbj Hospital - Harris County Hospital District",
    "OrgType": "Hospital",
    "Address": "5656 Kelley St",
    "City": "Houston",
    "State": "TX",
    "ZIP": 77026,
    "County": "HARRIS",
    "Wk1Pfizer": 1950,
    "Wk2Pfizer": 975,
    "PfizerTota": 2925,
    "Wk2Moderna": 0,
    "ModernaTot": 0,
    "GrandTotal": 2925,
    "OrgGroup": "Hospital",
    "N_LAT": 29.81314,
    "N_LON": -95.311682,
    "N_LCODE": "AS0"
  },
  {
    "OBJECTID": 94,
    "ProviderNa": "Methodist Dallas Medical Center",
    "OrgType": "Hospital",
    "Address": "1441 N Beckley Ave",
    "City": "Dallas",
    "State": "TX",
    "ZIP": 75203,
    "County": "DALLAS",
    "Wk1Pfizer": 5850,
    "Wk2Pfizer": 1950,
    "PfizerTota": 7800,
    "Wk2Moderna": 0,
    "ModernaTot": 0,
    "GrandTotal": 7800,
    "OrgGroup": "Hospital",
    "N_LAT": 32.761503,
    "N_LON": -96.823166,
    "N_LCODE": "AS0"
  },
  {
    "OBJECTID": 95,
    "ProviderNa": "Shannon Pharmacy",
    "OrgType": "Hospital",
    "Address": "119 E. Beauregard Ave",
    "City": "San Angelo",
    "State": "TX",
    "ZIP": 76903,
    "County": "TOM GREEN",
    "Wk1Pfizer": 1950,
    "Wk2Pfizer": 975,
    "PfizerTota": 2925,
    "Wk2Moderna": 0,
    "ModernaTot": 0,
    "GrandTotal": 2925,
    "OrgGroup": "Hospital",
    "N_LAT": 31.463094,
    "N_LON": -100.434465,
    "N_LCODE": "AS0"
  },
  {
    "OBJECTID": 96,
    "ProviderNa": "Ut Health Rgv Employee Health Edinburg",
    "OrgType": "Hospital",
    "Address": "1210 W Schunior St",
    "City": "Edinburg",
    "State": "TX",
    "ZIP": 78539,
    "County": "HIDALGO",
    "Wk1Pfizer": 1950,
    "Wk2Pfizer": 0,
    "PfizerTota": 1950,
    "Wk2Moderna": 0,
    "ModernaTot": 0,
    "GrandTotal": 1950,
    "OrgGroup": "Hospital",
    "N_LAT": 26.310108,
    "N_LON": -98.173844,
    "N_LCODE": "AS0"
  },
  {
    "OBJECTID": 97,
    "ProviderNa": "BaylorScottandWhiteMedicalCenter-Temple",
    "OrgType": "Hospital",
    "Address": "2401 S 31st Street",
    "City": "Temple",
    "State": "TX",
    "ZIP": 76508,
    "County": "BELL",
    "Wk1Pfizer": 3900,
    "Wk2Pfizer": 975,
    "PfizerTota": 4875,
    "Wk2Moderna": 0,
    "ModernaTot": 0,
    "GrandTotal": 4875,
    "OrgGroup": "Hospital",
    "N_LAT": 31.078519,
    "N_LON": -97.365838,
    "N_LCODE": "AS0"
  },
  {
    "OBJECTID": 98,
    "ProviderNa": "Houston Methodist Hospital",
    "OrgType": "Hospital",
    "Address": "6565 Fannin St",
    "City": "Houston",
    "State": "TX",
    "ZIP": 77030,
    "County": "HARRIS",
    "Wk1Pfizer": 5850,
    "Wk2Pfizer": 2925,
    "PfizerTota": 8775,
    "Wk2Moderna": 0,
    "ModernaTot": 0,
    "GrandTotal": 8775,
    "OrgGroup": "Hospital",
    "N_LAT": 29.710379,
    "N_LON": -95.400077,
    "N_LCODE": "AS0"
  },
  {
    "OBJECTID": 99,
    "ProviderNa": "TCH Main",
    "OrgType": "Hospital",
    "Address": "6621 Fannin St Mc 22510",
    "City": "Houston",
    "State": "TX",
    "ZIP": 77030,
    "County": "HARRIS",
    "Wk1Pfizer": 3900,
    "Wk2Pfizer": 975,
    "PfizerTota": 4875,
    "Wk2Moderna": 0,
    "ModernaTot": 0,
    "GrandTotal": 4875,
    "OrgGroup": "Hospital",
    "N_LAT": 29.708647,
    "N_LON": -95.401435,
    "N_LCODE": "AS0"
  },
  {
    "OBJECTID": 100,
    "ProviderNa": "Doctors Hospital at Renaissance",
    "OrgType": "Hospital",
    "Address": "5501 South McColl Road",
    "City": "Edinburg",
    "State": "TX",
    "ZIP": 78539,
    "County": "HIDALGO",
    "Wk1Pfizer": 5850,
    "Wk2Pfizer": 0,
    "PfizerTota": 5850,
    "Wk2Moderna": 3000,
    "ModernaTot": 3000,
    "GrandTotal": 8850,
    "OrgGroup": "Hospital",
    "N_LAT": 26.253398,
    "N_LON": -98.204107,
    "N_LCODE": "AS0"
  },
  {
    "OBJECTID": 101,
    "ProviderNa": "Texas Health Medical Support",
    "OrgType": "Pharmacy",
    "Address": "1100 Bridgewood",
    "City": "Fort Worth",
    "State": "TX",
    "ZIP": 76112,
    "County": "TARRANT",
    "Wk1Pfizer": 5850,
    "Wk2Pfizer": 975,
    "PfizerTota": 6825,
    "Wk2Moderna": 0,
    "ModernaTot": 0,
    "GrandTotal": 6825,
    "OrgGroup": "Hospital",
    "N_LAT": 32.763846,
    "N_LON": -97.217514,
    "N_LCODE": "AS0"
  },
  {
    "OBJECTID": 102,
    "ProviderNa": "TTUHSC Internal Medicine Amarillo",
    "OrgType": "Hospital",
    "Address": "1400 S. Coulter",
    "City": "Amarillo",
    "State": "TX",
    "ZIP": 79106,
    "County": "POTTER",
    "Wk1Pfizer": 975,
    "Wk2Pfizer": 0,
    "PfizerTota": 975,
    "Wk2Moderna": 0,
    "ModernaTot": 0,
    "GrandTotal": 975,
    "OrgGroup": "Hospital",
    "N_LAT": 35.200903,
    "N_LON": -101.922065,
    "N_LCODE": "AS0"
  },
  {
    "OBJECTID": 103,
    "ProviderNa": "University Medical Center of El Paso",
    "OrgType": "Hospital",
    "Address": "4815 Alameda Ave",
    "City": "El Paso",
    "State": "TX",
    "ZIP": 79905,
    "County": "EL PASO",
    "Wk1Pfizer": 2925,
    "Wk2Pfizer": 1950,
    "PfizerTota": 4875,
    "Wk2Moderna": 0,
    "ModernaTot": 0,
    "GrandTotal": 4875,
    "OrgGroup": "Hospital",
    "N_LAT": 31.770901,
    "N_LON": -106.43448,
    "N_LCODE": "AS0"
  },
  {
    "OBJECTID": 104,
    "ProviderNa": "Chi St Lukes Health",
    "OrgType": "Hospital",
    "Address": "6720 Bertner Ave",
    "City": "Houston",
    "State": "TX",
    "ZIP": 77030,
    "County": "HARRIS",
    "Wk1Pfizer": 5850,
    "Wk2Pfizer": 0,
    "PfizerTota": 5850,
    "Wk2Moderna": 0,
    "ModernaTot": 0,
    "GrandTotal": 5850,
    "OrgGroup": "Hospital",
    "N_LAT": 29.707117,
    "N_LON": -95.399336,
    "N_LCODE": "AS0"
  },
  {
    "OBJECTID": 105,
    "ProviderNa": "Ut Health Austin (Dell Medical School)",
    "OrgType": "Hospital",
    "Address": "1601 Trinity Avenue",
    "City": "Austin",
    "State": "TX",
    "ZIP": 78712,
    "County": "TRAVIS",
    "Wk1Pfizer": 2925,
    "Wk2Pfizer": 1950,
    "PfizerTota": 4875,
    "Wk2Moderna": 0,
    "ModernaTot": 0,
    "GrandTotal": 4875,
    "OrgGroup": "Hospital",
    "N_LAT": 30.277163,
    "N_LON": -97.735423,
    "N_LCODE": "AS0"
  },
  {
    "OBJECTID": 106,
    "ProviderNa": "Parkland Hospital",
    "OrgType": "Hospital",
    "Address": "5200 Harry Hines Blvd",
    "City": "Dallas",
    "State": "TX",
    "ZIP": 75235,
    "County": "DALLAS",
    "Wk1Pfizer": 5850,
    "Wk2Pfizer": 1950,
    "PfizerTota": 7800,
    "Wk2Moderna": 0,
    "ModernaTot": 0,
    "GrandTotal": 7800,
    "OrgGroup": "Hospital",
    "N_LAT": 32.811834,
    "N_LON": -96.836785,
    "N_LCODE": "AS0"
  },
  {
    "OBJECTID": 107,
    "ProviderNa": "UT Health Science Center Tyler",
    "OrgType": "Hospital",
    "Address": "11937 Us Highway 271",
    "City": "Tyler",
    "State": "TX",
    "ZIP": 75708,
    "County": "SMITH",
    "Wk1Pfizer": 3900,
    "Wk2Pfizer": 0,
    "PfizerTota": 3900,
    "Wk2Moderna": 0,
    "ModernaTot": 0,
    "GrandTotal": 3900,
    "OrgGroup": "Hospital",
    "N_LAT": 32.423875,
    "N_LON": -95.209219,
    "N_LCODE": "AS0"
  },
  {
    "OBJECTID": 108,
    "ProviderNa": "UT Southwestern Medical Center",
    "OrgType": "Hospital",
    "Address": "5323 Harry Hines Blvd",
    "City": "Dallas",
    "State": "TX",
    "ZIP": 75390,
    "County": "DALLAS",
    "Wk1Pfizer": 5850,
    "Wk2Pfizer": 975,
    "PfizerTota": 6825,
    "Wk2Moderna": 0,
    "ModernaTot": 0,
    "GrandTotal": 6825,
    "OrgGroup": "Hospital",
    "N_LAT": 32.812481,
    "N_LON": -96.838526,
    "N_LCODE": "AS0"
  },
  {
    "OBJECTID": 109,
    "ProviderNa": "Wellness 360 (Adult)",
    "OrgType": "Private Practice",
    "Address": "7703 Floyd Curl Dr",
    "City": "San Antonio",
    "State": "TX",
    "ZIP": 78229,
    "County": "BEXAR",
    "Wk1Pfizer": 5850,
    "Wk2Pfizer": 975,
    "PfizerTota": 6825,
    "Wk2Moderna": 0,
    "ModernaTot": 0,
    "GrandTotal": 6825,
    "OrgGroup": "Medical Practice",
    "N_LAT": 29.506913,
    "N_LON": -98.573428,
    "N_LCODE": "AS0"
  },
  {
    "OBJECTID": 110,
    "ProviderNa": "JPS Hospital",
    "OrgType": "Hospital",
    "Address": "1500 South Main St",
    "City": "Fort Worth",
    "State": "TX",
    "ZIP": 76104,
    "County": "TARRANT",
    "Wk1Pfizer": 1950,
    "Wk2Pfizer": 1950,
    "PfizerTota": 3900,
    "Wk2Moderna": 0,
    "ModernaTot": 0,
    "GrandTotal": 3900,
    "OrgGroup": "Hospital",
    "N_LAT": 32.72739,
    "N_LON": -97.326566,
    "N_LCODE": "AS0"
  },
  {
    "OBJECTID": 111,
    "ProviderNa": "Brookshires Pharmacy 030",
    "OrgType": "Pharmacy",
    "Address": "2107 S Loop 256",
    "City": "Palestine",
    "State": "TX",
    "ZIP": 75801,
    "County": "ANDERSON",
    "Wk1Pfizer": 0,
    "Wk2Pfizer": 0,
    "PfizerTota": 0,
    "Wk2Moderna": 100,
    "ModernaTot": 100,
    "GrandTotal": 100,
    "OrgGroup": "Pharmacy",
    "N_LAT": 31.734891,
    "N_LON": -95.610946,
    "N_LCODE": "AS0"
  },
  {
    "OBJECTID": 112,
    "ProviderNa": "Christus Trinity Clinic Magnolia Medical Plaza",
    "OrgType": "Community Health Center",
    "Address": "3201 South Loop 256",
    "City": "Palestine",
    "State": "TX",
    "ZIP": 75801,
    "County": "ANDERSON",
    "Wk1Pfizer": 0,
    "Wk2Pfizer": 0,
    "PfizerTota": 0,
    "Wk2Moderna": 1400,
    "ModernaTot": 1400,
    "GrandTotal": 1400,
    "OrgGroup": "Community Clinic",
    "N_LAT": 31.735961,
    "N_LON": -95.631942,
    "N_LCODE": "AS0"
  },
  {
    "OBJECTID": 113,
    "ProviderNa": "Palestine Regional Medical Center",
    "OrgType": "Hospital",
    "Address": "2900 S Loop 256",
    "City": "Palestine",
    "State": "TX",
    "ZIP": 75801,
    "County": "ANDERSON",
    "Wk1Pfizer": 0,
    "Wk2Pfizer": 0,
    "PfizerTota": 0,
    "Wk2Moderna": 300,
    "ModernaTot": 300,
    "GrandTotal": 300,
    "OrgGroup": "Hospital",
    "N_LAT": 31.733275,
    "N_LON": -95.625502,
    "N_LCODE": "AS0"
  },
  {
    "OBJECTID": 114,
    "ProviderNa": "PERMIAN REGIONAL MEDICAL CENTER",
    "OrgType": "Hospital",
    "Address": "720 Hospital Dr",
    "City": "Andrews",
    "State": "TX",
    "ZIP": 79714,
    "County": "ANDREWS",
    "Wk1Pfizer": 0,
    "Wk2Pfizer": 0,
    "PfizerTota": 0,
    "Wk2Moderna": 400,
    "ModernaTot": 400,
    "GrandTotal": 400,
    "OrgGroup": "Hospital",
    "N_LAT": 32.33744,
    "N_LON": -102.546636,
    "N_LCODE": "AS0"
  },
  {
    "OBJECTID": 115,
    "ProviderNa": "Brookshires Pharmacy 35 - Diboll",
    "OrgType": "Pharmacy",
    "Address": "221 N Temple Dr",
    "City": "Diboll",
    "State": "TX",
    "ZIP": 75941,
    "County": "ANGELINA",
    "Wk1Pfizer": 0,
    "Wk2Pfizer": 0,
    "PfizerTota": 0,
    "Wk2Moderna": 400,
    "ModernaTot": 400,
    "GrandTotal": 400,
    "OrgGroup": "Pharmacy",
    "N_LAT": 31.1859377,
    "N_LON": -94.7839708,
    "N_LCODE": "M"
  },
  {
    "OBJECTID": 116,
    "ProviderNa": "Brookshires Pharmacy 52 - Huntington",
    "OrgType": "Pharmacy",
    "Address": "104 N Main St",
    "City": "Huntington",
    "State": "TX",
    "ZIP": 75949,
    "County": "ANGELINA",
    "Wk1Pfizer": 0,
    "Wk2Pfizer": 0,
    "PfizerTota": 0,
    "Wk2Moderna": 400,
    "ModernaTot": 400,
    "GrandTotal": 400,
    "OrgGroup": "Pharmacy",
    "N_LAT": 31.2779,
    "N_LON": -94.576699,
    "N_LCODE": "AS0"
  },
  {
    "OBJECTID": 117,
    "ProviderNa": "Brookshires Pharmacy 1",
    "OrgType": "Pharmacy",
    "Address": "301 S Chestnut St",
    "City": "Lufkin",
    "State": "TX",
    "ZIP": 75901,
    "County": "ANGELINA",
    "Wk1Pfizer": 0,
    "Wk2Pfizer": 0,
    "PfizerTota": 0,
    "Wk2Moderna": 500,
    "ModernaTot": 500,
    "GrandTotal": 500,
    "OrgGroup": "Pharmacy",
    "N_LAT": 31.333573,
    "N_LON": -94.718169,
    "N_LCODE": "AS0"
  },
  {
    "OBJECTID": 118,
    "ProviderNa": "Brookshires Pharmacy 25",
    "OrgType": "Pharmacy",
    "Address": "1807 West Frank",
    "City": "Lufkin",
    "State": "TX",
    "ZIP": 75904,
    "County": "ANGELINA",
    "Wk1Pfizer": 0,
    "Wk2Pfizer": 0,
    "PfizerTota": 0,
    "Wk2Moderna": 400,
    "ModernaTot": 400,
    "GrandTotal": 400,
    "OrgGroup": "Pharmacy",
    "N_LAT": 31.333325,
    "N_LON": -94.755085,
    "N_LCODE": "AS0"
  },
  {
    "OBJECTID": 119,
    "ProviderNa": "Kay Bailey Hutchinson Convention Center",
    "OrgType": "Fire Department/EMS",
    "Address": "650 S Griffin Street",
    "City": "Dallas",
    "State": "TX",
    "ZIP": 75202,
    "County": "DALLAS",
    "Wk1Pfizer": 0,
    "Wk2Pfizer": 0,
    "PfizerTota": 0,
    "Wk2Moderna": 2000,
    "ModernaTot": 2000,
    "GrandTotal": 2000,
    "OrgGroup": "Other",
    "N_LAT": 32.774893,
    "N_LON": -96.801399,
    "N_LCODE": "AS0"
  },
  {
    "OBJECTID": 120,
    "ProviderNa": "The Medicine Shoppe Pharmacy 0939",
    "OrgType": "Pharmacy",
    "Address": "903 W Frank Ave",
    "City": "Lufkin",
    "State": "TX",
    "ZIP": 75904,
    "County": "ANGELINA",
    "Wk1Pfizer": 0,
    "Wk2Pfizer": 0,
    "PfizerTota": 0,
    "Wk2Moderna": 200,
    "ModernaTot": 200,
    "GrandTotal": 200,
    "OrgGroup": "Pharmacy",
    "N_LAT": 31.338483,
    "N_LON": -94.73848,
    "N_LCODE": "AS0"
  },
  {
    "OBJECTID": 121,
    "ProviderNa": "Urgent Health Solutions",
    "OrgType": "Rural Health Clinic",
    "Address": "525 N Brentwood",
    "City": "Lufkin",
    "State": "TX",
    "ZIP": 75904,
    "County": "ANGELINA",
    "Wk1Pfizer": 0,
    "Wk2Pfizer": 0,
    "PfizerTota": 0,
    "Wk2Moderna": 900,
    "ModernaTot": 900,
    "GrandTotal": 900,
    "OrgGroup": "Community Clinic",
    "N_LAT": 31.303096,
    "N_LON": -94.729699,
    "N_LCODE": "AS0"
  },
  {
    "OBJECTID": 122,
    "ProviderNa": "Woodland Heights Medical Center",
    "OrgType": "Hospital",
    "Address": "505 S John Redditt Dr",
    "City": "Lufkin",
    "State": "TX",
    "ZIP": 75904,
    "County": "ANGELINA",
    "Wk1Pfizer": 0,
    "Wk2Pfizer": 0,
    "PfizerTota": 0,
    "Wk2Moderna": 500,
    "ModernaTot": 500,
    "GrandTotal": 500,
    "OrgGroup": "Hospital",
    "N_LAT": 31.327739,
    "N_LON": -94.755973,
    "N_LCODE": "AS0"
  },
  {
    "OBJECTID": 123,
    "ProviderNa": "Heb Pharmacy 562",
    "OrgType": "Pharmacy",
    "Address": "1409 Highway 35 N",
    "City": "Rockport",
    "State": "TX",
    "ZIP": 78382,
    "County": "ARANSAS",
    "Wk1Pfizer": 0,
    "Wk2Pfizer": 0,
    "PfizerTota": 0,
    "Wk2Moderna": 100,
    "ModernaTot": 100,
    "GrandTotal": 100,
    "OrgGroup": "Pharmacy",
    "N_LAT": 28.038829,
    "N_LON": -97.042669,
    "N_LCODE": "AS0"
  },
  {
    "OBJECTID": 124,
    "ProviderNa": "Eagle Pharmacy",
    "OrgType": "Pharmacy",
    "Address": "700 S. College Ave",
    "City": "Holliday",
    "State": "TX",
    "ZIP": 76366,
    "County": "ARCHER",
    "Wk1Pfizer": 0,
    "Wk2Pfizer": 0,
    "PfizerTota": 0,
    "Wk2Moderna": 100,
    "ModernaTot": 100,
    "GrandTotal": 100,
    "OrgGroup": "Pharmacy",
    "N_LAT": 33.809192,
    "N_LON": -98.689926,
    "N_LCODE": "AS0"
  },
  {
    "OBJECTID": 125,
    "ProviderNa": "Claude Family Medical Clinic",
    "OrgType": "Rural Health Clinic",
    "Address": "201 Parks St",
    "City": "Claude",
    "State": "TX",
    "ZIP": 79019,
    "County": "ARMSTRONG",
    "Wk1Pfizer": 0,
    "Wk2Pfizer": 0,
    "PfizerTota": 0,
    "Wk2Moderna": 100,
    "ModernaTot": 100,
    "GrandTotal": 100,
    "OrgGroup": "Community Clinic",
    "N_LAT": 35.109588,
    "N_LON": -101.360724,
    "N_LCODE": "AS0"
  },
  {
    "OBJECTID": 126,
    "ProviderNa": "HEB Pharmacy 19",
    "OrgType": "Pharmacy",
    "Address": "19337 Mcdonald St",
    "City": "Lytle",
    "State": "TX",
    "ZIP": 78052,
    "County": "ATASCOSA",
    "Wk1Pfizer": 0,
    "Wk2Pfizer": 0,
    "PfizerTota": 0,
    "Wk2Moderna": 100,
    "ModernaTot": 100,
    "GrandTotal": 100,
    "OrgGroup": "Pharmacy",
    "N_LAT": 29.232819,
    "N_LON": -98.789728,
    "N_LCODE": "AS0"
  },
  {
    "OBJECTID": 127,
    "ProviderNa": "HEB Pharmacy 411",
    "OrgType": "Pharmacy",
    "Address": "219 W Oaklawn Rd",
    "City": "Pleasanton",
    "State": "TX",
    "ZIP": 78064,
    "County": "ATASCOSA",
    "Wk1Pfizer": 0,
    "Wk2Pfizer": 0,
    "PfizerTota": 0,
    "Wk2Moderna": 100,
    "ModernaTot": 100,
    "GrandTotal": 100,
    "OrgGroup": "Pharmacy",
    "N_LAT": 28.956998,
    "N_LON": -98.486623,
    "N_LCODE": "AS0"
  },
  {
    "OBJECTID": 128,
    "ProviderNa": "Kings Medicine",
    "OrgType": "Private Practice",
    "Address": "809 N Bryant St",
    "City": "Pleasanton",
    "State": "TX",
    "ZIP": 78064,
    "County": "ATASCOSA",
    "Wk1Pfizer": 0,
    "Wk2Pfizer": 0,
    "PfizerTota": 0,
    "Wk2Moderna": 500,
    "ModernaTot": 500,
    "GrandTotal": 500,
    "OrgGroup": "Medical Practice",
    "N_LAT": 28.966441,
    "N_LON": -98.492383,
    "N_LCODE": "AS0"
  },
  {
    "OBJECTID": 129,
    "ProviderNa": "QUC PLEASANTON LLC",
    "OrgType": "Other",
    "Address": "2106 W OAKLAWN RD",
    "City": "Pleasanton",
    "State": "TX",
    "ZIP": 78064,
    "County": "ATASCOSA",
    "Wk1Pfizer": 0,
    "Wk2Pfizer": 0,
    "PfizerTota": 0,
    "Wk2Moderna": 500,
    "ModernaTot": 500,
    "GrandTotal": 500,
    "OrgGroup": "Other",
    "N_LAT": 28.940536,
    "N_LON": -98.512701,
    "N_LCODE": "AS0"
  },
  {
    "OBJECTID": 130,
    "ProviderNa": "Brookshires Pharmacy 39 - Bellville",
    "OrgType": "Pharmacy",
    "Address": "720 S Front St",
    "City": "Bellville",
    "State": "TX",
    "ZIP": 77418,
    "County": "AUSTIN",
    "Wk1Pfizer": 0,
    "Wk2Pfizer": 0,
    "PfizerTota": 0,
    "Wk2Moderna": 500,
    "ModernaTot": 500,
    "GrandTotal": 500,
    "OrgGroup": "Pharmacy",
    "N_LAT": 29.939365,
    "N_LON": -96.251296,
    "N_LCODE": "AS0"
  },
  {
    "OBJECTID": 131,
    "ProviderNa": "K&K Pharmacy",
    "OrgType": "Pharmacy",
    "Address": "1411 W American Blvd",
    "City": "Muleshoe",
    "State": "TX",
    "ZIP": 79347,
    "County": "BAILEY",
    "Wk1Pfizer": 0,
    "Wk2Pfizer": 0,
    "PfizerTota": 0,
    "Wk2Moderna": 100,
    "ModernaTot": 100,
    "GrandTotal": 100,
    "OrgGroup": "Pharmacy",
    "N_LAT": 34.233604,
    "N_LON": -102.737345,
    "N_LCODE": "AS0"
  },
  {
    "OBJECTID": 132,
    "ProviderNa": "Medical Clinic Of Muleshoe",
    "OrgType": "Rural Health Clinic",
    "Address": "708 S 1st St",
    "City": "Muleshoe",
    "State": "TX",
    "ZIP": 79347,
    "County": "BAILEY",
    "Wk1Pfizer": 0,
    "Wk2Pfizer": 0,
    "PfizerTota": 0,
    "Wk2Moderna": 100,
    "ModernaTot": 100,
    "GrandTotal": 100,
    "OrgGroup": "Community Clinic",
    "N_LAT": 34.220983,
    "N_LON": -102.728701,
    "N_LCODE": "AS0"
  },
  {
    "OBJECTID": 133,
    "ProviderNa": "Medina Lake Clinic",
    "OrgType": "Private Practice",
    "Address": "146 Laurel Vista Dr",
    "City": "Pipe Creek",
    "State": "TX",
    "ZIP": 78063,
    "County": "BANDERA",
    "Wk1Pfizer": 0,
    "Wk2Pfizer": 0,
    "PfizerTota": 0,
    "Wk2Moderna": 100,
    "ModernaTot": 100,
    "GrandTotal": 100,
    "OrgGroup": "Medical Practice",
    "N_LAT": 29.608724,
    "N_LON": -98.929064,
    "N_LCODE": "AS0"
  },
  {
    "OBJECTID": 134,
    "ProviderNa": "DSHS Bastrop",
    "OrgType": "State Agency - Health Service Region",
    "Address": "104 Loop 150 W",
    "City": "Bastrop",
    "State": "TX",
    "ZIP": 78602,
    "County": "BASTROP",
    "Wk1Pfizer": 0,
    "Wk2Pfizer": 0,
    "PfizerTota": 0,
    "Wk2Moderna": 100,
    "ModernaTot": 100,
    "GrandTotal": 100,
    "OrgGroup": "Other",
    "N_LAT": 30.107361,
    "N_LON": -97.328228,
    "N_LCODE": "AS0"
  },
  {
    "OBJECTID": 135,
    "ProviderNa": "HEB Pharmacy 582",
    "OrgType": "Pharmacy",
    "Address": "104 Hasler St",
    "City": "Bastrop",
    "State": "TX",
    "ZIP": 78602,
    "County": "BASTROP",
    "Wk1Pfizer": 0,
    "Wk2Pfizer": 0,
    "PfizerTota": 0,
    "Wk2Moderna": 100,
    "ModernaTot": 100,
    "GrandTotal": 100,
    "OrgGroup": "Pharmacy",
    "N_LAT": 30.103368,
    "N_LON": -97.325151,
    "N_LCODE": "AS0"
  },
  {
    "OBJECTID": 136,
    "ProviderNa": "HEB Pharmacy 475",
    "OrgType": "Pharmacy",
    "Address": "1080 Highway 290 E",
    "City": "Elgin",
    "State": "TX",
    "ZIP": 78621,
    "County": "BASTROP",
    "Wk1Pfizer": 0,
    "Wk2Pfizer": 0,
    "PfizerTota": 0,
    "Wk2Moderna": 100,
    "ModernaTot": 100,
    "GrandTotal": 100,
    "OrgGroup": "Pharmacy",
    "N_LAT": 30.30748,
    "N_LON": -97.300969,
    "N_LCODE": "AS0"
  },
  {
    "OBJECTID": 137,
    "ProviderNa": "Seton Smithville Regional Hospital",
    "OrgType": "Hospital",
    "Address": "1201 Hill Rd",
    "City": "Smithville",
    "State": "TX",
    "ZIP": 78957,
    "County": "BASTROP",
    "Wk1Pfizer": 0,
    "Wk2Pfizer": 0,
    "PfizerTota": 0,
    "Wk2Moderna": 100,
    "ModernaTot": 100,
    "GrandTotal": 100,
    "OrgGroup": "Hospital",
    "N_LAT": 30.020091,
    "N_LON": -97.13557,
    "N_LCODE": "AS0"
  },
  {
    "OBJECTID": 138,
    "ProviderNa": "Seymour Hospital Rural Health Clinic",
    "OrgType": "Rural Health Clinic",
    "Address": "201 Stadium Dr",
    "City": "Seymour",
    "State": "TX",
    "ZIP": 76380,
    "County": "BAYLOR",
    "Wk1Pfizer": 0,
    "Wk2Pfizer": 0,
    "PfizerTota": 0,
    "Wk2Moderna": 200,
    "ModernaTot": 200,
    "GrandTotal": 200,
    "OrgGroup": "Community Clinic",
    "N_LAT": 33.589868,
    "N_LON": -99.247548,
    "N_LCODE": "AS0"
  },
  {
    "OBJECTID": 139,
    "ProviderNa": "Christus Spohn Health System Beeville",
    "OrgType": "Hospital",
    "Address": "1500 E Houston St",
    "City": "Beeville",
    "State": "TX",
    "ZIP": 78102,
    "County": "BEE",
    "Wk1Pfizer": 0,
    "Wk2Pfizer": 0,
    "PfizerTota": 0,
    "Wk2Moderna": 200,
    "ModernaTot": 200,
    "GrandTotal": 200,
    "OrgGroup": "Hospital",
    "N_LAT": 28.408232,
    "N_LON": -97.731851,
    "N_LCODE": "AS0"
  },
  {
    "OBJECTID": 140,
    "ProviderNa": "Heb Pharmacy 412",
    "OrgType": "Pharmacy",
    "Address": "100 E Houston St",
    "City": "Beeville",
    "State": "TX",
    "ZIP": 78102,
    "County": "BEE",
    "Wk1Pfizer": 0,
    "Wk2Pfizer": 0,
    "PfizerTota": 0,
    "Wk2Moderna": 100,
    "ModernaTot": 100,
    "GrandTotal": 100,
    "OrgGroup": "Pharmacy",
    "N_LAT": 28.40114,
    "N_LON": -97.747426,
    "N_LCODE": "AS0"
  },
  {
    "OBJECTID": 141,
    "ProviderNa": "South Tx Family Plannng And Health Corp - Beeville",
    "OrgType": "Family Planning",
    "Address": "1400 W Corpus Christi St Ste 4",
    "City": "Beeville",
    "State": "TX",
    "ZIP": 78102,
    "County": "BEE",
    "Wk1Pfizer": 0,
    "Wk2Pfizer": 0,
    "PfizerTota": 0,
    "Wk2Moderna": 100,
    "ModernaTot": 100,
    "GrandTotal": 100,
    "OrgGroup": "Community Clinic",
    "N_LAT": 28.39635,
    "N_LON": -97.761141,
    "N_LCODE": "AS0"
  },
  {
    "OBJECTID": 142,
    "ProviderNa": "HEB Pharmacy 39",
    "OrgType": "Pharmacy",
    "Address": "2509 N Main",
    "City": "Belton",
    "State": "TX",
    "ZIP": 76513,
    "County": "BELL",
    "Wk1Pfizer": 0,
    "Wk2Pfizer": 0,
    "PfizerTota": 0,
    "Wk2Moderna": 100,
    "ModernaTot": 100,
    "GrandTotal": 100,
    "OrgGroup": "Pharmacy",
    "N_LAT": 31.080103,
    "N_LON": -97.457393,
    "N_LCODE": "AS0"
  },
  {
    "OBJECTID": 143,
    "ProviderNa": "Freedom Urgent Care",
    "OrgType": "Private Practice",
    "Address": "300 W Central Texas Exwpy Ste 115",
    "City": "Harker Heights",
    "State": "TX",
    "ZIP": 76548,
    "County": "BELL",
    "Wk1Pfizer": 0,
    "Wk2Pfizer": 0,
    "PfizerTota": 0,
    "Wk2Moderna": 500,
    "ModernaTot": 500,
    "GrandTotal": 500,
    "OrgGroup": "Medical Practice",
    "N_LAT": 31.071529,
    "N_LON": -97.675118,
    "N_LCODE": "AS0"
  },
  {
    "OBJECTID": 144,
    "ProviderNa": "Heb Pharmacy 381",
    "OrgType": "Pharmacy",
    "Address": "601 Indian Trl",
    "City": "Harker Heights",
    "State": "TX",
    "ZIP": 76548,
    "County": "BELL",
    "Wk1Pfizer": 0,
    "Wk2Pfizer": 0,
    "PfizerTota": 0,
    "Wk2Moderna": 100,
    "ModernaTot": 100,
    "GrandTotal": 100,
    "OrgGroup": "Pharmacy",
    "N_LAT": 31.078108,
    "N_LON": -97.654938,
    "N_LCODE": "AS0"
  },
  {
    "OBJECTID": 145,
    "ProviderNa": "Seton Medical Center Harker Heights",
    "OrgType": "Hospital",
    "Address": "850 West Central Texas Expresswy",
    "City": "Harker Heights",
    "State": "TX",
    "ZIP": 76548,
    "County": "BELL",
    "Wk1Pfizer": 0,
    "Wk2Pfizer": 0,
    "PfizerTota": 0,
    "Wk2Moderna": 600,
    "ModernaTot": 600,
    "GrandTotal": 600,
    "OrgGroup": "Hospital",
    "N_LAT": 31.074141,
    "N_LON": -97.683687,
    "N_LCODE": "AS0"
  },
  {
    "OBJECTID": 146,
    "ProviderNa": "HEB Pharmacy 581",
    "OrgType": "Pharmacy",
    "Address": "2511 Trimmier Rd",
    "City": "Killeen",
    "State": "TX",
    "ZIP": 76542,
    "County": "BELL",
    "Wk1Pfizer": 0,
    "Wk2Pfizer": 0,
    "PfizerTota": 0,
    "Wk2Moderna": 100,
    "ModernaTot": 100,
    "GrandTotal": 100,
    "OrgGroup": "Pharmacy",
    "N_LAT": 31.092965,
    "N_LON": -97.73317,
    "N_LCODE": "AS0"
  },
  {
    "OBJECTID": 147,
    "ProviderNa": "HEB Pharmacy 721",
    "OrgType": "Pharmacy",
    "Address": "1101 W. Stan Schlueter Lp",
    "City": "Killeen",
    "State": "TX",
    "ZIP": 76542,
    "County": "BELL",
    "Wk1Pfizer": 0,
    "Wk2Pfizer": 0,
    "PfizerTota": 0,
    "Wk2Moderna": 100,
    "ModernaTot": 100,
    "GrandTotal": 100,
    "OrgGroup": "Pharmacy",
    "N_LAT": 31.078652,
    "N_LON": -97.759811,
    "N_LCODE": "AS0"
  },
  {
    "OBJECTID": 148,
    "ProviderNa": "Metroplex Health System",
    "OrgType": "Hospital",
    "Address": "2201 S. Clear Creek Dr",
    "City": "Killeen",
    "State": "TX",
    "ZIP": 76549,
    "County": "BELL",
    "Wk1Pfizer": 0,
    "Wk2Pfizer": 0,
    "PfizerTota": 0,
    "Wk2Moderna": 1400,
    "ModernaTot": 1400,
    "GrandTotal": 1400,
    "OrgGroup": "Hospital",
    "N_LAT": 31.113327,
    "N_LON": -97.799695,
    "N_LCODE": "AS0"
  },
  {
    "OBJECTID": 149,
    "ProviderNa": "Brookshires Pharmacy 69 - Salado",
    "OrgType": "Pharmacy",
    "Address": "215 Mill Creek Dr",
    "City": "Salado",
    "State": "TX",
    "ZIP": 76571,
    "County": "BELL",
    "Wk1Pfizer": 0,
    "Wk2Pfizer": 0,
    "PfizerTota": 0,
    "Wk2Moderna": 500,
    "ModernaTot": 500,
    "GrandTotal": 500,
    "OrgGroup": "Pharmacy",
    "N_LAT": 30.95676,
    "N_LON": -97.531287,
    "N_LCODE": "AS0"
  },
  {
    "OBJECTID": 150,
    "ProviderNa": "HEB Pharmacy 182",
    "OrgType": "Pharmacy",
    "Address": "3002 S 31st St",
    "City": "Temple",
    "State": "TX",
    "ZIP": 76502,
    "County": "BELL",
    "Wk1Pfizer": 0,
    "Wk2Pfizer": 0,
    "PfizerTota": 0,
    "Wk2Moderna": 100,
    "ModernaTot": 100,
    "GrandTotal": 100,
    "OrgGroup": "Pharmacy",
    "N_LAT": 31.071343,
    "N_LON": -97.369014,
    "N_LCODE": "AS0"
  },
  {
    "OBJECTID": 151,
    "ProviderNa": "HEB Pharmacy 71",
    "OrgType": "Pharmacy",
    "Address": "1314 W Adams",
    "City": "Temple",
    "State": "TX",
    "ZIP": 76501,
    "County": "BELL",
    "Wk1Pfizer": 0,
    "Wk2Pfizer": 0,
    "PfizerTota": 0,
    "Wk2Moderna": 100,
    "ModernaTot": 100,
    "GrandTotal": 100,
    "OrgGroup": "Pharmacy",
    "N_LAT": 31.10164,
    "N_LON": -97.354648,
    "N_LCODE": "AS0"
  },
  {
    "OBJECTID": 152,
    "ProviderNa": "Premier ER Temple",
    "OrgType": "Other",
    "Address": "7010 West Adams Ave",
    "City": "Temple",
    "State": "TX",
    "ZIP": 76502,
    "County": "BELL",
    "Wk1Pfizer": 0,
    "Wk2Pfizer": 0,
    "PfizerTota": 0,
    "Wk2Moderna": 100,
    "ModernaTot": 100,
    "GrandTotal": 100,
    "OrgGroup": "Other",
    "N_LAT": 31.117762,
    "N_LON": -97.41648,
    "N_LCODE": "AS0"
  },
  {
    "OBJECTID": 153,
    "ProviderNa": "University Of Texas Medicine Hill Country",
    "OrgType": "Private Practice",
    "Address": "25723 Old Federicksberg Rd",
    "City": "Boerne",
    "State": "TX",
    "ZIP": 78015,
    "County": "BEXAR",
    "Wk1Pfizer": 0,
    "Wk2Pfizer": 0,
    "PfizerTota": 0,
    "Wk2Moderna": 500,
    "ModernaTot": 500,
    "GrandTotal": 500,
    "OrgGroup": "Medical Practice",
    "N_LAT": 29.683667,
    "N_LON": -98.637426,
    "N_LCODE": "AS0"
  },
  {
    "OBJECTID": 154,
    "ProviderNa": "ASPG dba CHRISTUS Promptu Urgent Care",
    "OrgType": "Private Practice",
    "Address": "11823 Culebra Rd",
    "City": "San Antonio",
    "State": "TX",
    "ZIP": 78253,
    "County": "BEXAR",
    "Wk1Pfizer": 0,
    "Wk2Pfizer": 0,
    "PfizerTota": 0,
    "Wk2Moderna": 1000,
    "ModernaTot": 1000,
    "GrandTotal": 1000,
    "OrgGroup": "Medical Practice",
    "N_LAT": 29.502856,
    "N_LON": -98.727327,
    "N_LCODE": "AS0"
  },
  {
    "OBJECTID": 155,
    "ProviderNa": "Bandera Family Health",
    "OrgType": "Private Practice",
    "Address": "7579 N Loop 1604 W Ste 100",
    "City": "San Antonio",
    "State": "TX",
    "ZIP": 78249,
    "County": "BEXAR",
    "Wk1Pfizer": 0,
    "Wk2Pfizer": 0,
    "PfizerTota": 0,
    "Wk2Moderna": 100,
    "ModernaTot": 100,
    "GrandTotal": 100,
    "OrgGroup": "Medical Practice",
    "N_LAT": 29.583061,
    "N_LON": -98.640392,
    "N_LCODE": "AS0"
  },
  {
    "OBJECTID": 156,
    "ProviderNa": "Caritas Family Medicine PA",
    "OrgType": "Private Practice",
    "Address": "11901 Toepperwein Rd",
    "City": "San Antonio",
    "State": "TX",
    "ZIP": 78233,
    "County": "BEXAR",
    "Wk1Pfizer": 0,
    "Wk2Pfizer": 0,
    "PfizerTota": 0,
    "Wk2Moderna": 100,
    "ModernaTot": 100,
    "GrandTotal": 100,
    "OrgGroup": "Medical Practice",
    "N_LAT": 29.546427,
    "N_LON": -98.342513,
    "N_LCODE": "AS0"
  },
  {
    "OBJECTID": 157,
    "ProviderNa": "Christus Santa Rosa Family Health Center - San Antonio 1",
    "OrgType": "Private Practice",
    "Address": "11130 Christus Hills",
    "City": "San Antonio",
    "State": "TX",
    "ZIP": 78251,
    "County": "BEXAR",
    "Wk1Pfizer": 0,
    "Wk2Pfizer": 0,
    "PfizerTota": 0,
    "Wk2Moderna": 200,
    "ModernaTot": 200,
    "GrandTotal": 200,
    "OrgGroup": "Medical Practice",
    "N_LAT": 29.465106,
    "N_LON": -98.696627,
    "N_LCODE": "AS0"
  },
  {
    "OBJECTID": 158,
    "ProviderNa": "Christus Santa Rosa Hospital Alamo Heights",
    "OrgType": "Hospital",
    "Address": "403 Treeline Park",
    "City": "San Antonio",
    "State": "TX",
    "ZIP": 78209,
    "County": "BEXAR",
    "Wk1Pfizer": 0,
    "Wk2Pfizer": 0,
    "PfizerTota": 0,
    "Wk2Moderna": 200,
    "ModernaTot": 200,
    "GrandTotal": 200,
    "OrgGroup": "Hospital",
    "N_LAT": 29.505835,
    "N_LON": -98.475355,
    "N_LCODE": "AS0"
  },
  {
    "OBJECTID": 159,
    "ProviderNa": "Davila Pharmacy",
    "OrgType": "Pharmacy",
    "Address": "1423 Guadalupe",
    "City": "San Antonio",
    "State": "TX",
    "ZIP": 78207,
    "County": "BEXAR",
    "Wk1Pfizer": 0,
    "Wk2Pfizer": 0,
    "PfizerTota": 0,
    "Wk2Moderna": 200,
    "ModernaTot": 200,
    "GrandTotal": 200,
    "OrgGroup": "Pharmacy",
    "N_LAT": 29.418692,
    "N_LON": -98.516298,
    "N_LCODE": "AS0"
  },
  {
    "OBJECTID": 160,
    "ProviderNa": "Endeavor Clinical Trials",
    "OrgType": "Other",
    "Address": "8042 Wurzbach",
    "City": "San Antonio",
    "State": "TX",
    "ZIP": 78229,
    "County": "BEXAR",
    "Wk1Pfizer": 0,
    "Wk2Pfizer": 0,
    "PfizerTota": 0,
    "Wk2Moderna": 300,
    "ModernaTot": 300,
    "GrandTotal": 300,
    "OrgGroup": "Other",
    "N_LAT": 29.513746,
    "N_LON": -98.57784,
    "N_LCODE": "AS0"
  },
  {
    "OBJECTID": 161,
    "ProviderNa": "Foundation Surgical Hospital Of San Antonio",
    "OrgType": "Hospital",
    "Address": "9522 Huebner Rd",
    "City": "San Antonio",
    "State": "TX",
    "ZIP": 78240,
    "County": "BEXAR",
    "Wk1Pfizer": 0,
    "Wk2Pfizer": 0,
    "PfizerTota": 0,
    "Wk2Moderna": 500,
    "ModernaTot": 500,
    "GrandTotal": 500,
    "OrgGroup": "Hospital",
    "N_LAT": 29.530899,
    "N_LON": -98.592478,
    "N_LCODE": "AS0"
  },
  {
    "OBJECTID": 162,
    "ProviderNa": "Gruesbeck Medical Clinic Nw 24th St",
    "OrgType": "Private Practice",
    "Address": "323 Nw 24th Street",
    "City": "San Antonio",
    "State": "TX",
    "ZIP": 78207,
    "County": "BEXAR",
    "Wk1Pfizer": 0,
    "Wk2Pfizer": 0,
    "PfizerTota": 0,
    "Wk2Moderna": 100,
    "ModernaTot": 100,
    "GrandTotal": 100,
    "OrgGroup": "Medical Practice",
    "N_LAT": 29.431896,
    "N_LON": -98.54244,
    "N_LCODE": "AS0"
  },
  {
    "OBJECTID": 163,
    "ProviderNa": "HEB Pharmacy 102",
    "OrgType": "Pharmacy",
    "Address": "8503 Nw Military Hwy",
    "City": "San Antonio",
    "State": "TX",
    "ZIP": 78231,
    "County": "BEXAR",
    "Wk1Pfizer": 0,
    "Wk2Pfizer": 0,
    "PfizerTota": 0,
    "Wk2Moderna": 100,
    "ModernaTot": 100,
    "GrandTotal": 100,
    "OrgGroup": "Pharmacy",
    "N_LAT": 29.553782,
    "N_LON": -98.53362,
    "N_LCODE": "AS0"
  },
  {
    "OBJECTID": 164,
    "ProviderNa": "HEB Pharmacy 106",
    "OrgType": "Pharmacy",
    "Address": "1015 S Ww White Rd",
    "City": "San Antonio",
    "State": "TX",
    "ZIP": 78220,
    "County": "BEXAR",
    "Wk1Pfizer": 0,
    "Wk2Pfizer": 0,
    "PfizerTota": 0,
    "Wk2Moderna": 100,
    "ModernaTot": 100,
    "GrandTotal": 100,
    "OrgGroup": "Pharmacy",
    "N_LAT": 29.414781,
    "N_LON": -98.405712,
    "N_LCODE": "AS0"
  },
  {
    "OBJECTID": 165,
    "ProviderNa": "HEB Pharmacy 108",
    "OrgType": "Pharmacy",
    "Address": "20935 Us Hwy 281 N",
    "City": "San Antonio",
    "State": "TX",
    "ZIP": 78258,
    "County": "BEXAR",
    "Wk1Pfizer": 0,
    "Wk2Pfizer": 0,
    "PfizerTota": 0,
    "Wk2Moderna": 100,
    "ModernaTot": 100,
    "GrandTotal": 100,
    "OrgGroup": "Pharmacy",
    "N_LAT": 29.638655,
    "N_LON": -98.456198,
    "N_LCODE": "AS0"
  },
  {
    "OBJECTID": 166,
    "ProviderNa": "HEB Pharmacy 164",
    "OrgType": "Pharmacy",
    "Address": "15000 San Pedro Ave",
    "City": "San Antonio",
    "State": "TX",
    "ZIP": 78232,
    "County": "BEXAR",
    "Wk1Pfizer": 0,
    "Wk2Pfizer": 0,
    "PfizerTota": 0,
    "Wk2Moderna": 100,
    "ModernaTot": 100,
    "GrandTotal": 100,
    "OrgGroup": "Pharmacy",
    "N_LAT": 29.578419,
    "N_LON": -98.476986,
    "N_LCODE": "AS0"
  },
  {
    "OBJECTID": 167,
    "ProviderNa": "HEB Pharmacy 178",
    "OrgType": "Pharmacy",
    "Address": "6839 San Pedro Ave",
    "City": "San Antonio",
    "State": "TX",
    "ZIP": 78216,
    "County": "BEXAR",
    "Wk1Pfizer": 0,
    "Wk2Pfizer": 0,
    "PfizerTota": 0,
    "Wk2Moderna": 100,
    "ModernaTot": 100,
    "GrandTotal": 100,
    "OrgGroup": "Pharmacy",
    "N_LAT": 29.502663,
    "N_LON": -98.499416,
    "N_LCODE": "AS0"
  },
  {
    "OBJECTID": 168,
    "ProviderNa": "HEB Pharmacy 189",
    "OrgType": "Pharmacy",
    "Address": "2130 Culebra Rd",
    "City": "San Antonio",
    "State": "TX",
    "ZIP": 78228,
    "County": "BEXAR",
    "Wk1Pfizer": 0,
    "Wk2Pfizer": 0,
    "PfizerTota": 0,
    "Wk2Moderna": 100,
    "ModernaTot": 100,
    "GrandTotal": 100,
    "OrgGroup": "Pharmacy",
    "N_LAT": 29.446606,
    "N_LON": -98.541289,
    "N_LCODE": "AS0"
  },
  {
    "OBJECTID": 169,
    "ProviderNa": "HEB Pharmacy 191",
    "OrgType": "Pharmacy",
    "Address": "4821 Broadway St",
    "City": "San Antonio",
    "State": "TX",
    "ZIP": 78209,
    "County": "BEXAR",
    "Wk1Pfizer": 0,
    "Wk2Pfizer": 0,
    "PfizerTota": 0,
    "Wk2Moderna": 100,
    "ModernaTot": 100,
    "GrandTotal": 100,
    "OrgGroup": "Pharmacy",
    "N_LAT": 29.47042,
    "N_LON": -98.463595,
    "N_LCODE": "AS2"
  },
  {
    "OBJECTID": 170,
    "ProviderNa": "HEB Pharmacy 195",
    "OrgType": "Pharmacy",
    "Address": "11551 West Ave",
    "City": "San Antonio",
    "State": "TX",
    "ZIP": 78213,
    "County": "BEXAR",
    "Wk1Pfizer": 0,
    "Wk2Pfizer": 0,
    "PfizerTota": 0,
    "Wk2Moderna": 100,
    "ModernaTot": 100,
    "GrandTotal": 100,
    "OrgGroup": "Pharmacy",
    "N_LAT": 29.54503,
    "N_LON": -98.510483,
    "N_LCODE": "AS0"
  },
  {
    "OBJECTID": 171,
    "ProviderNa": "HEB Pharmacy 205",
    "OrgType": "Pharmacy",
    "Address": "721 Castroville Rd",
    "City": "San Antonio",
    "State": "TX",
    "ZIP": 78237,
    "County": "BEXAR",
    "Wk1Pfizer": 0,
    "Wk2Pfizer": 0,
    "PfizerTota": 0,
    "Wk2Moderna": 100,
    "ModernaTot": 100,
    "GrandTotal": 100,
    "OrgGroup": "Pharmacy",
    "N_LAT": 29.417336,
    "N_LON": -98.551364,
    "N_LCODE": "AS0"
  },
  {
    "OBJECTID": 172,
    "ProviderNa": "HEB Pharmacy 211",
    "OrgType": "Pharmacy",
    "Address": "415 N New Braunfels Ave",
    "City": "San Antonio",
    "State": "TX",
    "ZIP": 78202,
    "County": "BEXAR",
    "Wk1Pfizer": 0,
    "Wk2Pfizer": 0,
    "PfizerTota": 0,
    "Wk2Moderna": 100,
    "ModernaTot": 100,
    "GrandTotal": 100,
    "OrgGroup": "Pharmacy",
    "N_LAT": 29.424472,
    "N_LON": -98.461411,
    "N_LCODE": "AS0"
  },
  {
    "OBJECTID": 173,
    "ProviderNa": "Heb Pharmacy 224",
    "OrgType": "Pharmacy",
    "Address": "7951 Guilbeau Rd",
    "City": "San Antonio",
    "State": "TX",
    "ZIP": 78250,
    "County": "BEXAR",
    "Wk1Pfizer": 0,
    "Wk2Pfizer": 0,
    "PfizerTota": 0,
    "Wk2Moderna": 100,
    "ModernaTot": 100,
    "GrandTotal": 100,
    "OrgGroup": "Pharmacy",
    "N_LAT": 29.519241,
    "N_LON": -98.643483,
    "N_LCODE": "AS0"
  },
  {
    "OBJECTID": 174,
    "ProviderNa": "Heb Pharmacy 230",
    "OrgType": "Pharmacy",
    "Address": "14087 Oconnor Rd",
    "City": "San Antonio",
    "State": "TX",
    "ZIP": 78247,
    "County": "BEXAR",
    "Wk1Pfizer": 0,
    "Wk2Pfizer": 0,
    "PfizerTota": 0,
    "Wk2Moderna": 100,
    "ModernaTot": 100,
    "GrandTotal": 100,
    "OrgGroup": "Pharmacy",
    "N_LAT": 29.570082,
    "N_LON": -98.386071,
    "N_LCODE": "AS0"
  },
  {
    "OBJECTID": 175,
    "ProviderNa": "Heb Pharmacy 235",
    "OrgType": "Pharmacy",
    "Address": "9255 Fm 471 West",
    "City": "San Antonio",
    "State": "TX",
    "ZIP": 78250,
    "County": "BEXAR",
    "Wk1Pfizer": 0,
    "Wk2Pfizer": 0,
    "PfizerTota": 0,
    "Wk2Moderna": 100,
    "ModernaTot": 100,
    "GrandTotal": 100,
    "OrgGroup": "Pharmacy",
    "N_LAT": 29.484357,
    "N_LON": -98.665796,
    "N_LCODE": "AS0"
  },
  {
    "OBJECTID": 176,
    "ProviderNa": "HEB Pharmacy 26",
    "OrgType": "Pharmacy",
    "Address": "3524 S New Braunfels",
    "City": "San Antonio",
    "State": "TX",
    "ZIP": 78223,
    "County": "BEXAR",
    "Wk1Pfizer": 0,
    "Wk2Pfizer": 0,
    "PfizerTota": 0,
    "Wk2Moderna": 100,
    "ModernaTot": 100,
    "GrandTotal": 100,
    "OrgGroup": "Pharmacy",
    "N_LAT": 29.383222,
    "N_LON": -98.461064,
    "N_LCODE": "AS0"
  },
  {
    "OBJECTID": 177,
    "ProviderNa": "Heb Pharmacy 262",
    "OrgType": "Pharmacy",
    "Address": "5601 Bandera Rd",
    "City": "San Antonio",
    "State": "TX",
    "ZIP": 78238,
    "County": "BEXAR",
    "Wk1Pfizer": 0,
    "Wk2Pfizer": 0,
    "PfizerTota": 0,
    "Wk2Moderna": 100,
    "ModernaTot": 100,
    "GrandTotal": 100,
    "OrgGroup": "Pharmacy",
    "N_LAT": 29.480909,
    "N_LON": -98.595146,
    "N_LCODE": "AS0"
  },
  {
    "OBJECTID": 178,
    "ProviderNa": "Heb Pharmacy 294",
    "OrgType": "Pharmacy",
    "Address": "6580 Fm 78",
    "City": "San Antonio",
    "State": "TX",
    "ZIP": 78244,
    "County": "BEXAR",
    "Wk1Pfizer": 0,
    "Wk2Pfizer": 0,
    "PfizerTota": 0,
    "Wk2Moderna": 100,
    "ModernaTot": 100,
    "GrandTotal": 100,
    "OrgGroup": "Pharmacy",
    "N_LAT": 29.48127,
    "N_LON": -98.358632,
    "N_LCODE": "AS0"
  },
  {
    "OBJECTID": 179,
    "ProviderNa": "Heb Pharmacy 372",
    "OrgType": "Pharmacy",
    "Address": "1955 Nacogdoches Rd",
    "City": "San Antonio",
    "State": "TX",
    "ZIP": 78209,
    "County": "BEXAR",
    "Wk1Pfizer": 0,
    "Wk2Pfizer": 0,
    "PfizerTota": 0,
    "Wk2Moderna": 100,
    "ModernaTot": 100,
    "GrandTotal": 100,
    "OrgGroup": "Pharmacy",
    "N_LAT": 29.507781,
    "N_LON": -98.457537,
    "N_LCODE": "AS0"
  },
  {
    "OBJECTID": 180,
    "ProviderNa": "Heb Pharmacy 384",
    "OrgType": "Pharmacy",
    "Address": "6030 Montgomery",
    "City": "San Antonio",
    "State": "TX",
    "ZIP": 78239,
    "County": "BEXAR",
    "Wk1Pfizer": 0,
    "Wk2Pfizer": 0,
    "PfizerTota": 0,
    "Wk2Moderna": 100,
    "ModernaTot": 100,
    "GrandTotal": 100,
    "OrgGroup": "Pharmacy",
    "N_LAT": 29.510684,
    "N_LON": -98.370349,
    "N_LCODE": "AS0"
  },
  {
    "OBJECTID": 181,
    "ProviderNa": "Heb Pharmacy 385",
    "OrgType": "Pharmacy",
    "Address": "300 W Olmos Dr",
    "City": "San Antonio",
    "State": "TX",
    "ZIP": 78212,
    "County": "BEXAR",
    "Wk1Pfizer": 0,
    "Wk2Pfizer": 0,
    "PfizerTota": 0,
    "Wk2Moderna": 100,
    "ModernaTot": 100,
    "GrandTotal": 100,
    "OrgGroup": "Pharmacy",
    "N_LAT": 29.470797,
    "N_LON": -98.496868,
    "N_LCODE": "AS0"
  },
  {
    "OBJECTID": 182,
    "ProviderNa": "Heb Pharmacy 389",
    "OrgType": "Pharmacy",
    "Address": "6000 West Ave",
    "City": "San Antonio",
    "State": "TX",
    "ZIP": 78213,
    "County": "BEXAR",
    "Wk1Pfizer": 0,
    "Wk2Pfizer": 0,
    "PfizerTota": 0,
    "Wk2Moderna": 100,
    "ModernaTot": 100,
    "GrandTotal": 100,
    "OrgGroup": "Pharmacy",
    "N_LAT": 29.516051,
    "N_LON": -98.525766,
    "N_LCODE": "AS0"
  },
  {
    "OBJECTID": 183,
    "ProviderNa": "Heb Pharmacy 395",
    "OrgType": "Pharmacy",
    "Address": "12777 W Interstate 10",
    "City": "San Antonio",
    "State": "TX",
    "ZIP": 78230,
    "County": "BEXAR",
    "Wk1Pfizer": 0,
    "Wk2Pfizer": 0,
    "PfizerTota": 0,
    "Wk2Moderna": 100,
    "ModernaTot": 100,
    "GrandTotal": 100,
    "OrgGroup": "Pharmacy",
    "N_LAT": 29.561562,
    "N_LON": -98.589825,
    "N_LCODE": "AS0"
  },
  {
    "OBJECTID": 184,
    "ProviderNa": "Heb Pharmacy 397",
    "OrgType": "Pharmacy",
    "Address": "18140 San Pedro Ave",
    "City": "San Antonio",
    "State": "TX",
    "ZIP": 78232,
    "County": "BEXAR",
    "Wk1Pfizer": 0,
    "Wk2Pfizer": 0,
    "PfizerTota": 0,
    "Wk2Moderna": 100,
    "ModernaTot": 100,
    "GrandTotal": 100,
    "OrgGroup": "Pharmacy",
    "N_LAT": 29.607295,
    "N_LON": -98.468422,
    "N_LCODE": "AS0"
  },
  {
    "OBJECTID": 185,
    "ProviderNa": "Heb Pharmacy 398",
    "OrgType": "Pharmacy",
    "Address": "2929 Thousand Oaks Dr",
    "City": "San Antonio",
    "State": "TX",
    "ZIP": 78247,
    "County": "BEXAR",
    "Wk1Pfizer": 0,
    "Wk2Pfizer": 0,
    "PfizerTota": 0,
    "Wk2Moderna": 100,
    "ModernaTot": 100,
    "GrandTotal": 100,
    "OrgGroup": "Pharmacy",
    "N_LAT": 29.576282,
    "N_LON": -98.440235,
    "N_LCODE": "AS0"
  },
  {
    "OBJECTID": 186,
    "ProviderNa": "Heb Pharmacy 427",
    "OrgType": "Pharmacy",
    "Address": "735 Se Military Dr",
    "City": "San Antonio",
    "State": "TX",
    "ZIP": 78214,
    "County": "BEXAR",
    "Wk1Pfizer": 0,
    "Wk2Pfizer": 0,
    "PfizerTota": 0,
    "Wk2Moderna": 100,
    "ModernaTot": 100,
    "GrandTotal": 100,
    "OrgGroup": "Pharmacy",
    "N_LAT": 29.35686,
    "N_LON": -98.489586,
    "N_LCODE": "AS0"
  },
  {
    "OBJECTID": 187,
    "ProviderNa": "Heb Pharmacy 444",
    "OrgType": "Pharmacy",
    "Address": "3323 Se Military Dr",
    "City": "San Antonio",
    "State": "TX",
    "ZIP": 78223,
    "County": "BEXAR",
    "Wk1Pfizer": 0,
    "Wk2Pfizer": 0,
    "PfizerTota": 0,
    "Wk2Moderna": 100,
    "ModernaTot": 100,
    "GrandTotal": 100,
    "OrgGroup": "Pharmacy",
    "N_LAT": 29.353687,
    "N_LON": -98.425402,
    "N_LCODE": "AS0"
  },
  {
    "OBJECTID": 188,
    "ProviderNa": "Heb Pharmacy 463",
    "OrgType": "Pharmacy",
    "Address": "1150 N Fm 1604 W",
    "City": "San Antonio",
    "State": "TX",
    "ZIP": 78248,
    "County": "BEXAR",
    "Wk1Pfizer": 0,
    "Wk2Pfizer": 0,
    "PfizerTota": 0,
    "Wk2Moderna": 100,
    "ModernaTot": 100,
    "GrandTotal": 100,
    "OrgGroup": "Pharmacy",
    "N_LAT": 29.608951,
    "N_LON": -98.509625,
    "N_LCODE": "AS0"
  },
  {
    "OBJECTID": 189,
    "ProviderNa": "Heb Pharmacy 466",
    "OrgType": "Pharmacy",
    "Address": "108 N Rosillo St",
    "City": "San Antonio",
    "State": "TX",
    "ZIP": 78207,
    "County": "BEXAR",
    "Wk1Pfizer": 0,
    "Wk2Pfizer": 0,
    "PfizerTota": 0,
    "Wk2Moderna": 100,
    "ModernaTot": 100,
    "GrandTotal": 100,
    "OrgGroup": "Pharmacy",
    "N_LAT": 29.428569,
    "N_LON": -98.525474,
    "N_LCODE": "AS0"
  },
  {
    "OBJECTID": 190,
    "ProviderNa": "HEB Pharmacy 480",
    "OrgType": "Pharmacy",
    "Address": "9900 Wurzbach Rd",
    "City": "San Antonio",
    "State": "TX",
    "ZIP": 78230,
    "County": "BEXAR",
    "Wk1Pfizer": 0,
    "Wk2Pfizer": 0,
    "PfizerTota": 0,
    "Wk2Moderna": 100,
    "ModernaTot": 100,
    "GrandTotal": 100,
    "OrgGroup": "Pharmacy",
    "N_LAT": 29.532369,
    "N_LON": -98.560708,
    "N_LCODE": "AS0"
  },
  {
    "OBJECTID": 191,
    "ProviderNa": "HEB Pharmacy 494",
    "OrgType": "Pharmacy",
    "Address": "10660 Culebra Rd",
    "City": "San Antonio",
    "State": "TX",
    "ZIP": 78251,
    "County": "BEXAR",
    "Wk1Pfizer": 0,
    "Wk2Pfizer": 0,
    "PfizerTota": 0,
    "Wk2Moderna": 100,
    "ModernaTot": 100,
    "GrandTotal": 100,
    "OrgGroup": "Pharmacy",
    "N_LAT": 29.492983,
    "N_LON": -98.702518,
    "N_LCODE": "AS0"
  },
  {
    "OBJECTID": 192,
    "ProviderNa": "Heb Pharmacy 556",
    "OrgType": "Pharmacy",
    "Address": "2118 Fredericksburg Rd",
    "City": "San Antonio",
    "State": "TX",
    "ZIP": 78201,
    "County": "BEXAR",
    "Wk1Pfizer": 0,
    "Wk2Pfizer": 0,
    "PfizerTota": 0,
    "Wk2Moderna": 100,
    "ModernaTot": 100,
    "GrandTotal": 100,
    "OrgGroup": "Pharmacy",
    "N_LAT": 29.464955,
    "N_LON": -98.526201,
    "N_LCODE": "AS0"
  },
  {
    "OBJECTID": 193,
    "ProviderNa": "HEB Pharmacy 566",
    "OrgType": "Pharmacy",
    "Address": "24165 W Interstate 10 Ste 300",
    "City": "San Antonio",
    "State": "TX",
    "ZIP": 78257,
    "County": "BEXAR",
    "Wk1Pfizer": 0,
    "Wk2Pfizer": 0,
    "PfizerTota": 0,
    "Wk2Moderna": 100,
    "ModernaTot": 100,
    "GrandTotal": 100,
    "OrgGroup": "Pharmacy",
    "N_LAT": 29.665157,
    "N_LON": -98.631921,
    "N_LCODE": "AS0"
  },
  {
    "OBJECTID": 194,
    "ProviderNa": "Heb Pharmacy 567",
    "OrgType": "Pharmacy",
    "Address": "999 E Basse Rd",
    "City": "San Antonio",
    "State": "TX",
    "ZIP": 78209,
    "County": "BEXAR",
    "Wk1Pfizer": 0,
    "Wk2Pfizer": 0,
    "PfizerTota": 0,
    "Wk2Moderna": 100,
    "ModernaTot": 100,
    "GrandTotal": 100,
    "OrgGroup": "Pharmacy",
    "N_LAT": 29.49678,
    "N_LON": -98.468933,
    "N_LCODE": "AS0"
  },
  {
    "OBJECTID": 195,
    "ProviderNa": "HEB Pharmacy 568",
    "OrgType": "Pharmacy",
    "Address": "12018 Perrin Beitel Rd",
    "City": "San Antonio",
    "State": "TX",
    "ZIP": 78217,
    "County": "BEXAR",
    "Wk1Pfizer": 0,
    "Wk2Pfizer": 0,
    "PfizerTota": 0,
    "Wk2Moderna": 100,
    "ModernaTot": 100,
    "GrandTotal": 100,
    "OrgGroup": "Pharmacy",
    "N_LAT": 29.549577,
    "N_LON": -98.407844,
    "N_LCODE": "AS0"
  },
  {
    "OBJECTID": 196,
    "ProviderNa": "HEB Pharmacy 585",
    "OrgType": "Pharmacy",
    "Address": "1520 Austin Hwy",
    "City": "San Antonio",
    "State": "TX",
    "ZIP": 78218,
    "County": "BEXAR",
    "Wk1Pfizer": 0,
    "Wk2Pfizer": 0,
    "PfizerTota": 0,
    "Wk2Moderna": 100,
    "ModernaTot": 100,
    "GrandTotal": 100,
    "OrgGroup": "Pharmacy",
    "N_LAT": 29.494585,
    "N_LON": -98.431456,
    "N_LCODE": "AS0"
  },
  {
    "OBJECTID": 197,
    "ProviderNa": "HEB Pharmacy 618",
    "OrgType": "Pharmacy",
    "Address": "5910 Babcock Rd",
    "City": "San Antonio",
    "State": "TX",
    "ZIP": 78240,
    "County": "BEXAR",
    "Wk1Pfizer": 0,
    "Wk2Pfizer": 0,
    "PfizerTota": 0,
    "Wk2Moderna": 100,
    "ModernaTot": 100,
    "GrandTotal": 100,
    "OrgGroup": "Pharmacy",
    "N_LAT": 29.527792,
    "N_LON": -98.602062,
    "N_LCODE": "AS0"
  },
  {
    "OBJECTID": 198,
    "ProviderNa": "HEB Pharmacy 623",
    "OrgType": "Pharmacy",
    "Address": "9238 N Loop 1604 W",
    "City": "San Antonio",
    "State": "TX",
    "ZIP": 78249,
    "County": "BEXAR",
    "Wk1Pfizer": 0,
    "Wk2Pfizer": 0,
    "PfizerTota": 0,
    "Wk2Moderna": 100,
    "ModernaTot": 100,
    "GrandTotal": 100,
    "OrgGroup": "Pharmacy",
    "N_LAT": 29.554767,
    "N_LON": -98.664785,
    "N_LCODE": "AS0"
  },
  {
    "OBJECTID": 199,
    "ProviderNa": "Heb Pharmacy 647",
    "OrgType": "Pharmacy",
    "Address": "8300 Floyd Curl Dr Ste 105",
    "City": "San Antonio",
    "State": "TX",
    "ZIP": 78229,
    "County": "BEXAR",
    "Wk1Pfizer": 0,
    "Wk2Pfizer": 0,
    "PfizerTota": 0,
    "Wk2Moderna": 200,
    "ModernaTot": 200,
    "GrandTotal": 200,
    "OrgGroup": "Pharmacy",
    "N_LAT": 29.514822,
    "N_LON": -98.581413,
    "N_LCODE": "AS0"
  },
  {
    "OBJECTID": 200,
    "ProviderNa": "Heb Pharmacy 658",
    "OrgType": "Pharmacy",
    "Address": "23635 Wilderness Oak",
    "City": "San Antonio",
    "State": "TX",
    "ZIP": 78258,
    "County": "BEXAR",
    "Wk1Pfizer": 0,
    "Wk2Pfizer": 0,
    "PfizerTota": 0,
    "Wk2Moderna": 100,
    "ModernaTot": 100,
    "GrandTotal": 100,
    "OrgGroup": "Pharmacy",
    "N_LAT": 29.662448,
    "N_LON": -98.49908,
    "N_LCODE": "AS0"
  },
  {
    "OBJECTID": 201,
    "ProviderNa": "HEB Pharmacy 678",
    "OrgType": "Pharmacy",
    "Address": "302 Valley Hi Dr",
    "City": "San Antonio",
    "State": "TX",
    "ZIP": 78227,
    "County": "BEXAR",
    "Wk1Pfizer": 0,
    "Wk2Pfizer": 0,
    "PfizerTota": 0,
    "Wk2Moderna": 100,
    "ModernaTot": 100,
    "GrandTotal": 100,
    "OrgGroup": "Pharmacy",
    "N_LAT": 29.38211,
    "N_LON": -98.636076,
    "N_LCODE": "AS0"
  },
  {
    "OBJECTID": 202,
    "ProviderNa": "HEB Pharmacy 699",
    "OrgType": "Pharmacy",
    "Address": "1601 Nogalitos St",
    "City": "San Antonio",
    "State": "TX",
    "ZIP": 78204,
    "County": "BEXAR",
    "Wk1Pfizer": 0,
    "Wk2Pfizer": 0,
    "PfizerTota": 0,
    "Wk2Moderna": 100,
    "ModernaTot": 100,
    "GrandTotal": 100,
    "OrgGroup": "Pharmacy",
    "N_LAT": 29.397807,
    "N_LON": -98.514202,
    "N_LCODE": "AS0"
  },
  {
    "OBJECTID": 203,
    "ProviderNa": "HEB Pharmacy 732",
    "OrgType": "Pharmacy",
    "Address": "17238 Bulverde Rd",
    "City": "San Antonio",
    "State": "TX",
    "ZIP": 78247,
    "County": "BEXAR",
    "Wk1Pfizer": 0,
    "Wk2Pfizer": 0,
    "PfizerTota": 0,
    "Wk2Moderna": 100,
    "ModernaTot": 100,
    "GrandTotal": 100,
    "OrgGroup": "Pharmacy",
    "N_LAT": 29.59645,
    "N_LON": -98.41905,
    "N_LCODE": "AS0"
  },
  {
    "OBJECTID": 204,
    "ProviderNa": "HEB Pharmacy 733",
    "OrgType": "Pharmacy",
    "Address": "12125 Alamo Ranch Pkwy",
    "City": "San Antonio",
    "State": "TX",
    "ZIP": 78253,
    "County": "BEXAR",
    "Wk1Pfizer": 0,
    "Wk2Pfizer": 0,
    "PfizerTota": 0,
    "Wk2Moderna": 100,
    "ModernaTot": 100,
    "GrandTotal": 100,
    "OrgGroup": "Pharmacy",
    "N_LAT": 29.484659,
    "N_LON": -98.7332,
    "N_LCODE": "AS0"
  },
  {
    "OBJECTID": 205,
    "ProviderNa": "HEB Pharmacy 771",
    "OrgType": "Pharmacy",
    "Address": "14325 Potranco Rd",
    "City": "San Antonio",
    "State": "TX",
    "ZIP": 78253,
    "County": "BEXAR",
    "Wk1Pfizer": 0,
    "Wk2Pfizer": 0,
    "PfizerTota": 0,
    "Wk2Moderna": 100,
    "ModernaTot": 100,
    "GrandTotal": 100,
    "OrgGroup": "Pharmacy",
    "N_LAT": 29.42153,
    "N_LON": -98.779368,
    "N_LCODE": "AI0"
  },
  {
    "OBJECTID": 206,
    "ProviderNa": "HEB Pharmacy 84",
    "OrgType": "Pharmacy",
    "Address": "6818 S Zarzamora St",
    "City": "San Antonio",
    "State": "TX",
    "ZIP": 78224,
    "County": "BEXAR",
    "Wk1Pfizer": 0,
    "Wk2Pfizer": 0,
    "PfizerTota": 0,
    "Wk2Moderna": 100,
    "ModernaTot": 100,
    "GrandTotal": 100,
    "OrgGroup": "Pharmacy",
    "N_LAT": 29.360253,
    "N_LON": -98.533896,
    "N_LCODE": "AS0"
  },
  {
    "OBJECTID": 207,
    "ProviderNa": "HEB Pharmacy 85",
    "OrgType": "Pharmacy",
    "Address": "10718 Potranco",
    "City": "San Antonio",
    "State": "TX",
    "ZIP": 78251,
    "County": "BEXAR",
    "Wk1Pfizer": 0,
    "Wk2Pfizer": 0,
    "PfizerTota": 0,
    "Wk2Moderna": 100,
    "ModernaTot": 100,
    "GrandTotal": 100,
    "OrgGroup": "Pharmacy",
    "N_LAT": 29.435525,
    "N_LON": -98.703816,
    "N_LCODE": "AS0"
  },
  {
    "OBJECTID": 208,
    "ProviderNa": "Hormazd Sanjana MD",
    "OrgType": "Private Practice",
    "Address": "2277 NW Military Hwy #100",
    "City": "San Antonio",
    "State": "TX",
    "ZIP": 78213,
    "County": "BEXAR",
    "Wk1Pfizer": 0,
    "Wk2Pfizer": 0,
    "PfizerTota": 0,
    "Wk2Moderna": 500,
    "ModernaTot": 500,
    "GrandTotal": 500,
    "OrgGroup": "Medical Practice",
    "N_LAT": 29.5389845,
    "N_LON": -98.5263795,
    "N_LCODE": "M"
  },
  {
    "OBJECTID": 209,
    "ProviderNa": "Methodist Specialty And Transplant Hospital",
    "OrgType": "Hospital",
    "Address": "8026 Floyd Curl Dr",
    "City": "San Antonio",
    "State": "TX",
    "ZIP": 78229,
    "County": "BEXAR",
    "Wk1Pfizer": 0,
    "Wk2Pfizer": 0,
    "PfizerTota": 0,
    "Wk2Moderna": 900,
    "ModernaTot": 900,
    "GrandTotal": 900,
    "OrgGroup": "Hospital",
    "N_LAT": 29.512953,
    "N_LON": -98.577089,
    "N_LCODE": "AS0"
  },
  {
    "OBJECTID": 210,
    "ProviderNa": "Methodist Stone Oak Hospital",
    "OrgType": "Hospital",
    "Address": "1139 E. Sonterra Blvd.",
    "City": "San Antonio",
    "State": "TX",
    "ZIP": 78258,
    "County": "BEXAR",
    "Wk1Pfizer": 0,
    "Wk2Pfizer": 0,
    "PfizerTota": 0,
    "Wk2Moderna": 600,
    "ModernaTot": 600,
    "GrandTotal": 600,
    "OrgGroup": "Hospital",
    "N_LAT": 29.614633,
    "N_LON": -98.475447,
    "N_LCODE": "AS0"
  },
  {
    "OBJECTID": 211,
    "ProviderNa": "Northeast Methodist Hospital",
    "OrgType": "Hospital",
    "Address": "12412 Judson Rd",
    "City": "San Antonio",
    "State": "TX",
    "ZIP": 78233,
    "County": "BEXAR",
    "Wk1Pfizer": 0,
    "Wk2Pfizer": 0,
    "PfizerTota": 0,
    "Wk2Moderna": 1000,
    "ModernaTot": 1000,
    "GrandTotal": 1000,
    "OrgGroup": "Hospital",
    "N_LAT": 29.551546,
    "N_LON": -98.347529,
    "N_LCODE": "AS0"
  },
  {
    "OBJECTID": 212,
    "ProviderNa": "Quality Urgent Care",
    "OrgType": "Other",
    "Address": "318 W. Loop 1604 N",
    "City": "San Antonio",
    "State": "TX",
    "ZIP": 78245,
    "County": "BEXAR",
    "Wk1Pfizer": 0,
    "Wk2Pfizer": 0,
    "PfizerTota": 0,
    "Wk2Moderna": 900,
    "ModernaTot": 900,
    "GrandTotal": 900,
    "OrgGroup": "Other",
    "N_LAT": 29.43483848,
    "N_LON": -98.7100884,
    "N_LCODE": "M"
  },
  {
    "OBJECTID": 213,
    "ProviderNa": "Quality Urgent Care Of America",
    "OrgType": "Private Practice",
    "Address": "19422 Us Highway 281 N Ste 106",
    "City": "San Antonio",
    "State": "TX",
    "ZIP": 78258,
    "County": "BEXAR",
    "Wk1Pfizer": 0,
    "Wk2Pfizer": 0,
    "PfizerTota": 0,
    "Wk2Moderna": 1000,
    "ModernaTot": 1000,
    "GrandTotal": 1000,
    "OrgGroup": "Medical Practice",
    "N_LAT": 29.623144,
    "N_LON": -98.463324,
    "N_LCODE": "AS0"
  },
  {
    "OBJECTID": 214,
    "ProviderNa": "SAFD Office of Medical Director",
    "OrgType": "Fire Department/EMS",
    "Address": "4522 Fredricksburg Rd",
    "City": "San Antonio",
    "State": "TX",
    "ZIP": 78201,
    "County": "BEXAR",
    "Wk1Pfizer": 0,
    "Wk2Pfizer": 0,
    "PfizerTota": 0,
    "Wk2Moderna": 1600,
    "ModernaTot": 1600,
    "GrandTotal": 1600,
    "OrgGroup": "Other",
    "N_LAT": 29.490223,
    "N_LON": -98.551342,
    "N_LCODE": "AS0"
  },
  {
    "OBJECTID": 215,
    "ProviderNa": "Samhd Main Immunizations Clinic",
    "OrgType": "Local Health Dept",
    "Address": "210 N Mel Waiters Way",
    "City": "San Antonio",
    "State": "TX",
    "ZIP": 78202,
    "County": "BEXAR",
    "Wk1Pfizer": 0,
    "Wk2Pfizer": 0,
    "PfizerTota": 0,
    "Wk2Moderna": 1100,
    "ModernaTot": 1100,
    "GrandTotal": 1100,
    "OrgGroup": "Local Health Department",
    "N_LAT": 29.420798,
    "N_LON": -98.447291,
    "N_LCODE": "AS0"
  },
  {
    "OBJECTID": 216,
    "ProviderNa": "San Antonio Arthritis Care Centers Pharm",
    "OrgType": "Pharmacy",
    "Address": "8527 Village Drive",
    "City": "San Antonio",
    "State": "TX",
    "ZIP": 78217,
    "County": "BEXAR",
    "Wk1Pfizer": 0,
    "Wk2Pfizer": 0,
    "PfizerTota": 0,
    "Wk2Moderna": 300,
    "ModernaTot": 300,
    "GrandTotal": 300,
    "OrgGroup": "Pharmacy",
    "N_LAT": 29.517048,
    "N_LON": -98.427303,
    "N_LCODE": "AS0"
  },
  {
    "OBJECTID": 217,
    "ProviderNa": "South Texas Allergy and Asthma Medical Proffession",
    "OrgType": "Private Practice",
    "Address": "341 E Hildebrand",
    "City": "San Antonio",
    "State": "TX",
    "ZIP": 78212,
    "County": "BEXAR",
    "Wk1Pfizer": 0,
    "Wk2Pfizer": 0,
    "PfizerTota": 0,
    "Wk2Moderna": 500,
    "ModernaTot": 500,
    "GrandTotal": 500,
    "OrgGroup": "Medical Practice",
    "N_LAT": 29.466627,
    "N_LON": -98.488648,
    "N_LCODE": "AS0"
  },