NAME,UFID,TYPE,TSA,PHONE,EMAIL,STREET,CITY,COUNTY,LATITUDE,LONGITUDE,LAST_UPDATE,PFIZER_DEPOSITS,PFIZER_ADMIND,PFIZER_WASTED,PFIZER_AVAILABLE,PFIZER_ALLOCATED,MODERNA_DEPOSITS,MODERNA_ADMIND,MODERNA_WASTED,MODERNA_AVAILABLE,MODERNA_ALLOCATED,VACCINES_DEPOSITS,VACCINES_ADMIND,VACCINES_WASTED,VACCINES_AVAILABLE,VACCINES_ALLOCATED,RECEIVED_VACCINE,RECEIVED_VACCINE_AMOUNT,RECEIVED_VACCINE_DATE,VACCINE_POC_TITLE,VACCINE_CHECK,VACCINE_PROGRAM_START_DATE,VACCINE_PROGRAM_COMPLETE_DATE,VACCINE_STORAGE,VACCINE_PRIORITY,VACCINE_POC,VACCINE_POC_CELL,VACCINE_EMAIL,VACCINE_247_POC,VACCINE_ENTITY_SHARE,VACCINE_OTHER_ENTITY_SHARE,VACCINE_POC_OFFICE,VACCINE_POC_BACKUP,FIELD_1,FIELD_2,FIELD_3,FIELD_4,ObjectId
VALLEY REGIONAL MED CENTER,11771,Hospital,V,956-350-7153,Kevin.Johnson2@hcahealthcare.com,100 E Alton Gloor Blvd, Brownsville,Cameron,25.979088,-97.516073,1609912800000,0,0,0,0,,350,155,0,250,,350,155,0,250,,,600,1609135200000,,Yes,1609221600000,1578636000000,freezer,tier based,Olga Rodirguez,9563507725,,956-350-7000,,,956-350-7367,Siavash Khaleghi,,,,,1
AUSTIN REGIONAL CLINIC - CEDAR PARK,25135126,Doctors Office,,512-259-3467,adselvera@austinregionalclinic.com,801 E Whitestone Blvd,Cedar Park,Williamson,30.5244256,-97.8220273,1609912800000,0,0,0,0,,0,50,0,130,,0,50,0,130,,,0,1608703200000,Clinic Manager,Yes,1608703200000,1610085600000,solo fridge,based on state guidelines,Andrea Selvera,,adselvera@austinregionalclinic.com,,,yes,512-259-3467,Morgan Day,,,,,2
EL PASO PSYCHIATRIC CENTER ,12711,Hospital,I,915-532-2202,zulema.carrillo@hhsc.state.tx.us,4615 Alameda Ave, El Paso,El Paso,31.771442,-106.436599,1609912800000,0,0,0,0,,100,30,0,90,,100,30,0,90,,,15,1608271200000,Medical Director,Yes,-2208880800000,-2208880800000,Medication refrigerator,As determined by the Medical Director,Ames Marquez,9152556575,Ames.Marquez@hhs.texas.gov,915 2556575,,No,(915) 532-2202,Elisa Garcia,,,,,3
Sullivan Pharmacy,25204098,Pharmacy,,956-793-3738,sullivanpharmacy@yahoo.com,1140 GRAND AVENUE,BACLIFF,TX,29.4993881785774,-94.9942531133976,1609826400000,0,0,0,0,,0,440,0,0,,0,440,0,0,,,0,-2208967200000,,Yes,-2208967200000,-2208967200000,,,Joe Sullivan,,julie.spier@safeway.com,,,,281-339-4577,,,,,,4
North Texas Infectious Diseases Consultants ,25170969,Infusion Center,,214-2765639,Shannon.bertrand@ntidc.org,3409 Worth St,Dallas,Dallas,32.7886704,-96.7798097,1609912800000,0,60,489,489,,0,0,0,0,,0,60,489,489,,,1950,1608184800000,Pharmacy Director,Yes,1608184800000,1612159200000,Ultra cold freezer,Group 1A Health care employees,Shannon Bertrand,(903) 647-0814,shannon.bertrand@ntidc@org,(214) 276-5617,,No,(214) 276-5639,Amy Guftason,,,,,5
FIRST BAPTIST MEDICAL CENTER,162459,Hospital,E,--,--,8111 MEADOW RD, Dallas,Dallas,32.887761,-96.766523,1609826400000,0,0,0,0,,100,109,0,0,,100,109,0,0,,,0,1609394400000,Director of Quality,Yes,1609394400000,-2208880800000,,,Hillary Jones,,hillary.jones@fbmcdallas.com,469-525-7188,,,469-329-3706,,,,,,6
COLUMBUS COMMUNITY,4843,Hospital,Q,979-493-7563,jhargrove@columbusch.com,110 Shult Dr, Columbus,Colorado,29.694201,-96.542949,1609912800000,0,0,0,0,,200,72,0,200,,200,72,0,200,,,0,1609826400000,CPht,Yes,1609912800000,1610172000000,refrigerator,"Infection control nurse, Lana Wied is handling this ",Cynthia Stancik,979-493-7563,kstancik@columbusch.com,979-493-7601,,no,979-493-7600,Debbie Waddell,,,,,7
UT Medicine,25310653,Doctors Office,,2104506120,nerios@uthscsa.edu,3939 Medical Dr Ste 100,San Antonio,Texas,29.5197529343516,-98.5603758965436,1609826400000,0,0,0,0,,0,10,0,990,,0,10,0,990,,,0,-2208967200000,Director,Yes,-2208967200000,-2208967200000,,, Johnna Nerios,,nerios@uthscsa.edu,(210) 450-6620,,,2104509003,,,,,,8
UT HEALTH SHAVANO PARK PCC,30007420,Doctors Office,,2104506620,nerios@uthscsa.edu,14530 Nw Military Hwy # 108,San Antonio,Bexar,29.5761341413373,-98.5455732040784,1609826400000,0,0,0,0,,0,10,0,670,,0,10,0,670,,,0,-2208967200000,Director,Yes,-2208967200000,-2208967200000,,, Johnna Nerios,,nerios@uthscsa.edu,(210) 450-6620,,,2104509003,,,,,,9
BAPTIST HEALTH SYSTEM-BMC,4500581787738,Hospital,P,210-213-1791,--,111 Dallas St, San Antonio,Bexar,29.432843,-98.492718,1609912800000,0,0,200,0,,0,0,0,0,,0,0,200,0,,,195,1608357600000,Director of Pharmacy,Yes,1608357600000,1608703200000,Refrigerator/ Thermal Shipper,"1st frontline staff with direct COVID 19 patient contact-medical staff / hospital staff

2nd remaining hospital staff",Carla Chavez,210-297-7765,Cxchave1@baptisthealthsystem.com,,,Day Clinic at Mission Trail Baptist,307-286-2816,Kelsey Hamilton,,,,,10
UT HEALTH SAN ANTONIO VERDE HILLS PCC,30021660,Doctors Office,,2104506530,nerios@uthscsa.edu,10350 BANDERA RD STE 140,SAN ANTONIO,Bexar,29.539456162746,-98.6513558623876,1609826400000,0,0,0,0,,0,10,0,180,,0,10,0,180,,,0,-2208967200000,Director,Yes,-2208967200000,-2208967200000,,, Johnna Nerios,,nerios@uthscsa.edu,(210) 450-6619,,,2104509003,,,,,,11
NORTHEAST BAPTIST HOSPITAL BH,4500581787346,Hospital,P,210-297-2760,kathy.uriarte@baptisthealthsystem.com,8811 Village Dr, San Antonio,Bexar,29.519092,-98.429478,1609912800000,0,0,0,0,,0,0,0,0,,0,0,0,0,,,975,-2208880800000,Director of Pharmacy,Yes,-2208880800000,-2208880800000,freezer,Tier guidelines,Rudy Esparza,210-297-2760,kathy.uriarte@baptisthealthsystem.com,,,no,210-297-2654,,,,,,12
UTSW-WILLIAM P. CLEMENTS JR. UNIVERSITY,4409,Hospital,E,214-645-8321,derek.trabon@utsouthwestern.edu,6201 Harry Hines Blvd, Dallas,Dallas,32.817851,-96.844782,1609912800000,2340,5824,17854,1318,,380,2083,0,170,,2720,7907,17854,1488,,,975,,Dir Pharmacy,Yes,,,Ultra cold,All staff members,Brad Osburg,903-452-1366,bradley.osburg@longviewregioinal.com,,,,903-232-3651,Keith Ellison,,,,,13
HCA HOUSTON HEALTHCARE PEARLAND,133824,Hospital,R,713-770-7000 Main,gregory.ramos@hcahealthcare.com,11100 Shadow Creek Parkway, Pearland,Brazoria,29.579336,-95.391433,1609826400000,0,0,0,0,,194,152,0,10,,194,152,0,10,,,0,,,Yes,,,,,,,,,,,,,,,,,14
HCA HOUSTON HEALTHCARE CONROE,11757,Hospital,Q,936-539-2552,Elizabeth.Byerman2@HCAhealthcare.com,504 Medical Center Blvd, Conroe,Montgomery,30.283033,-95.469377,1609912800000,0,0,0,0,,0,30,0,290,,0,30,0,290,,,0,,,Yes,,,,,,,,,,,,,,,,,15
CORPUS CHRISTI MED CTR - DRS REGIONAL,11501,Hospital,U,361-761-1468,James.Hobbs@HCAHealthcare.com,3315 South Alameda St., Corpus Christi,Nueces,27.754108,-97.388255,1609912800000,0,0,0,0,,400,0,0,400,,400,0,0,400,,,0,,,Yes,,,,,,,,,,,,,,,,,16
ST. JOSEPH MEDICAL CENTER,4833,Hospital,Q,832-977-1390,elizabeth.rothrock@steward.org,1401 St Joseph Pkwy, Houston,Harris,29.748148,-95.366788,1609912800000,0,0,0,0,,0,203,0,1030,,0,203,0,1030,,,0,,,Yes,,,,,,,,,,,,,,,,,17
VALLEY BAPTIST MED CENTER - BROWNSVILLE,11765,Hospital,V,956-698-5591,Wesley.Milum@valleybaptist.net,1040 W Jefferson St. , Brownsville,Cameron,25.918369,-97.51154,1609912800000,0,0,0,0,,0,278,0,250,,0,278,0,250,,,900,1608703200000,Pharmacist,Yes,1609221600000,1609912800000,freezer/fridge,tier 1/ tier 2/ tier3,Marisa Aguilar,956-564-1768, marisa.aguilar@valleybaptist.net,956-698-5515,,healthcare professionals,956-698-5515,Joanna Kanuga,,,,,18
HCA HOUSTON HEALTHCARE WEST,4875,Hospital,Q,281-588-8080,Kenny.Russo@hcahealthcare.com       ,12141 Richmond Ave, Houston,Harris,29.730212,-95.594996,1609912800000,0,0,0,0,,0,371,0,190,,0,371,0,190,,,0,,,Yes,,,,,,,,,,,,,,,,,19
"MADISON ST. JOSEPH, MADISONVILLE",11717,Hospital,N,936-204-4649,,, Madisonville,Madison,30.94248,-95.9105,1609912800000,0,0,0,0,,0,10,0,70,,0,10,0,70,,,0,-2208880800000,,Yes,-2208880800000,-2208880800000,,,VP Venita,,vpapillion3@stlukeshealth.org,,,,832-537-2698,,,,,,20
WOODLAND HEIGHTS MEDICAL CENTER - LUFKIN,11583,Hospital,H,936-637-8758,"stephen.bennett@woodlandheights.net, jannett_fowler@chs.net",505 S John Redditt Drive, Lufkin ,Angelina,31.326195,-94.755776,1609912800000,0,0,0,0,,0,165,0,100,,0,165,0,100,,,500,1608616800000,Pharmacy Director,Yes,1608616800000,-2208880800000,Freezer,Tier 1A,Clortis Pradia-Williams,,Clortis.pradiawilliams@woodlandheights.net,(936)637-8540,,,936-637-8643,,,,,,21
"BURLESON ST. JOSEPH, CALDWELL",11716,Hospital,N,979-224-6510,,, Caldwell,Burleson,30.52047,-96.71655,1609912800000,0,0,0,0,,0,11,0,70,,0,11,0,70,,,0,-2208880800000,,Yes,-2208880800000,-2208880800000,,,VP Venita,,vpapillion3@stlukeshealth.org,,,,832-537-2698,,,,,,22
GUADALUPE REGIONAL MEDICAL CTR - SEGUIN,45010411,Hospital,P,830-401-7587,npatek@grmedcenter.com,1215 E Court St, Seguin,Guadalupe,29.567991,-97.947366,1609912800000,0,0,0,0,,0,110,0,0,,0,110,0,0,,,800,1608789600000,Director of Pharmacy,Yes,1608789600000,1609480800000,Refrigerator,All hospital employees eligible immediately ,Scott Mozisek,979-820-1606 ,smozisek@grmedcenter.com,830-401-7868,,No,830-401-7868,Christina McKay,,,,,23
CHI ST. JOSEPH COLLEGE STATION HOSPITAL,11713,Hospital,N,832-537-2698,vpapillion3@stlukeshealth.org,1604 Rock Prairie Rd, College Station,Brazos,30.582429,-96.291714,1609912800000,0,0,0,0,,0,196,0,140,,0,196,0,140,,,24,1608012000000,,Yes,1608184800000,1609394400000,Freezers,12/16/2020 front line workers first and then follow CDC and Texas department of public heath guideline down from there,VP Venita,,vpapillion3@stlukeshealth.org,,,No,832-537-2698,,,,,,24
CHI ST.LUKE'S HEALTH MEM - SAN AUGUSTINE,11578,Hospital,H,832-537-2698,vpapillion3@stlukeshealth.org,511 East Hospital Street, San Augustine,San Augustine,31.531435,-94.10511,1609912800000,0,0,0,0,,100,0,0,100,,100,0,0,100,,,0,-2208880800000,,Yes,-2208880800000,-2208880800000,,,VP Venita,,vpapillion3@stlukeshealth.org,,,,832-537-2698,,,,,,25
CHI ST. LUKE'S HEALTH MEMORIAL - LUFKIN,11576,Hospital,H,832-537-2698,vpapillion3@stlukeshealth.org,1201 W Frank Ave, Lufkin,Angelina,31.337309,-94.742524,1609912800000,0,0,0,0,,0,453,0,400,,0,453,0,400,,,0,-2208880800000,,Yes,-2208880800000,-2208880800000,,,VP Venita,,vpapillion3@stlukeshealth.org,,,,832-537-2698,,,,,,26
JACKSON COUNTY HOSPITAL DISTRICT,45136331,Hospital,S,361-781-4026,tgrewe@jchd.org,1013 S Wells St, Edna,Jackson,28.970198,-96.636195,1609912800000,0,0,0,0,,0,190,0,20,,0,190,0,20,,,300,1608789600000,Director,Yes,1609221600000,1610949600000,Refrigerator,"Tier 1 Healthcare Employees
Tier 2 First Responders
Tier 3 Geriatric Population",TAMMY ZAJICEK,3612350268,tammyz@jchd.org,361-782-7853- tinas@jchd.org,," Fire Department, Police Department, EMS, Day Care Center Employees",3617827824 or 361-781-4026,TINA SCHOELLMANN,,,,,27
CHI BAYLOR ST. LUKE'S MEDICAL CENTER,4872,Hospital,Q,832-537-2698,vpapillion3@stlukeshealth.org,6720 Bertner St, Houston,Harris,29.707111,-95.399097,1609912800000,0,420,2838,0,,2000,215,0,1785,,2000,635,2838,1785,,,0,-2208880800000,,Yes,-2208880800000,-2208880800000,,,VP Venita,,vpapillion3@stlukeshealth.org,,,,832-537-2698,,,,,,28
CROSBYTON CLINIC HOSPITAL,12290,Hospital,B,806-675-2382,freda.bartlett@crosbytonclinichospital.com,710 W Main St, Crosbyton,Crosby,33.659999,-101.245714,1609653600000,0,0,0,0,,0,55,0,0,,0,55,0,0,,,100,1608789600000,Pharmacy Manager,Yes,1608876000000,1609912800000,freezer,"Patient Facing 
",Debbie Tue,806-675-8747,dtue@crosbytonclinichospital.com,806-675-2382,,,806-675-2382,Maria Garcia,,,,,29
CHI ST. LUKE'S SUGAR LAND HOSPITAL,18143,Hospital,Q,832-537-2698,vpapillion3@stlukeshealth.org,1317 Lake Pointe Pkwy, Sugar Land,Fort Bend,29.606125,-95.62143,1609912800000,0,0,0,0,,0,600,0,210,,0,600,0,210,,,1000,-2208880800000,,Yes,-2208880800000,-2208880800000,,,VP Venita,,vpapillion3@stlukeshealth.org,,,,832-537-2698,,,,,,30
CHI ST. LUKE'S THE VINTAGE,29975,Hospital,Q,832-537-2698,vpapillion3@stlukeshealth.org,20171 Chasewood Park Drive, Houston,Harris,29.991046,-95.570078,1609912800000,0,179,2529,469,,0,0,0,0,,0,179,2529,469,,,975,1609221600000,,Yes,-2208621600000,1609653600000,Ultra Low Freezer,"Medical Staff, ICU Nurses, Doctors and critical and high risk personnel.",VP Venita,832-537-2698,VPAPILLION3@STLUKESHEALTH.ORG,,,No,,,,,,,31
CHI ST. LUKE'S HEALTH BRAZOSPORT,7860,Hospital,R,832-537-2698,vpapillion3@stlukeshealth.org,100 Medical Dr, Lake Jackson,Brazoria,29.029697,-95.452427,1609912800000,0,0,0,0,,0,70,2,100,,0,70,2,100,,,500,1608789600000,,Yes,1608789600000,1610690400000,Refrigerator/Freezer,We are evaluating based on exposure risk and staff availability for vaccine receipt. ,VP Venita,,vpapillion3@stlukeshealth3.org,,,Not at this time,832-537-2698,,,,,,32
CORNERSTONE REGIONAL HOSPITAL,12411,Hospital,V,956-618-4444,rvillarreal@cornerstoneregionalhospital.com,2302 Cornerstone Blvd, Edinburg,Hidalgo,26.262851,-98.20067,1609912800000,0,0,0,0,,124,327,0,0,,124,327,0,0,,,300,1609221600000,CEO,Yes,1609221600000,1609826400000,freezers ,"Tier 1
Tier 2
tier 3",Andrew Wilson,817-881-6708,Andrew.Wilson@uhsinc.com,956-972-6420,,No,956-618-4444,Ochoa Jenna,,,,,33
CHI ST.LUKE'S HEALTH MEMORIAL-LIVINGSTON,11577,Hospital,H,832-537-2698,vpapillion3@stlukeshealth.org,1717 Hwy. 59 Bypass, Livingston,Polk,30.733278,-94.936638,1609912800000,0,0,0,0,,0,228,10,220,,0,228,10,220,,,400,1606975200000,,Yes,1609221600000,1610431200000,Ultra low frreezer,Direct contact staff,VP Venita,,vpapillion3@stlukeshealth.org,,,No,832-537-2698,,,,,,34
BAPTIST HEALTH SYSTEM-SLBH,4500581787548,Hospital,P,563-650-9555,skhansen@baptisthealthsystem.com,7930 Floyd Curl Dr, San Antonio,Bexar,29.511935,-98.576082,1609912800000,0,0,0,0,,0,0,0,0,,0,0,0,0,,,975,1608271200000,Director of Pharmacy,Yes,1608271200000,1608703200000,Freezers on hand,Frontline Staff,Michael Coston,210-627-5765,macoston@baptisthealthsystem.com,210-627-5765,,no,210-627-4654,Erica Lott,,,,,35
CHI ST JOSEPH HEALTH GRIMES HOSPITAL,11715,Hospital,N,832-537-2698,vpapillion3@stlukeshealth.org,210 S Judson St, Navasota,Grimes,30.392233,-96.07669,1609912800000,0,0,0,0,,0,0,0,80,,0,0,0,80,,,0,1609308000000,,Yes,1609308000000,1611900000000,Refrigerator,Based upon TDH guidelines,VP Venita,832-537-2698,vpapillion3@stlukeshealth.org,,,No,,,,,,,36
UNIVERSITY OF TX MEDICINE,1111695000,Doctors Office,,210-450-9100,nerios@uthscsa.edu,8300 Floyd Curl Dr,San Antonio,Bexar,29.5157508,-98.5812018,1609826400000,0,0,0,0,,0,40,0,1450,,0,40,0,1450,,,0,,,Yes,,,,,Michael Iversen,,,,,,936-633-2391,,,,,,37
CHRISTUS MOTHER FRANCES - WINNSBORO,12605,Hospital,G,903-342-3949,--,719 W Coke Rd, Winnsboro,Wood,32.946508,-95.309425,1609912800000,0,0,0,0,,0,50,0,50,,0,50,0,50,,,100,1608789600000,Manager ,Yes,1609221600000,1611900000000,freezer,healthcare workers,Jacqueline Bozick,903-606-4311,jacqueline.bozick@christushealth.org,903-342-5227,,,903-342-3949,James Tyler,,,,,38
CHI ST. LUKE'S THE WOODLANDS HOSPITAL,5706,Hospital,Q,832-537-2698,vpapillion3@stlukeshealth.org,17200 St Luke's Way, Conroe,Montgomery,30.204975,-95.460384,1609912800000,0,0,0,0,,0,878,1,430,,0,878,1,430,,,0,-2208880800000,,Yes,-2208880800000,-2208880800000,,,VP Venita,,vpapillion3@stlukeshealth.org,,,,832-537-2698,,,,,,39
KINDRED HOSPITAL - CLEAR LAKE,13081,Hospital,Q,409-789-5167,cheryl.kelly-webster@kindred.com,350 Blossom St, Webster,Harris,29.542946,-95.126941,1609740000000,0,0,0,0,,0,0,0,410,,0,0,0,410,,,500,1609221600000,Director of Pharmacy,Yes,1609308000000,1612245600000,refrigerators in pharmacy,"employees and medical staff, those in direct patient care first, followed by those support staff.",Richard Howard,832-724-4346,richard.howard@kindred.com,281-316-7885 or 281-316-7884,,no,409-789-5167,Vu Tran- Pharmacists ,,,,,40
UNIVERSITY OF TEXAS MEDICINE HILL COUNTRY,30007760,Doctors Office,,210-450-6820,nerios@uthscsa.edu,25723 Old Federicksberg Rd,Boerne,bexar,29.6839832,-98.6381457,1609826400000,0,0,0,0,,0,11,0,478,,0,11,0,478,,,0,,,Yes,,,,,,,,,,,,,,,,,41
CHI ST LUKE'S HEALTH LAKESIDE HOSPITAL,23255,Hospital,Q,832-537-2698,vpapillion3@stlukeshealth.org,17400 St. Luke's Way, The Woodlands,Montgomery,30.200185,-95.458059,1609912800000,0,0,0,0,,0,227,0,210,,0,227,0,210,,,50,1609221600000,,Yes,1609221600000,1580536800000,freezer and refrigerator,"All of our staff have been assigned a tier number 0-4, with 4 being the highest priority.",VP Venita,,vpapillion3@stlukeshealth.org,,,no,832-537-2698,,,,,,42
MEDICAL CITY - GREEN OAKS HOSPITAL,13999,Hospital,E,972-770-0830,alexis.johnson@medicalcityhealth.com,7808 Clodus Fields Dr, Dallas,Dallas,32.912847,-96.771515,1609826400000,0,0,0,0,,0,20,0,140,,0,20,0,140,,,0,-2208880800000,,Yes,-2208880800000,-2208880800000,,,Jerilyn Mitchel,972-991-9504,jerilyn.mitchell@medicalcityhealth.com,972-770-1018,,,972-770-0830,Alexis Johnson,,,,,43
CHRISTUS ST. ELIZABETH HOSPITAL,7862,Hospital,R,409-236-6918,misty.dantin@christushealth.org,2830 Calder St, Beaumont,Jefferson,30.085576,-94.131292,1609912800000,3550,5,5495,1950,,900,0,0,300,,4450,5,5495,2250,,,975,1608271200000,,Yes,1608357600000,1608789600000,Ultra cold freezer,"Front line nurses/ER/Drs, Nurses, Staff",Santosh Kalathra,409-466-8688,santosh.kalathra@christushealth.org,409-466-8688,"yes, Ortho, Jasper Memorial, Christus St Mary Outpatient",no,409-236-8528,Tommy Welch,,,,,44
BAYLOR S&W HOSPITAL - MARBLE FALLS,144718,Hospital,O,214-865-4392,marisa.valdes@bswhealth.org,810 W. Highway 71, Marble Falls,Burnet,30.56969,-98.27734,1609912800000,0,0,0,0,,700,240,0,460,,700,240,0,460,,,500,1608703200000,,Yes,1608703200000,1609999200000,Freezer,1a per CDC guidelines,Marisa Valdes,,marisa.valdes@bswhealth.org,,,Not at this time,214-865-4392,,,,,,45
KINDRED HOSPITAL - EL PASO,22515,Hospital,I,915-351-9044  ext-451  (Office),america.jones@kindred.com,1740 Curie Drive, El Paso,El Paso,31.778752,-106.477193,1609826400000,0,0,0,0,,0,0,0,60,,0,0,0,60,,,200,1608789600000,DIrector of Pharmacy,Yes,1608789600000,1610085600000,refrigerator ,"front line staff first ,
physicians",Martins Ituah,915-315-2605,martins.ituah@kindred.com,915-491-8908,,none,915-315-2605,America Jones,,,,,46
BAYLOR SCOTT WHITE MC - FRISCO,13997,Hospital,E,214-865-4392,marisa.valdes@bswhealth.org,5601 Warren Parkway, Frisco,Collin,33.105276,-96.838017,1609912800000,0,0,0,0,,0,490,0,1290,,0,490,0,1290,,,0,-2208880800000,,Yes,-2208880800000,-2208880800000,freezers,Staff and employees,Marisa Valdes,,marisa.valdes@bswhealth.org,,,,214-865-4392,,,,,,47
BAYLOR SCOTT & WHITE MC - AUSTIN,184010,Hospital,O,214-865-4392,marisa.valdes@bswhealth.org,5245 W. US 290 Service Road, Austin,Travis,30.235915,-97.835453,1609912800000,0,0,0,0,,0,0,0,800,,0,0,0,800,,,0,-2208880800000,,Yes,-2208880800000,-2208880800000,,,Marisa Valdes,,marisa.valdes@bswhealth.org,,,,214-865-4392,,,,,,48
BAYLOR ORTHO/SPINE HOSPITAL - ARLINGTON,77735,Hospital,E,469-321-9935,--,707 Highlander Blvd., Arlington,Tarrant,32.682876,-97.116861,1609912800000,0,0,0,0,,0,95,0,0,,0,95,0,0,,,0,1609221600000,,Yes,1609221600000,1609999200000,Freezer,"Primary Staff
-",Debra Weaver,Debra Weaver,deweaver@uspi.com,amullen@uspi.com,,yes 2 ambulatory care centers 10 people,817-583-7258,Anildaliz Mullen,,,,,49
ALTUS BAYTOWN HOSPITAL - Baytown Main,131120,Hospital,Q,281-222-8023,servin@altushealthsystem.com,1626 West Baker Rd, Baytown,Harris,29.772912,-94.982045,1609912800000,0,0,0,0,,0,10,0,339,,0,10,0,339,,,400,1608789600000,,Yes,,,,,Krystal Wickliff,,kwickliff@neighborshealth.com,346-324-5100,,,281-222-8023,,,,,,50
COVENANT MEDICAL CENTER,11653,Hospital,B,806-725-0611,sbiggs@covhs.org,3615 19th St, Lubbock,Lubbock,33.576963,-101.891903,1609912800000,0,342,5617,142,,0,0,0,0,,0,342,5617,142,,,100,1609221600000,Pharmacy Director,Yes,-2208880800000,-2208880800000,"Freezer, refrigerator once thawed","Risk stratified caregivers based on work location, job description, self assessment, and interest in receiving vaccine. Poor adoption by staff. Limited based on their interest",Wesley Wells,806-786-5983,wwells@covhs.org,214-663-1562,,"Pfizer within the organization, Moderna is outside",806-725-4007,Raynell Hannah,,,,,51
MEDICAL CITY - FRISCO,162460,Hospital,E,469-604-7299,Jade.Allen@medicalcityhealth.com,5500 FRISCO SQUARE BLVD, Frisco,Collin,33.150832,-96.838781,1609912800000,0,0,0,0,,0,44,0,1150,,0,44,0,1150,,,1200,1609308000000,Director of Pharmacy,Yes,1608789600000,-2208880800000,FREEZER,YES,Therese Naguib,469-269-1640,Therese.Naguib@medicalcityhealth.com,jamal.mourad@medicalcityhealth.com,,NO,469-931-9142,Jamal Mourad,,,,,52
PAMPA REGIONAL MEDICAL CENTER,12744,Hospital,A,806 663-5512,mmcmahon@primehealthcare.com,One Medical Drive, Pampa,Gray,35.571362,-100.963823,1609912800000,0,0,0,0,,0,44,0,80,,0,44,0,80,,,200,1608616800000,,Yes,1608703200000,1612245600000,Refrigerator,"COVID front line clinical staff, staggering those in same departments as best we can to avoid short staffing in the event of a reaction.  ",Twilla Thomas,,tthomas@primehealthcare.com,806-663-5601,,Contract and FEMA staff,806-665-3721,Roger Davenport,,,,,53
CENTRAL TEXAS REHAB,168927,Hospital,O,--,--,700 W 45th St, Austin,Travis,30.31232,-97.734698,1609912800000,0,0,0,0,,0,10,0,490,,0,10,0,490,,,600,1609221600000,Chief Executive Officer,Yes,1609308000000,-2208880800000,Freezer,"Tier1
Tier2
Tier3
",Anna Anderson,6823657223,anna.anderson@kindred.com,Leah.Pila@Kindred.com,,,737-207-0307,Anna Anderson ,,,,,54
ODESSA REGIONAL MEDICAL CENTER,12903,Hospital,J,432-582-8535 Emergency Department,tonya.martin@steward.org,520 E 6th St, Odessa,Ector,31.851279,-102.365241,1609912800000,0,0,0,0,,300,505,0,510,,300,505,0,510,,,500,1608789600000,Director of Pharmacy,Yes,-2208880800000,-2208880800000,,Tier program  ,Patty Pena,423-582-8059,patty.pena@steward.org,432-582-8255,,,432-582-8000,,,,,,55
ST. DAVID'S SOUTH AUSTIN MC,2806,Hospital,O,512-656-1223,jenny.burnett@stdavids.com,901 W. Ben White Blvd, Austin,Travis,30.226256,-97.774351,1609826400000,1950,2075,500,115,,500,0,0,500,,2450,2075,500,615,,,975,1608271200000,,Yes,1608444000000,1608789600000,Ultra low freezer,Staff only,Jenifer Burnett,,jennifer.burnette@healthtrustpg.com,,,No,512-656-1223,,,,,,56
CHRISTUS SPOHN KLEBERG,11500,Hospital,U,469-282-0719,justin.simon@christushealth.org,1311 East General Cavazos Boulevard, Kingsville,Kleberg,27.491449,-97.847583,1609912800000,0,0,0,0,,0,202,0,0,,0,202,0,0,,,0,1609221600000,Pharmacy Manager,Yes,1609308000000,1609999200000,Freezers,medical staff/ nursing and patients facing staff and nonessential staff and remote workers,Landon Current,361-595-9771,Landon.Current@christushealth.org,469-282-0719,,no,361-881-6361,Justin Simon,,,,,57
MEDICAL CITY HEART & SPINE,181489,Hospital,E,972-566-7114,Craig.Brein@medicalcityhealth.com,11970 North Central Expressway,Dallas,Dallas,32.912039,-96.766718,1609826400000,0,0,0,0,,0,11,0,0,,0,11,0,0,,,30,1608789600000,,Yes,1608789600000,1609826400000,Refrigerator,"Staff only
",Lan Cao,972-589-1127,Lan.Cao@medicalcityhealth.com,214-796-4907,,,972-940-8000,Thinh Tran,,,,,58
CHRISTUS SPOHN BEEVILLE,11499,Hospital,U,469-282-0719,justin.simon@christushealth.org,1500 E Houston St, Beeville,Bee,28.407991,-97.732722,1609912800000,0,0,0,0,,0,60,0,20,,0,60,0,20,,,200,1608616800000,Pharmacy Manager,Yes,1608789600000,1611468000000,Freezer, Staff priority/ county should be receiving vaccine soon for patients/ public,David Bell,361-354-2165,David.Bell@christushealth.org,469-282-0715,,no,361-354-2000,Justin Simon,,,,,59
CHRISTUS SPOHN CC-SOUTH,11497,Hospital,U,469-282-0719,justin.simon@christushealth.org,5950 Saratoga Blvd, Corpus Christi,Nueces,27.681694,-97.376132,1609912800000,0,0,0,0,,0,100,0,140,,0,100,0,140,,,800,1608616800000,,Yes,1608789600000,1610172000000,Freezers,12/16/2020 front line workers first and then follow CDC and Texas department of public heath guideline down from there,Justin Simon,361-985-5243,shelly.brown@christushealth.org,469-282-0719,,no,361-985-5000,Justin Simon,,,,,60
ENCOMPASS HEALTH REHAB KATY,181563,Hospital,Q,281-505-3544,matthew.hall2@encompasshealth.com,23331 Grand Reserve Drive, Katy,Harris,29.767641,-95.777642,1609912800000,0,0,0,0,,43,0,0,50,,43,0,0,50,,,200,1609221600000,RN,Yes,1609221600000,1609826400000,pharmacy medical grade freezer ,All frontline employees who have requested the vaccine upon receipt of shipment given the option,Jonnah Silacan,281-505-3589,Jonnah.Silacan@encompasshealth.com,tesha.mccray@encompasshealth.com-,,No,281-505-3521,Tesha McCray,,,,,61
ST. DAVID'S GEORGETOWN HOSPITAL,6287,Hospital,O,512-656-1223,jenny.burnett@stdavids.com,2000 Scenic Dr, Georgetown,Williamson,30.62656,-97.687477,1609826400000,0,0,0,0,,0,0,0,120,,0,0,0,120,,,400,1609221600000,,Yes,1609221600000,1610172000000,Ultra-low freezer,Direct contact staff and than remainder of staff.,Annette Enababor,512-762-6461,annette.enababor@healthtrustpg.com,512-762-6461,,Yes.,512-942-4273,Lori Jackson-Khalil,,,,,62
FALLS COMMUNITY HOSPITAL,13228,Hospital,M,254-803-3561 ext. 2261,tjohnson@fallshospital.com,322 Coleman Street, Marlin,Falls,31.307442,-96.894062,1609826400000,0,0,0,0,,100,100,0,0,,100,100,0,0,,,0,,,Yes,,,,,,254-803-3561,tjohnson@fallshospital.com,,,,,,,,,,63
ST. DAVID'S HEART HOSPITAL OF AUSTIN,2800,Hospital,O,512-407-7554,Wayne.goodman@hcahealthcare.com,3801 N Lamar Blvd, Austin,Travis,30.305184,-97.742877,1609912800000,0,0,0,0,,700,118,2,980,,700,118,2,980,,,0,,,Yes,,,,,Wayne Goodwin,,wayne.goodman@hcahealthcare.com,,,,512-407-7554,,,,,,64
LIMESTONE MEDICAL CENTER,12962,Hospital,M,254-729-3281,jwragge@lmchospital.com,701 McClintic Dr, Groesbeck,Limestone,31.53188,-96.529655,1609912800000,0,0,0,0,,400,30,0,370,,400,30,0,370,,,400,1609308000000,RN,Yes,-2208880800000,-2208880800000,Freezer,Tier program,Correy Tunnell,,Ctunnell@lmchospital.com,,,Yes,254-729-3281 ex2281,sdoyle@lmchospital.com,,,,,65
The Colony ER Hospital,31758,Hospital,E,214-469-2500,RKaiser@thecolonyer.com,4780 State Hwy 121,The Colony,Denton,33.0667056343828,-96.8855995577227,1609912800000,0,0,0,0,,0,0,0,40,,0,0,0,40,,,0,-2208967200000,,Yes,-2208967200000,-2208967200000,,,Russell Kaiser Chief Nursing Officer,,RKaiser@thecolonyer.com,,,,214-469-2500,,,,,,66
ICARE REHABILITATION HOSPITAL,162693,Hospital,E,214-513-0333,teresa.gall@icarehospital.com,3100 PETERS COLONY ROAD, Flower Mound,Denton,33.035319,-97.077236,1609567200000,0,0,0,0,,0,0,0,90,,0,0,0,90,,,0,-2208880800000,,Yes,-2208880800000,-2208880800000,,,Regan Chastian ,,rchastian@clearskyhealth.com,,,,469-933-2855,,,,,,67
CHILDRESS REGIONAL MEDICAL CENTER,12733,Hospital,A,940-585-9933,kschaefer@childresshospital.com,901 US Hwy 83, Childress,Childress,34.439252,-100.226895,1609912800000,0,0,0,0,,0,270,0,0,,0,270,0,0,,,200,1608789600000,,Yes,1608789600000,1609480800000,Hospital freezer until time of administration,Yes according to Texas DSHS tier list ,Kate Schaefer,,kschaefer@childresshospital.com,512-550-3525,,no,940-585-9933,Lisa Mican,,,,,68
SELECT SPECIALTY HOSPITAL - CARROLLTON,14022,Hospital,E,972-892-1002,johearn@selectmedical.com,2329 W Parker Rd, Carrollton,Dallas,33.044642,-96.862035,1609567200000,0,0,0,0,,0,0,0,220,,0,0,0,220,,,0,-2208880800000,,Yes,-2208880800000,-2208880800000,,,Flora Nguyen,,flnguyen@selectmedical.com,,,,469-892-1223,,,,,,69
MEDICAL CITY - PLANO,4417,Hospital,E,469-318-0667,gary.clouse@medicalcityhealth.com,3901 W 15th St, Plano,Collin,33.019405,-96.763816,1609826400000,0,678,8960,1070,,0,0,0,0,,0,678,8960,1070,,,2925,1608271200000,Director of Pharmacy,Yes,1608357600000,1609394400000,Freezer,tier program being followed,Dale Jones,,dale.jones@healthtrustpg.com,,No ,No,469) 282-0719,Lesley George,,,,,70
ASCENSION PROVIDENCE,12957,Hospital,M,(512)673-0954,toby.hatton@medxcel.com,6901 Medical Pkwy, Waco,Mclennan,31.513771,-97.198211,1609912800000,0,0,0,0,,0,369,1,0,,0,369,1,0,,,1106,1608357600000,Emergency Management Officer,Yes,1608357600000,1609480800000,Ultra-low freezer,Staff only,Toby Hatton,,toby.hatton@medxcel.com,512-673-0959,,No,512-324-3095,,,,,,71
SUN VALLEY REHABILITATION AND HEALTHCARE CENTER,110390,Nursing Home,V,,sharlyn@msstx.us,2902 S 77 SUNSHINE STRIP,HARLINGEN,Cameron,26.167,-97.6663,1609912800000,0,0,0,0,,0,42,0,58,,0,42,0,58,,,0,,,Yes,,,,,Asencion Maldonado,,admin@sunvalleyrehab.com,,,,956-428-2800,,,,,,72
MEDICAL CITY - MCKINNEY,4419,Hospital,E,972-540-4700,Cassidi.roberts@medicalcityhealth.com,4500 Medical Center Dr, McKinney,Collin,33.161499,-96.635446,1609826400000,0,162,196,0,,0,88,0,220,,0,250,196,220,,,975,1609221600000,Pharmacy Director,Yes,1609740000000,1609740000000,Freezer,Tier program,Dale Jones,,dale.jones@healthtrustpg.com,,No information given,No,(469) 282-0719,Angela Trickey,,,,,73
MEDICAL CITY - DENTON,4441,Hospital,E,940-384-3488,David.Bridges@MedicalCityHealth.com,3535 South I-35 E, Denton,Denton,33.175496,-97.092075,1609826400000,0,0,0,0,,0,269,6,710,,0,269,6,710,,,1300,1608616800000,Director of Pharmacy,Yes,1608616800000,1610172000000,Freezer/Refrigerator,"Tier 1A, 1B, 1C, 2, 3",Dale Jones,,dale.jones@healthtrustpg.com,940-384-3000,,No,940-384-3488,Marilyn Jackson,,,,,74
ALTUS HOUSTON HOSPITAL,185834,Hospital,Q,409-679-2720,kjenkins@altushealthsystem.com,6011 W. Sam Houston Pkwy S, Houston,Harris,29.711424,-95.556336,1609912800000,0,0,0,0,,0,40,0,440,,0,40,0,440,,,500,1609221600000,executive medical director,Yes,1609308000000,-2208880800000,refrigerator,Staff only,Brandi Bilek,8328689313,lcotton@neighborshealth.com,832-868-9313,,,409-679-2720,Eric Roberson,,,,,75
MEDICAL CITY - FORT WORTH,4437,Hospital,E,817-347-4352,steven.springer@medicalcityhealth.com,900 8th Ave, Fort Worth,Tarrant,32.735704,-97.346103,1609912800000,0,0,0,0,,0,509,0,110,,0,509,0,110,,,900,1609221600000,,Yes,1609221600000,1610172000000,freezers,Tier program,Dale Jones,,dale.jones@healthtrustpg.com,817-347-5701,,no,817-255-1875,Jessica Schillig,,,,,76
Allen Fire Department,30038741,Other,,214-509-4402,dwilliams@cityofallen.org,310 Century Pkwy,Allen,Collin,33.0991682,-96.6752143,1609912800000,0,0,0,0,,200,200,0,0,,200,200,0,0,,,200,,Chief,Yes,,,,,Danny Williams,,dwilliams@cityofallen.org,,,,214-5707-4402,,,,,,77
MOORE COUNTY HOSPITAL DISTRICT,12740,Hospital,A,806-934-7847,kgalloway@mchd.net,224 E 2nd St, Dumas,Moore,35.86417,-101.971831,1609912800000,0,0,0,0,,300,104,0,200,,300,104,0,200,,,200,1608789600000,,Yes,1609308000000,1609826400000,No fizer so no freezer needed maderna,Tier program being followed,Shelly Brown,,shelly.brown@christushealth.org, 806-935-7171 ex 22400,,Nursing home,(903) 614-2007,Kelly Galloway,,,,,78
TEXAS SCOTTISH RITE HOSPITAL,14025,Hospital,E,214-559-5000,kyle.cavin@tsrh.org,2222 Welborn Street, Dallas,Dallas,32.80172,-96.814586,1609912800000,0,125,1983,264,,0,0,0,200,,0,125,1983,464,,,0,-2208535200000,Pharmacy Director,Yes,-2208535200000,-2208535200000,Freezer,medical staff/ nursing and patients facing staff and nonessential staff and remote workers,Debbie Sayles,214) 559-7809,joette.anderson@tsrh.org,,frisco location will share with Dallas location,Frisco location is sister location,,,,,,,79
CHRISTUS SANTA ROSA HEALTHCARE-WESTOVER ,45023723,Hospital,P,214-704-9531,Justin.simon@christushealth.org,11212 TX-151,San Antonio,Bexar,29.4663,-98.69649,1609912800000,2925,948,6474,0,,700,0,0,0,,3625,948,6474,0,,,4875,1608271200000,Director of Pharmacy,Yes,1608271200000,1609480800000,Dry-Ice with replenishment plan,Tier 1 per CDC guidance,David Chan,480.747.3583,david.chan2@christushealth.org,,,no,210.703.8124,Jessica Pollack,,,,,80
HENDRICK MEDICAL CENTER BROWNWOOD,11688,Hospital,D,325-649-3438,mdwoodard@hendrickhealth.org,1501 Burnet Rd, Brownwood,Brown,31.679855,-98.993279,1609912800000,0,0,0,0,,0,0,0,10,,0,0,0,10,,,1200,1608616800000,Director of Pharmacy/Pharmacist,Yes,1608789600000,1609308000000,"Freezer and Refrigerator
NOTE:  600 of our 1200 doses were not able to be used due to a temperature excursion","per the CDC and DSHS; Phase 1A Healthcare Workers, First Tier, then on to second Tier, ect

*************************NOTE*******************************
600 OF OUR DOSES WERE WASTED DUE TO TEMPERATURE EXCURSON ON 12-21-20; WE RECEIVED A 600 DOSE REPLACEMENT ON 12-23-20 AND BEGAN VACCINATING WITHIN 2 HOURS","Avis Lynn ""Lynnie"" Jalufka",361-524-0029,ajalufka@hendrickhealth.org,,,"EMS, Fire Department, Air Vac",325-649-3442,"Jennifer Jones, RN",,,,,81
AUSTIN REGIONAL CLINIC - BUDA,30003360,Doctors Office,,737-404-0347,ljcrapps@austinregionalclinic.com,Ste 203,Kyle,Hays,29.9903263,-97.873107,1609912800000,0,0,0,0,,0,70,0,140,,0,70,0,140,,,0,1608703200000,Clinic Manager,Yes,1608703200000,1610172000000,refrigerators,"inhouse healthcare workers, contacting 1st responders and healthcare workers in our county/area",Victoria Escamilla,512-659-4756,vxperez@austinregionalclinic.com,,,yes,512-295-1615,Cecilia Tinoco,,,,,82
MISSION REGIONAL MEDICAL CENTER,11779,Hospital,V,956-323-1078,ecantu@missionrmc.org,900 S Bryan Rd, Mission,Hidalgo,26.197579,-98.312547,1609912800000,0,228,5,5,,300,0,0,0,,300,228,5,5,,,1950,1608184800000,Pharmacy Manager,Yes,1608184800000,1578463200000,Freezer at hospital,"Prime Facilities (Harlingen and Knapp Medical Centers), First Responders, EMT's, MD Offices,",Carolyne Ruto,832-524-5771,cruto@primehealthcare.com,,,"EMT, Harlingen Medical Center, Nursing Homes",956-323-1500,956-330-5101,,,,,83
Argenal Pediatrics Family Care Clinic,30010240,Doctors Office,,9567200705,KSERNA@ARGENALPEDIATRICS.COM,516 N SHARY RD,MISSION,Texas,26.2065749,-98.2858574,1609912800000,0,0,0,0,,100,40,0,0,,100,40,0,0,,,0,,,Yes,,,,,,,KSERNA@ARGENALPEDIATRICS.COM,,,,Argenal Pediatrics Family Care Clinic,,,,,,84
Las Colinas Pharmacy,25175187,Pharmacy,,9729939700,lascolrx@aol.com,6420 N MacArthur Blvd Suite 100,Irving,Dallas,32.8964772,-96.9575693,1609912800000,0,0,0,0,,100,42,0,63,,100,42,0,63,,,0,1609826400000,Pharmacy owner,Yes,1609826400000,1610344800000,Freezer,"Pharmacy employees, healthcare workers, over 65, high risk medical condition",Jim Hrncir,972-717-2500,pharmacy@lcprx.com,,,No,972-993-9700,Haley Montanaro,,,,,85
KARNES COMMUNITY HEALTH CENTER,25177441,Doctors Office,,8307803100,lhernandez.achc@tachc.org,757 S Panna Maria Ave,Karnes City,Karnes,28.8760516,-97.9009704,1609912800000,0,0,0,0,,100,10,0,90,,100,10,0,90,,,0,,,Yes,,,,,,,lhernandez.achc@tachc.org,,,,KARNES COMMUNITY HEALTH CENTER,,,,,,86
Permian Basin Community Ctr MHMR - Bridges Behavioral Health Clinic Midland,25300374,Doctors Office,,432-618-1824,pamelaridderhof@permiacare.org,401 E Illinois Ave,Midland,Midland,31.9999365,-102.0705114,1609912800000,0,0,0,0,,0,0,0,300,,0,0,0,300,,,0,1609826400000,Director of Practice Administrators,Yes,1609912800000,1613541600000,refrigerator/freezer,"essential staff, 65 years older at high risk, 18 years older with any underlying medical condition",Pamela Ridderhof,4322342292,pamelaridderhof@permiacare.org,,,"clinics, staff",Permian Basin Community Ctr MHMR - Bridges Behavioral Health Clinic Midland,Chris Barnhill,,,,,87
Hereford Health Clinic,25086821,Doctors Office,,806-364-7512,NATALIE.JIMENEZ@DSCHD.ORG,540 W 15th St,Hereford,Deaf Smith,34.8395595,-102.4138799,1609912800000,0,0,0,0,,0,40,0,140,,0,40,0,140,,,0,,,Yes,,,,,,,NATALIE.JIMENEZ@DSCHD.ORG,,,,Hereford Health Clinic,,,,,,88
TDCJ Clements Unit,1502085301,Other,,806-381-7080 Ext 8449,tammy.bowen@ttuhsc.edu,,Amarillo,Potter,35.2365403,-101.7271919,1609912800000,0,0,0,0,,0,10,0,60,,0,10,0,60,,,0,,,Yes,,,,,,,tammy.bowen@ttuhsc.edu,,,,TDCJ Clements Unit,,,,,,89
MEMORIAL HERMANN KW SPECIALTY HOSPITAL,13275,Hospital,Q,281-312-4072,dskates@uspi.com,300 Kingwood Medical Dr, Houston,Montgomery,30.047182,-95.25717,1609912800000,0,0,0,0,,0,11,0,60,,0,11,0,60,,,0,1608703200000,Director of Pharmacy,Yes,1608703200000,1610431200000,Refrigerator,Frontline staff then ancillary staff and then physicians. ,Lndy Riley,9152690589,rbinns@uspi.com,,,Yes our ambulatory surgery centers who are in our corporate network,2813124023,Rita Binns,,,,,90
MEMORIAL HERMANN PEARLAND HOSPITAL,149084,Hospital,R,832-834-0400,susannahmeg.michael@memorialhermann.org,16100 South Freeway, Pearland ,Brazoria,29.562303,-95.38854,1609826400000,0,70,330,150,,0,0,0,0,,0,70,330,150,,,1600,1608703200000,Director of Pharmacy,Yes,1608703200000,1610690400000,Freezer initially and thawed in refrigerator,"Phase 1: ED, COVID ICU, COVID Cohort, UP, Home Health, Hospice, Urgent Care, Employee Health, Pharmacy
Phase 2: Non-COVID ICU, Non-COVID Med/Surg, Clinical Outpatient
Phase 3: All other clinical areas",Maheen Khan,832-386-6060,maheen.khan@memorialhermann.org,713-413-5644,,not with this allocation,713-413-5641,Efrain Siller,,,,,91
BAYLOR SCOTT WHITE INSTITUTE REHAB - FRISCO,71615,Hospital,E,469-888-5100,lconcannon@BAYLOR SCOTT WHITErehab.com,2990 Legacy Drive, Frisco,Collin,33.103068,-96.84045,1609912800000,0,0,0,0,,0,0,0,40,,0,0,0,40,,,0,1609221600000,Director of Quality Mgmt,Yes,1609308000000,1609999200000,refrigerators,texas vaccination plan for priority levels and employee survey,Lisa Concannon,469-325-2166,lconcannon@bswrehab.com,,,healthcare workers out side of our facility,469-888-5204,,,,,,92
Deer Park Family Clinic P.A.,25137000,Doctors Office,,281-479-5941,astrahan@dpfc.org,2910 Center Street,Deer Park,Harris,29.6848316396492,-95.1235160663982,1609912800000,0,0,0,0,,100,40,0,60,,100,40,0,60,,,0,,,Yes,,,,,,,,,,,,,,,,,93
Lees Pharmacy North,1502129025,Pharmacy,,9566305500,Roelrdzjr@gmail.com,10th,Mcallen,Hidalgo,26.249379,-98.2217409,1609912800000,0,0,0,0,,22,0,0,23,,22,0,0,23,,,0,,,Yes,,,,,,,Roelrdzjr@gmail.com,,,,Lees Pharmacy North,,,,,,94
ARISE AUSTIN MEDICAL CENTER,7298,Hospital,O,512-587-9459,jpiefer@arisemedicalcenter.com,3003 Bee Caves Rd, Austin,Travis,30.271152,-97.793827,1609912800000,0,0,0,0,,0,10,0,140,,0,10,0,140,,,0,,,Yes,,,,,,,,,,,,,,,,,95
Texarkana Bowie County Family Health Center,25016241,Other,,903-798-3250 ,Sherri.Warren@txkusa.org,W 12th St,Texarkana,Bowie ,33.4294187,-94.0526597,1609912800000,0,0,0,0,,100,0,0,100,,100,0,0,100,,,0,,,Yes,,,,,,,Sherri.Warren@txkusa.org,,,,Texarkana Bowie County Family Health Center,,,,,,96
Christus Trinity Clinic Kilgore,25087698,Other,,903-983-2110,jennifer.beal@christushealth.org,1718,Kilgore,Gregg,32.3742774688627,-94.8691431294373,1609912800000,0,0,0,0,,0,20,0,80,,0,20,0,80,,,0,1608703200000,Practice Manager,Yes,1609826400000,1610085600000,inside clinic in refrigerator,healthcare workers then ages 65+,Amy Gillman,903-261-1999,amy.gillman@christushealth.org,,,no,903-315-4888,Wendy Wilkerson,,,,,97
HEART OF TEXAS HEALTH CARE SYSTEM,14550,Hospital,K,325-792-3946,csloss@bradyhospital.com,2008 Nine Rd, Brady,Mcculloch,31.116524,-99.346407,1609912800000,0,0,0,0,,400,0,0,200,,400,0,0,200,,,0,,,Yes,,,,,,,,,,,,,,,,,98
Texoma Cancer Center,25242844,Infusion Center,,9406892632,sandra.michael@usoncology.com,Kell West Boulevard,Wichita Falls,Wichita ,33.8729645,-98.5789267,1609912800000,0,0,0,0,,110,11,0,99,,110,11,0,99,,,0,,,Yes,,,,,,,sandra.michael@usoncology.com,,,,Texoma Cancer Center,,,,,,99
Parker County Hospital District ,25202353,Other,,8173668595,lisa.franklin@pchdtx.org,1130 Pecan Dr,Weatherford,Parker,32.7459072,-97.7850128,1609912800000,0,0,0,0,,0,188,0,230,,0,188,0,230,,,0,,,Yes,,,,,,,lisa.franklin@pchdtx.org,,,,Parker County Hospital District ,,,,,,100
Kelsey-Seybold - Webster,25134504,Doctors Office,,7134424300,Cynthia.Medwedeff-Blake@kelsey-seybold.com,1010 S Ponds Dr,Webster,Harris,29.5467028485366,-95.1451053261503,1609912800000,0,0,0,0,,0,41,0,240,,0,41,0,240,,,0,1608703200000,RN Nurse Supervisor,Yes,1608703200000,1610690400000,Refrigerator,Yes,Stacie Austin,409-256-6853,stacie.austin@kelsey-seybold.com,,,No,713-442-4513,Amber Mauro,,,,,101
Texas Behavioral Health,1502145008,Doctors Office,,832-371-7939,anum@trusensetherapy.com,whispering pines,Friendswood,Galveston,29.5201675871017,-95.189587164293,1609826400000,0,0,0,0,,1000,77,0,33,,1000,77,0,33,,,500,1608703200000,Primary Vaccine Coordinator,Yes,1609135200000,1610344800000,Freezer (-25 C) AND (-15 C),"everyone in our community ,1A tier 1, tier 2, and 1B.",ANUM WAQAR,832-371-7939,anum@trusensetherapy.com,,,not at this time,832-371-7939,832-517-0655,,,,,102
RUSK STATE HOSPITAL,21915,State Hospital,G,903-683-3421,michelle.foster@hhs.texas.gov,805 N. Dickinson, Rusk,Cherokee,31.801971,-95.147749,1609912800000,0,0,0,0,,0,10,2,750,,0,10,2,750,,,400,1608703200000,CNE,Yes,1608789600000,1612072800000,refrigerators,All Staff,"Chanda, Perry",903-683-7221,Chanda.Perry@hhs.texas.gov,,,No,903-683-7830,Crystal Larimer,,,,,103
TEXAS ONCOLOGY WILLOWBROOK,25204112,Other,,8329964030,QUINCY.BING@USONCOLOGY.COM,DOTSON RD,HOUSTON,HARRIS,29.9674173,-95.5530743,1609912800000,0,0,0,0,,100,0,0,100,,100,0,0,100,,,0,,,Yes,,,,,,,QUINCY.BING@USONCOLOGY.COM,,,,TEXAS ONCOLOGY WILLOWBROOK,,,,,,104
Hillside Family Health Clinic,25067492,Doctors Office,,8063734010,jschmitkons@healthchoicemd.com,7130 Bell St,Amarillo,Randall,35.1342698,-101.9024951,1609912800000,0,0,0,0,,10,70,0,40,,10,70,0,40,,,0,,,Yes,,,,,,,jschmitkons@healthchoicemd.com,,,,Hillside Family Health Clinic,,,,,,105
Monahans Pharmacy Inc.,30015820,Pharmacy,,4329434212,monahansrx@gmail.com,801 E 4th St,Monahans,Ward,31.5943036,-102.8844283,1609912800000,0,0,0,0,,100,40,0,60,,100,40,0,60,,,0,,,Yes,,,,,,,monahansrx@gmail.com,,,,Monahans Pharmacy Inc.,,,,,,106
Cleburne Fire Department,25208234,Other,,8176593371,cory.white@cleburne.net,114 W. Wardville Dr.,Cleburne,TX,32.348150891414,-97.3876399348432,1609912800000,0,0,0,0,,0,76,0,0,,0,76,0,0,,,0,1608703200000,EMS Chief,Yes,1608703200000,1609826400000,refrigerator,Phase 1a first and then phase 1b ,Cory White,8176593371,cory.white@cleburne.net,,,No,8176593371,cory.white@cleburne.net,,,,,107
HA Grand MD PA,25203830,Doctors Office,,214-824-2121,harrellgrandmd@gmail.com,3801 Gaston Ave,Dallas,Dallas,32.7924372,-96.7794216,1609912800000,0,0,0,0,,100,10,0,90,,100,10,0,90,,,0,,,Yes,,,,,,,harrellgrandmd@gmail.com,,,,HA Grand MD PA,,,,,,108
Your Family Healthcare,25314269,Doctors Office,,,4093169085,14310 Hwy 6,Santa Fe,Galveston,29.3833311,-95.1191654,1609912800000,0,0,0,0,,100,100,0,0,,100,100,0,0,,,0,,,Yes,,,,,,,4093169085,,,,Your Family Healthcare,,,,,,109
Immunize El Paso - Eastside,1111729000,Other,,(915)5392900,ivela@immunizeelpaso.org,george dieter suite 103,El Paso,Texas,31.7490810164013,-106.301712489827,1609826400000,0,0,0,0,,256,256,0,0,,256,256,0,0,,,0,-2208967200000,,Yes,-2208967200000,-2208967200000,,,Ivan Vela ,,,,,,915-539-2900,,,,,,110
Internal Medicine Associates Of Houston,30034681,Doctors Office,,713-436-4566,cvemula@internalmedhouston.com,Shadow Creek Pkwy,Pearland,TX,29.5772850185527,-95.3887039680913,1609912800000,0,0,0,0,,200,99,0,120,,200,99,0,120,,,200,-2208967200000,,Yes,-2208967200000,-2208967200000,,,Chandia,,cvemula@internalmedhouston.com,,,,713-436-4566,,,,,,111
Houston Pulmonary Medicine,25175791,Doctors Office,,281-484-9369,Mia_q@houstonpulmonary.com,"11920 Astoria Blvd, Suite 320",Houston,Harris,29.5837614,-95.2060551,1609912800000,0,0,0,0,,0,53,0,119,,0,53,0,119,,,0,,,Yes,,,,,Mia,281-484-9369,mia_q@houstonpulmonary.com,,,,,,,,,,112
Md Progressive Care,1502106051,Doctors Office,,214-521-0100,marti@mdprogressivecare.com,3500 Oak Lawn Ave,Dallas,Texas,32.812246141402,-96.8052066288911,1609912800000,0,0,0,0,,0,20,0,50,,0,20,0,50,,,0,-2208967200000,,Yes,-2208967200000,-2208967200000,,,Marti Ramos,214-521-0100,marti@mdprogressivecare.com,,,,,,,,,,113
Medina Lake Clinic,25111574,Doctors Office,,830 751-3330,drk@medinalakeclinic.com,Laurel Vista Dr.,Lakehills,Bandera County,29.6081873,-98.9293547,1609912800000,0,0,0,0,,0,0,0,50,,0,0,0,50,,,0,1608703200000,Physician/PRESIDENT,Yes,1609308000000,1610085600000,refrigerator/freezer,"Healthcare workers, Texans aged 65+ and people with chronic medical conditions that place them at greater risk.","Shelley Kohlleppel, MD",210 387-3371,referral@medinalakeclinic.com,,,Bandera County First Responders,830-751-3330,Kassidy Bradley,,,,,114
Family Medicine Associates of El Paso,30026900,Doctors Office,,9155941033,Benjamin.a.gonzalez@gmail.com,9398 Viscount Blvd,El Paso,El Paso,31.769292,-106.364485,1609826400000,0,0,0,0,,0,0,0,200,,0,0,0,200,,,0,,,Yes,,,,,Lidia Mora,,lmora@fma-elpaso.com,,,,915-594-1033,,,,,,115
Farmers Branch Fire Department ,25204652,Other,,9729192647,shannon.langford@farmersbranchtx.gov,13333 Hutton Dr,Farmers Branch,Dallas,32.9232971,-96.9132829,1609912800000,0,0,0,0,,0,10,0,50,,0,10,0,50,,,0,,,Yes,,,,,Shannan Langford,,,,,,972-919-2640,,,,,,116
Shurmed EMS LLC,1502142201,Other,,210-432-8800,pkosko@shurmed.com,1535 Brady Blvd,San Antonio,Bexar,29.4057858,-98.5542017,1609912800000,0,0,0,0,,2300,1300,0,1000,,2300,1300,0,1000,,,0,1608703200000,director clinical operations,Yes,1609394400000,1611295200000,freezer,tier 1a and 1b starting with our contract long-term care facilities,Marty Contreras,2103856168,mcontreras@shurmed.com,,,yes nursing homes first responders hospital staff,2104161314,donovan fogt,,,,,117
Arthur S Hernandez Md,25207420,Doctors Office,,2102477068,Tammy@southwestpainclinic.com,88 Briggs St,San Antonio,Texas,29.3549824875569,-98.5491439786503,1609912800000,0,0,0,0,,100,20,0,80,,100,20,0,80,,,0,1609826400000,M.D.,Yes,1609826400000,1610517600000,refrigerator,group 1A and 1B ,Arthur S. Hernandez,2102477068,tammy@southwestpainclinic.com,,,other medical providers in our building,2109239333,"Tammy Hernandez, R.N.",,,,,118
HEMPHILL COUNTY HOSPITAL,12738,Hospital,A,806-323-6422,christy@hchdst.org,1020 S 4th St, Canadian,Hemphill,35.902874,-100.387404,1609912800000,0,0,0,0,,200,230,0,0,,200,230,0,0,,,200,1609135200000,,Yes,1609221600000,1609826400000,Stored in a Freezer.,Prioritization is based on CDC and State of Texas guidelines. ,Rich Henkel,806-323-6422,rhenkel@hchdst.org,806-323-6422,,"EMS, Education staff, Daycare, Fire Department, Postal Workers, and other front lines workers. ",806-323-9706,Denise Kidd,,,,,119
POST ACUTE MEDICAL HOSP CC NORTH,144931,Hospital,U,--,hbernal@postacutecorpuschristi.com,600 Elizabeth Dr, Corpus Christi,Nueces,27.778251,-97.394844,1609912800000,0,0,0,0,,100,60,0,40,,100,60,0,40,,,0,-2208621600000,,,-2208621600000,-2208621600000,,,,,,,,,,,,,,,120
SOLARA HOSPITAL MCALLEN,148710,Hospital,V,956-971-5854,marilene.balotro@chghospitals.com,301 W. Expwy 83 (8th Floor East Wing), McAllen,Hidalgo,26.264016,-98.200725,1609567200000,0,0,0,0,,0,0,0,100,,0,0,0,100,,,20,1609308000000,Pharmacy Tech,Yes,1609394400000,-2208880800000,medication Freezers wrapped in ice.,CDC Guidelines,Cathy Rademacher,956-632-4822,crademacher@chghospitals.com,956-632-4822,,No,(956) 632-4880,Pamala Gobina,,,,,121
BALLINGER MEMORIAL HOSPITAL,14542,Hospital,K,325-365-2531,beckye@bmhd.org,608 Avenue B, Ballinger,Runnels,31.750197,-99.962042,1609912800000,0,0,0,0,,0,231,0,0,,0,231,0,0,,,0,-2208880800000,,Yes,1608789600000,1609567200000,,"Health care workers and first responders, Essential",,,,,,,,,,,,,122
WACO CENTER FOR YOUTH,16289,Hospital,M,254.745.5317,michael.hill2@dshs.state.tx.us,3501 N 19th St, Waco,Mclennan,31.579464,-97.168605,1609912800000,0,0,0,0,,300,113,15,172,,300,113,15,172,,,0,1609221600000,Center Nursing ,Yes,1609221600000,-2208880800000,Clinic Refrigerator,"Direct care staff first, all other staff, daily onsite contractors",Gregory Brigman,254-745-5113,gregory.brigman@hhs.texas.gov,254-745-5319,,N/A,254-756-2171,Laurie Peterson,,,,,123
BAYLOR SW MEDICAL CENTER-TEMPLE,16292,Hospital,L,214-865-4392,marisa.valdes@bswhealth.org,2401 S 31st St, Temple,Bell,31.077898,-97.363589,1609912800000,0,464,2530,1060,,0,0,0,0,,0,464,2530,1060,,,975,1608703200000,Pharmacy Director,Yes,1608098400000,1609999200000,Ultra cold freezer,1a group as directed by the state.,Sarah Westbrook,254-624-5959,sarah.westbrook@bswhealth.org,254-724-2098 c:254-760-4055,,Not at this time.,254-724-0130,Director David Jones,,,,,124
HAMILTON GENERAL HOSPITAL,16295,Hospital,L,254-386-1556,dmartin@hamiltonhospital.org,400 N Brown St, Hamilton,Hamilton,31.703861,-98.113458,1609912800000,0,0,0,0,,400,340,0,60,,400,340,0,60,,,0,-2208880800000,Vaccine Coordinator,Yes,1609221600000,1609999200000,Fridge,Tier 1,Kim Edwards,,kedwards@hamiltonhospital.org,,,Satalite Facilies,254-386-1554,,,,,,125
CHST CHILDREN'S MEDICAL CENTER - PLANO,17141,Hospital,E,214-213-0818,dana.derossett@childrens.com,7601 Preston Rd, Plano,Collin,33.080029,-96.798389,1609912800000,0,0,0,0,,0,865,8,440,,0,865,8,440,,,200,1609308000000,Pharmacy Director,Yes,1608789600000,1610258400000,refrigerators,yes by tiers of healthcare providers,Terrance Crooks,469-243-8909,terrance.crooks@childrens.com,,,No,,Jill Ellis,,,,,126
THOP - EAST CAMPUS,17202,Hospital,I,915-832-2103,enrique.sotoruiz@tenethealth.com,3280 Joe Battle Blvd, El Paso,El Paso,31.791995,-106.267632,1609912800000,0,0,0,0,,0,0,0,0,,0,0,0,0,,,975,1608271200000,Director of Pharmacy ,Yes,1608271200000,1608616800000,Pfizer : In Thermal Shipper and Refrigerator ,Front line Healthcare Workers,"Enrique Soto, Manager",,enrique.sotoruiz@tenethealth.com,,,,915-832-2103,,,,,,127
BIG SPRING STATE HOSPITAL,17740,State Hospital,B,432-268-7222,traci.phillips@hhs.texas.gov,1901 North Highway 87, Big Spring,Howard,32.26958,-101.4945,1609912800000,0,0,0,0,,0,40,0,320,,0,40,0,320,,,0,-2208880800000,,Yes,-2208880800000,-2208880800000,Freezer at hospital,"Front Line, hospital staff",Stormy Ward,432-268-7616,Stormy.Ward@hhs.texas.gov,432-268-7531,,,432-267-8216,Lindsay Jaques,,,,,128
CEDAR PARK REGIONAL MEDICAL CENTER,17838,Hospital,O,512-656-1223,Matthew_Berry@cedarparkregional.com,1401 Medical Pkwy, Cedar Park,Williamson,30.531271,-97.811601,1609912800000,0,0,0,0,,900,610,0,430,,900,610,0,430,,,900,1609308000000,Director of Pharmacy,Yes,1609308000000,1610431200000,Ultra-low freezer,"Frontline staff, than regular staff.",Carlon King,512-528-7081,carlon_king@cedarparkregional.com,512-528-7095,,Yes,512-528-7080,Edward Rodriguez,,,,,129
SOLARA HOSPITAL BROWNSVILLE,18131,Hospital,V,956-574-5748,ncaldwell@chghospitals.com,333 Lorenaly Dr, Brownsville,Cameron,25.972131,-97.512543,1609740000000,0,0,0,0,,0,0,0,100,,0,0,0,100,,,0,1609308000000,Director of Pharmacy,Yes,1609912800000,1610431200000,Standard Freezer,Group 1A Health care employees,Melinda Arzamendi,(956) 574-5718,marzamendi@chghospitals.com,(956) 546-0808,,No,(956) 574-5715,Noe Hernandez,,,,,130
NORTH TEXAS STATE HOSPITAL,18168,State Hospital,C,940-692-1220,tim.beaman@dshs.state.tx.us,6515 Kemp Blvd., Wichita Falls,Wichita,33.841568,-98.529219,1609221600000,375,0,375,375,,0,0,0,0,,375,0,375,375,,,975,1608444000000,Medical Director,Yes,1608530400000,-2208708000000,Will be stored in original packaging and be cooled with Dry Ice.,"Yes, Health Care workers will be the main focus for the Vaccine first.",Hakeem,,,,,,940-692-1220,,,,,,131
BAYLOR SCOTT &WHITE MED CENTER-SUNNYVALE,28855,Hospital,E,972-892-3970,--,231 South Collins, Sunnyvale,Dallas,32.77918,-96.568714,1609740000000,0,0,0,0,,0,16,0,170,,0,16,0,170,,,100,1609308000000,Director of Pharmacy,Yes,1608789600000,-2208880800000,same as before,same as before,Walter G. Lloyd,972-892-6236,wlloyd@uspi.com,972-892-4409,,other USPI surgical centers and Urgent Cares,972-892-6236 ,Mustafa Sardini,,,,,132
BAYLOR SCOTT WHITE MC - MCKINNEY,69555,Hospital,E,469-764-6738,cory.sockwell@BAYLOR SCOTT WHITEhealth.org,5252 W. University Drive, McKinney,Collin,33.221069,-96.682561,1609912800000,0,0,0,0,,0,85,0,0,,0,85,0,0,,,0,-2208880800000,,Yes,-2208880800000,-2208880800000,,,Shane Trickey,,shane.trickey@bswhealth.org,254-724-2098,,,469-764-4600,David Jones,,,,,133
MEMORIAL HERMANN SURGICAL FIRST COLONY,82795,Hospital,Q,713-859-5233,eclark@uspi.com,16906 Southwest Freeway , Sugar Land,Fort Bend,29.588753,-95.635217,1609912800000,0,0,0,0,,0,300,0,240,,0,300,0,240,,,0,-2208880800000,vaccine coordinator,Yes,-2208880800000,-2208880800000,,,Miranda Hanson,,mhanson@uspi.com,,,,281-243-1050,,,,,,134
DIMMIT REGIONAL HOSP - CARRIZO SPRINGS,26,Hospital,P,830-876-2424 x 208,amgonzales_rn@yahoo.com,704 Hospital Dr, Carrizo Springs,Dimmit,28.519909,-99.862109,1609912800000,0,0,0,0,,200,69,0,80,,200,69,0,80,,,0,-2208880800000,,Yes,-2208880800000,-2208880800000,,,,,,,,,,,,,,,135
MEDINA REGIONAL- HONDO,47,Hospital,P,830-426-7780,gchernak@medinahospital.net,3100 Avenue E, Hondo,Medina,29.33523,-99.133416,1609826400000,0,0,0,0,,0,46,0,170,,0,46,0,170,,,0,-2208880800000,,Yes,-2208880800000,-2208880800000,,,,,,,,,,,,,,,136
LAREDO MED CENTER,92557,Hospital,T,956-796-4810,LaredoTX_BedControl_staff@grp.chs.net,1700 E. Saunders, Laredo,Webb,27.532485,-99.478077,1609826400000,0,384,4620,480,,0,0,0,0,,0,384,4620,480,,,975,1608703200000,Quality Management Director,Yes,1608271200000,1610776800000,Ultra-cold storage.,"Staff, physicians, and medical residents.",Erika Cavazos-Juarez,956-231-8926,adelita_ghazy@chs.net,956-231-8926,No,No,956-796-3197,Adelita Ghazy,,,,,137
THOP - MEMORIAL CAMPUS,6092,Hospital,I,915-577-8947  AOD,mark1.phillips@tenethealth.com,2001 N Oregon St, El Paso,El Paso,31.771367,-106.499505,1609912800000,0,0,0,0,,300,363,0,500,,300,363,0,500,,,0,-2208621600000,,Yes,-2208621600000,-2208621600000,,,Al Dominguez,,al.dominguez@tenethealth.com,,,,(915) 549-0341,,,,,,138
CUERO REGIONAL HOSPITAL,4505971869641,Hospital,S,361-275-6191; 2713,rebeccam@cuerohospital.org,2550 N Esplanade St, Cuero,Dewitt,29.110122,-97.282417,1609912800000,0,0,0,0,,0,266,0,0,,0,266,0,0,,,200,1608789600000,RN-Infection Prevention Manager,Yes,1609221600000,-2208880800000,freezer/refrigerator,via state tier system,Keisha Whitman,361-649-0837,keishaw@cuerohospital.org,361-275-6191,,not at this time,361-275-6191,Lisa Chavez,,,,,139
KELL WEST REGIONAL HOSPITAL,6326,Hospital,C,940-235-9145,tstagg@kellwesthospital.com,5420 Kell Blvd, Wichita Falls,Wichita,33.872381,-98.578318,1609912800000,0,0,0,0,,0,84,0,115,,0,84,0,115,,,300,1609221600000,Pharmacy Director,Yes,-2208880800000,-2208880800000,freezer and refrigerator,"Based on State Recommendations of Tiers, starting with Tier 1",Tanya Rhodes,940-631-8523,tanya.rhodes@kellwest.com,9406925888,,,940-692-5888,Jerry Myers,,,,,140
TEXOMA MEDICAL CENTER BONHAM,6840,Hospital,E,903-249-2496,Amy.Norwood@thcs.org,504 Lipscomb St, Bonham,Fannin,33.578086,-96.166956,1609912800000,0,0,0,0,,0,175,0,180,,0,175,0,180,,,0,-2208880800000,,Yes,-2208880800000,-2208880800000,,,,,,,,,,,,,,,141
HARDEMAN COUNTY MEMORIAL HOSP,6868,Hospital,C,950-674-5511,Dennis.Thomas@hcmhosp.com,402 Mercer St, Quanah,Hardeman,34.295943,-99.741275,1609912800000,0,0,0,0,,0,22,0,0,,0,22,0,0,,,100,1608789600000,LVN,Yes,1608876000000,1609480800000,FREEZER TO FRIGERATOR,"1ST LINE WORKERS AT HOSPITAL THEN EMS, HELEN FARABEE, LAW ENFORCEMENT THEN FINISHING WITH TEACHERS",Cathi Laughery,940-663-2795,CATHI.LAUGHERY@HCMHOSP.COM,940-663-6651,,"EMS, LAW ENFORCEMENT, FIRE DEPARTMENT,  TEACHERS, HELEN FARABEE",,Ashley Oneal,,,,,142
AUSTIN STATE HOSPITAL,7291,State Hospital,O,512-419-2077,laura.gehrig@hhs.tx.gov,4110 Guadalupe St, Austin,Travis,30.307524,-97.735096,1609912800000,0,123,220,220,,0,0,0,0,,0,123,220,220,,,0,1608271200000,Administrator,Yes,1608271200000,1609999200000,Trailer with Dry Ice,"Staff, then Direct patients, then non direct patients",Regina Thompson,512-550-3525,regina.thompson@hhs.texas.gov,,"No, but if they have left over units after the first round, they will eval then",Internal only at this time,,Dr. Lisa Mican,,,,,143
CHRISTUS ST. MICHAEL HOSPITAL,7969,Hospital,F,469-282-0719,justin.simon@christushealth.org,2600 St Michael Dr, Texarkana,Bowie,33.464062,-94.075155,1609912800000,1950,0,5360,975,,0,0,0,600,,1950,0,5360,1575,,,0,-2208535200000,,Yes,-2208535200000,-2208535200000,Freezers,12/16/2020 front line workers first and then follow CDC and Texas department of public heath guideline down from there,Justin Simon,(903) 614-2007,shelly.brown@christushealth.org,830-608-5170,12/16/2020 health care and urgent care if doses allow,No,,Dustin Tysdale,,,,,144
CHRISTUS ST. MICHAEL - ATLANTA,7970,Hospital,F,903-799-3009,heather.biddy@christushealth.org,1007 S William St, Atlanta,Cass,33.098301,-94.136267,1609912800000,0,576,975,0,,0,10,0,0,,0,586,975,0,,,0,-2208880800000,Tysdal,Yes,-2208880800000,-2208880800000,,,Dustyn,903-614-2928,Dustyn.Tysdal@christushealth.org,469-282-0719,,,903-799-3000,Justin Simon,,,,,145
TITUS REGIONAL MEDICAL CENTER,7972,Hospital,F,903-577-6000,kathy.griffis@titusregional.com,2001 N. Jefferson Ave., Mount Pleasant,Titus,33.175401,-94.970434,1609912800000,0,0,0,0,,0,209,1,0,,0,209,1,0,,,700,1608616800000,Director of Pharmacy..,Yes,1608616800000,1609826400000,Freezer and refrigerator ,"hospital employees, first responders",Ruth Sabacky Anderson ,903-573-5381,Myrna.Shapiro@kelsey-seybold.com,713-442-3209,,no,903-577-6395,Dana Drummand,,,,,146
CHRISTUS MOTHER FRANCES SULPHUR SPRINGS,7974,Hospital,F,903-495-5587,beth.stone@christushealth.org,115 Airport Rd, Sulphur Springs,Hopkins,33.157835,-95.59998,1609912800000,0,0,0,0,,200,350,0,250,,200,350,0,250,,,0,-2208880800000,Pharmacy Manager,Yes,-2208880800000,-2208880800000,Freezer,CDC and state guidance,Justin Simon,469-282-0719,justin.simon@christushealth.org,,,No,903-439-4091,Edward Vaughn,,,,,147
WILBARGER GENERAL HOSPITAL,7976,Hospital,C,940-552-9351,estatuto@wghospital.com,920 Hillcrest Dr, Vernon,Wilbarger,34.158455,-99.31293,1609912800000,0,0,0,0,,0,99,0,70,,0,99,0,70,,,200,1609308000000,Emergency Response Coordinator,Yes,1609394400000,1578376800000,Refrigerator ,Tier 1,Ernest Statuto,940 553-2883,estatuto@wghospital.com,,,No,940-552-9351,,,,,,148
NORTH TEXAS MEDICAL CENTER,4442,Hospital,E,940-736-9727,carrie.zbierski@ntmconline.net,1900 Hospital Boulevard, Gainesville,Cooke,33.64635,-97.162056,1609912800000,0,0,0,0,,600,83,0,260,,600,83,0,260,,,975,-2208880800000,Medical Director,Yes,-2208880800000,-2208880800000,,,Tyson Chapman,940-612-8740,,Tyson Chapman,,,940-612-8740,,,,,,149
MEDICAL CITY - LEWISVILLE,4444,Hospital,E,4693702872,nathan.fowlkes@medicalcityhealth.com,500 W Main St, Lewisville,Denton,33.04632,-97.004197,1609826400000,0,1,0,0,,400,315,0,410,,400,316,0,410,,,600,1608789600000,Director of Pharmacy,Yes,1608789600000,1609394400000,Freezer,Healthcare and Frontline workers,Lawrence Bender,469-370-2900,lawrence.bender@medicalcityhealth.com,469-370-2900,,NO,469-370-2900,Coral Iserhienhien,,,,,150
TEXOMA MEDICAL CENTER,4447,Hospital,E,903-416-4113,dglenn@thcs.org,5016 S HWY 75, Denison,Grayson,33.712881,-96.584888,1609912800000,2925,335,22350,4905,,700,0,0,0,,3625,335,22350,4905,,,1675,1608271200000,,Yes,1608271200000,-2208880800000,Freezer/Refrigerator,Healthcare workers and then community,Donna Glenn,903-416-4113,dglenn@thcs.org,,,We are planning with Grayson County for Level 1 A and B,,,,,,,151
HCA HOUSTON HEALTHCARE NORTHWEST,4861,Hospital,Q,281-440-2436,SHARON.IKELER@HCAHEALTHCARE.COM,710 Cypress Creek Pkwy, Houston,Harris,30.019351,-95.441022,1609912800000,0,0,0,0,,1100,391,1,710,,1100,391,1,710,,,0,1608444000000,Pharmacy Director,Yes,1608530400000,1608789600000,freezers,Staff and employees,Marshall Steglich,281-467-8282,marshall.steglich@healthtrustpg.com,,yes,No,,Almeta West  281-397-2718,,,,,152
LBJ GENERAL,4835,Hospital,Q,713-566-5055,future.johns@harrishealth.org,5656 Kelley St, Houston,Harris,29.811976,-95.311589,1609912800000,0,40,2725,25,,0,220,0,980,,0,260,2725,1005,,,0,-2208535200000,Director of Nursing Occupational Health Services,Yes,-2208535200000,-2208535200000,,,Donna McKee,,donna.mckee@aol.com,,,,,,,,,,153
TEXAS HEALTH RESOURCES - HUGULEY (HUGULEY MEMORIAL MEDICAL),4432,Hospital,E,817-551-2466,sterling.warren@ahss.org,11801 South Freeway, Burleson,Tarrant,32.58651,-97.31905,1609912800000,0,25,0,0,,30,80,0,390,,30,105,0,390,,,0,-2208621600000,Director of Pharmacy,Yes,-2208621600000,-2208621600000,"Ultra-Cold capable of around 140,000 doses",We have a compiled list of 1a and 1b frontline healthcare providers.  We also have categorized all 4400 employees who are eligible for the vaccine.,"James Hall, PharmD",323-839-4018,james.hall@adventhealth.com,817-293-6071,No,No,,"Mary Lewis, PharmD",,,,,154
Texas Health Resources Infusion Pharmacy ,4422,Hospital,E,,RandellBall@texashealth.org,1100 Bridgewood Drive, Fort Worth,Tarrant,32.73736,-97.33914,1609826400000,6825,3272,22078,0,,100,0,0,0,,6925,3272,22078,0,,,0,-2208880800000,,,-2208880800000,-2208880800000,,,,,,,,,,,,,,,155
JPS,4423,Hospital,E,817-702-7829,EmergencyManagement@jpshealth.org,1575 S Main St, Fort Worth,Tarrant,32.727343,-97.326396,1609740000000,0,0,458,458,,0,49,1,458,,0,49,459,916,,,0,-2208880800000,,Yes,-2208880800000,-2208880800000,,,,,,,,,,,,,,,156
MEDICAL CITY - LAS COLINAS,4398,Hospital,E,972-969-2904,jeremy.rountree@hcahealthcare.com,6800 N MacArthur Blvd, Irving,Dallas,32.902738,-96.958671,1609912800000,0,0,0,0,,0,204,0,386,,0,204,0,386,,,700,1608789600000,,Yes,1608789600000,1610258400000,freezer and refrigerators,the facility has been tiered into groups by our division offices,Bob Bolton,972-969-2160,bob.bolton@medicalcityhealth.com,,,,972-969-2000,Nilambari Naik,,,,,157
DALLAS REGIONAL MEDICAL CENTER,4400,Hospital,E,512-635-3637,lfox1@primehealthcare.com,1011 N Galloway Ave, Mesquite,Dallas,32.778343,-96.599944,1609912800000,0,0,60,0,,0,134,0,534,,0,134,60,534,,,800,1609221600000,Director of Pharmany,Yes,1609221600000,1613455200000,Ultra cold freezer,"Healthcare workers in direct contact with COVID patients are being offered the vaccine first.  Other healthcare workers are then offered the vaccine when there is a partial vial of vaccine left, so that doses are not wasted.",Shanti Lee,972-998-2480,slee20@primehealthcare.com,214-319-4053,,No,214-320-7040,Melanie Milligan,,,,,158
DALLAS MEDICAL CENTER,4408,Hospital,E,214-766-9451,daldana@primehealthcare.com,7 Medical Pkwy, Farmers Branch,Dallas,32.915203,-96.872744,1608616800000,0,0,0,0,,400,340,0,31,,400,340,0,31,,,200,-2208967200000,,Yes,-2208967200000,-2208967200000,Freezer,Healthcare and Frontline workers,Gabriel Guinxe,972-888-7042,ggabriel1@primehealthcare.com,972-881-1500,,NO,972-888-7040,Marylin Hines,,,,,159
BAYLOR SCOTT WHITE MC - WAXAHACHIE,4410,Hospital,E,469-843-5070,Christina.Murphy@BAYLOR SCOTT WHITEhealth.org,2400 N. I-35E, Waxahachie,Ellis,32.427492,-96.858478,1609912800000,0,0,0,0,,0,20,0,70,,0,20,0,70,,,0,-2208880800000,,Yes,-2208880800000,-2208880800000,,,Lloyd Thurman,469-843-4161,Lloyd.Thurman@BSWHealth.org,469-843-4161,,,469-843-4000,Brent Ottarski,,,,,160
BAYLOR SCOTT WHITE MC - LAKE POINTE,4415,Hospital,E,972-520-8198,cory.sockwell@bswhealth.org,6800 Scenic Dr, Rowlett,Rockwall,32.920915,-96.50953,1609912800000,0,0,0,0,,0,140,0,370,,0,140,0,370,,,0,-2208880800000,,Yes,-2208880800000,-2208880800000,,,Jennifer Norwood,972-520-8162,jennifer.norwood@bswhealth.org,214-820-4860,,,,Kirk Starr,,,,,161
CHRISTUS SANTA ROSA HOSPITAL - CHILDRENS,456331529,Hospital,P,210-704-2285,Kenneth.grachanen@christushealth.org,333 N Santa Rosa Ave, San Antonio,Bexar,29.427792,-98.497856,1609912800000,0,1238,590,240,,0,0,0,850,,0,1238,590,1090,,,0,-2208880800000,,Yes,-2208880800000,-2208880800000,,,,,,,,,,,,,,,162
BAPTIST HEALTH SYSTEM-NCBH,1786069,Hospital,P,297-4650,--,520 Madison Oak Dr, San Antonio,Bexar,29.621329,-98.491206,1609912800000,0,0,0,0,,0,0,0,0,,0,0,0,0,,,195,1608271200000,Director of Pharmacy,Yes,1608271200000,1608616800000,Refrigerator,per recommended tiers,"Carol Zaike, RPh MS",210.887.3574,czaike@baptisthealthsystem.com,,,no,210.297.4765,,,,,,163
NAVARRO REGIONAL HOSPITAL,4418,Hospital,E,903-654-6820,Kristy.Hopper@navarrohospital.com,3201 West Highway 22, Corsicana,Navarro,32.085297,-96.50507,1609826400000,0,0,0,0,,0,161,0,419,,0,161,0,419,,,60,1609221600000,Director of Pharmacy,Yes,1609221600000,1610776800000,Freezer,Medical staff and front line employees. Staggered administration ,Ryan Gadi,4698775800,Amber.calderon@navarrohospital.com,,,No,903-654-1056,Amber Calderon,,,,,164
METHODIST - DALLAS MEDICAL CENTER,4392,Hospital,E,214-947-8400 office,doreenfreeman@mhd.com,1441 N Beckley Ave, Dallas,Dallas,32.762339,-96.822984,1609912800000,0,96,8648,2492,,0,0,0,0,,0,96,8648,2492,,,0,1608012000000,"VP, Pharmacy",Yes,1608012000000,1609826400000,Sub-Zero Freezer,"Tier 1A, then 1B, then others",Jon Albrecht,214-707-0959,jonalbrecht@mhd.com,,,"Affiliated Medical Providers, First Responders",214-947-2409,Ilka Ratsaphangthong,,,,,165
BAYLOR SCOTT WHITE MC - IRVING,4395,Hospital,E,9725798444,irvingnursesupervisor@BAYLOR SCOTT WHITEhealth.org,1901 N MacArthur Blvd, Irving,Dallas,32.834068,-96.959205,1609912800000,0,0,30,15,,0,0,0,0,,0,0,30,15,,,0,-2208621600000,,Yes,-2208621600000,-2208621600000,,,,,,,,,,,,,,,166
ST. DAVID'S ROUND ROCK MC,2808,Hospital,O,512-656-1223,jenny.burnett@stdavids.com,2400 Round Rock Avenue, Round Rock,Williamson,30.51042,-97.713684,1609826400000,0,0,0,0,,0,0,0,0,,0,0,0,0,,,975,1608271200000,Director of Pharmacy Interim,Yes,1608444000000,1609394400000,Ultra-low freezer at sister facility,"Direct contact staff, remainder staff",Timothy Kwon,713-515-1793,timothy.kwon@stdavids.com,512-341-6585,,Yes,512-341-6511,Alice Johnson,,,,,167
North Texas State Hospital - Vernon,1184730988,State Hospital,C,512 940-4897,jean.baemayr01@hhsc.state.tx.us,4730 College Dr,Vernon,Wilbarger,34.1530775,-99.32448003,1609912800000,0,0,658,0,,0,0,0,0,,0,0,658,0,,,1700,1608789600000,,Yes,-2208880800000,-2208880800000,Fridge,Employees direct care then non direct,Norman Russell,940-552-4194,NORMAN.RUSSELL@HHS.TEXAS.GOV,940-552-4194,,No,940-552-4194,Samantha Aleman,,,,,168
CITY HOSPITAL WHITE ROCK,4397,Hospital,E,214-324-6146,gina.donahue@cityhospital.us,9440 Poppy Drive, Dallas,Dallas,32.834459,-96.705202,1609826400000,0,0,0,0,,0,100,0,60,,0,100,0,60,,,500,1608789600000,,Yes,1609221600000,1609826400000,freezer/fridge,hospital staff,Holly Sobczak,,holly.sobczak@cityhospital.us,,,no,214-324-6100,Flinn Melanie,,,,,169
BAYLOR SCOTT & WHITE COLLEGE STATION,90674,Hospital,N,Office: 979 207 2112,Debby.York@BSWHealth.org,700 Scott and White Dr, College Station,Brazos,30.583035,-96.279422,1609912800000,0,120,385,155,,0,0,0,200,,0,120,385,355,,,0,-2208880800000,,Yes,-2208880800000,-2208880800000,,,,,,,,,,,,,,,170
Jared Mataska MD,30033611,Doctors Office,,9405215500,dloomis@grahamma.com,1339 East St,Graham,Young,33.0906899,-98.5836917,1609912800000,0,0,0,0,,200,200,0,0,,200,200,0,0,,,0,,,Yes,,,,,,,,,,,,,,,,,171
Christus Santa Rosa- Alamo Heights,25237389,Hospital,,210-894-8090,ann.hanna@christushealth.org,403 Treeline Park,San Antonio,Bexar,29.5058195,-98.476144,1609912800000,0,0,0,0,,0,53,0,50,,0,53,0,50,,,0,,,Yes,,,,,,,,,,,,,,,,,172
AUSTIN REGIONAL CLINIC - PFLUGERVILLE,25136635,Doctors Office,,512-989-2680,hlzuge@austinregionalclinic.com,Ste 103,Pflugerville,Travis,29.9903263,-97.873107,1609912800000,0,0,0,0,,0,122,0,140,,0,122,0,140,,,0,,,Yes,,,,,,,,,,,,,,,,,173
Austin Regional Clinic - Quarry Lake,25135125,Doctors Office,,512-338-8383,ncblack@austinregionalclinic.com,"4515 Seton Center Pkwy, Suite 220",Austin,Travis,30.4016572,-97.7429434,1609912800000,0,0,0,0,,40,40,0,0,,40,40,0,0,,,0,,,Yes,,,,,,,,,,,,,,,,,174
AUSTIN REGIONAL CLINIC - LEANDER,25190522,Doctors Office,,512-259-2198,afcrain@austinregionalclinic.com,"901 Crystal Falls Parkway, STE 103",LEANDER,Williamson,30.5244256,-97.8220273,1609912800000,0,0,0,0,,500,117,0,800,,500,117,0,800,,,0,,,Yes,,,,,,,,,,,,,,,,,175
Austin Regional Clinic - Kyle,25201558,Doctors Office,,512-295-1353,rbculp@austinregionalclinic.com,"4100 Everett Street, Suite 400",Kyle,Hays,30.0291886,-97.8766669,1609912800000,0,0,0,0,,0,20,0,30,,0,20,0,30,,,0,,,Yes,,,,,,,,,,,,,,,,,176
Austin Family Allergy and Asthma,1502095015,Doctors Office,,512-346-7936,jill@familyallergyatx.cm,Mopac Expressway,Austin,Travis,30.3780722,-97.7383602,1609912800000,0,0,0,0,,1,20,0,20,,1,20,0,20,,,100,1609135200000,Pharmacy Manager,Yes,1609135200000,1610085600000,Ultra cold freezer,Group 1A Health care employees,Jill Apodaca,(512) 653-9930,jill@familyallergyatx.com,(512) 784-1960,,No,(512) 346-7936,Allen Lieberman,,,,,177
Care Express Georgia,25294059,Other,,8063540404,judyhuckabee@fmclp.com,2701 S Georgia St,Amarillo,Potter,35.1843406,-101.8655123,1609912800000,0,0,0,0,,300,160,0,150,,300,160,0,150,,,0,,,Yes,,,,,,,,,,,,,,,,,178
Aledo Family Medicine ,25060019,Doctors Office,,817-441-7181,nataliepayne@medicalassociatesatwillowpark.com,317 FM 1187,Aledo,Parker,32.700578,-97.6035857,1609912800000,0,0,0,0,,0,90,0,280,,0,90,0,280,,,0,,,Yes,,,,,,,,,,,,,,,,,179
Medical Clinic Of Houston - Houston - 1701 Sunset Boulevard,25277980,Doctors Office,,713-204-9813,milane@mchllp.com,1701 Sunset Blvd,Houston,Harris,29.7224824,-95.4010395,1609912800000,0,0,0,0,,0,84,0,540,,0,84,0,540,,,0,,,Yes,,,,,,,,,,,,,,,,,180
Austin Regional Clinic-Sendero Springs,30016784,Doctors Office,,737-220-7500,jelash@austinregionalclinic.com,1025 Sendero Springs Dr Ste. 120,Round Rock,Williamson,30.5499635,-97.7372144,1609912800000,0,0,0,0,,0,90,0,240,,0,90,0,240,,,0,,,Yes,,,,,,,,,,,,,,,,,181
HENDRICK MEDICAL CENTER NORTH,11695,Hospital,D,325-428-8325,gperry@hendrickhealth.org,1900 PINE ST,ABILENE,TAYLOR,32.47185,-99.73256,1609912800000,0,0,0,0,,100,210,0,0,,100,210,0,0,,,2925,1608271200000,Director of Pharmacy,Yes,1608357600000,1608789600000,"Ultra-Cold freezer that can store 300,000 doses",We will try to also vaccinate front line employees at Hendrick South campus but if they get supply from our hospital (North) then dose two will come from here as well.,"Greg Perry, PharmD",325-428-8325,gperry@hendrickhealth.org,,,We opened to all first responders in the region to assure no vaccines are wasted per Gov. Abbott directions.,325-670-5550,,,,,,182
Lufkin State Supported Living Center,6566,SSLC,H,(936)853-8358,jessica.noteware@hhs.texas.gov,6844 N US HWY 69,Pollok,Angelina,31.41982456,-94.80506819,1609826400000,0,0,0,0,,100,60,0,820,,100,60,0,820,,,0,-2208967200000,,Yes,-2208967200000,-2208967200000,,,,,,,,,,,,,,,183
Odessa Consultants PLLC,25236240,Doctors Office,,4325822446,teja@high-bp.com,6th street,Odessa,Ector,31.8513691,-102.3651355,1609826400000,0,0,0,0,,0,168,0,0,,0,168,0,0,,,0,,,Yes,,,,,,,,,,,,,,,,,184
University Of Texas Rio Grande Valley Health Services,25206795,Other,,,,1201 W University Dr,EDINBURG,HIDALGO,26.3068324342761,-98.1725971323921,1609567200000,0,1950,975,975,,0,900,0,0,,0,2850,975,975,,,0,,,Yes,,,,,,,,,,,,,,,,,185
Magnolia Pharmacy,25310417,Pharmacy,,281-356-9089,steveh@magnoliapharmacy.com,18230 Farm to Market Rd 1488 #100,Magnolia,Montgomery,30.2185068,-95.7460274,1609826400000,0,0,0,0,,0,50,0,150,,0,50,0,150,,,0,,,Yes,,,,,,,,,,,281-356-9089,,,,,,186
UNIVERSITY HOSPITAL,45021318210112400,Hospital,P,210-358-2525, pablo.rojas@uhs-sa.com ,4502 Medical Dr, San Antonio,Bexar,29.509049,-98.574002,1609912800000,5850,1484,10862,4076,,2900,4579,0,8998,,8750,6063,10862,13074,,,2925,1608271200000,agans,Yes,1608271200000,,freezers,hospital staff/,donavan,,donovan.agans@uhs-sa.com,,,,,,,,,,187
LIBERTY-DAYTON REGIONAL MEDICAL CENTER,21635,Hospital,R,936-336-7316 xt. 142,tmaddox@libertydaytonrmc.com,1353 North Travis, Liberty,Liberty,30.068494,-94.799064,1609912800000,0,0,0,0,,0,10,0,190,,0,10,0,190,,,200,1609221600000,Chief Quality Officer Infection Control,Yes,1609740000000,,Freezer,"1. Staff with hands on patient care duties and all staff that regularly encounter patients and housekeeping staff

2. Office staff

3. Ancillary staff
",Toni Maddox,936.346.8249,Tmaddox@libertydaytonmc.com,936.346.8249,,"Yes, Rural Health Clinic - within same building",936.336.7316 ext.142,Cindy Griffin,,,,,188
TARRANT CO PH IMM OUTREACH (Tarrant County Local Health Department),25079605,Other,,(682)704-8750,tmrangel@tarrantcounty.com,1101 S Main St,Fort Worth,Tarrant,32.7324823,-97.3251742,1609912800000,0,0,0,0,,2000,1049,0,4188,,2000,1049,0,4188,,,0,1608703200000,Deputy Director of Public Health,Yes,1608962400000,1610085600000,"Refrigerators 
","1. Healthcare providers, first responders, and last responders
2. Police, firefighters, public health, and educators who also meet the 1b requirement
3. People who generally meet the 1b requirement",Angie Hagie ,,amhagy@tarrantcounty.com,,,"Vaccines are administered to entities of prioritized groups, see below. ",817-321-5309,"Erin Beasley (817-321-5452), Lea Rowe (817-321-5320), Sabrina Vidaurri (817-321-5315)",,,,,189
MEDICAL CITY - ALLIANCE,162485,Hospital,E,817-239-8218,Jason.Quick@medicalcityhealth.com,3101 NORTH TARRANT PARKWAY, Fort Worth,Tarrant,32.900375,-97.313708,1609912800000,0,0,0,0,,0,40,0,390,,0,40,0,390,,,0,,Medical Director,Yes,,,,,Jason Quick,817-239-8218 ,Jason.Quick@medicalcityhealth.com,,,,,,,,,,190
BAYLOR SCOTT & WHITE MC - LAKEWAY,144719,Hospital,O,(512) 571-5414,Rhonda.ManorCoombes@BSWHealth.org,100 Medical Parkway, Lakeway,Travis,30.33297,-97.971383,1609912800000,0,0,0,0,,0,0,0,770,,0,0,0,770,,,0,,,Yes,,,,,,,,,,,,,,,,,191
THOP - TRANS MTN CAMPUS,165822,Hospital,I,915-877-8220,michael1.martinez@tenethealth.com,2000 Trans Mountain Rd., El Paso,El Paso,31.905908,-106.539871,1609912800000,0,0,0,0,,154,154,0,0,,154,154,0,0,,,0,,,Yes,,,,,,,,,,,,,,,,,192
PARKVIEW REGIONAL HOSPITAL,12963,Hospital,M,254-562-5332,crystal.bonner@lpnt.net,600 S Bonham St, Mexia,Limestone,31.675945,-96.480101,1609912800000,0,0,0,0,,100,10,0,90,,100,10,0,90,,,0,,,Yes,,,,,,,,,,,,,,,,,193
Zealth Care PLLC,1255767687,Other,Q,409-599-1534,szakir52@gmail.com,19121 West Little York Rd Ste B,Katy,Harris,29.8645753785336,-95.7011359723756,1609912800000,0,0,0,0,,200,21,0,180,,200,21,0,180,,,0,1609826400000,Office Manager,Yes,1609826400000,1610431200000,Refrigerator/freezer,As per guidelines,Sakina ZAKIR,4095991534,szakir52@gmail.com,,,No,7139555200,Ali Zakir,,,,,194
SOUTHWEST GENERAL HOSPITAL,450697164,Hospital,P,210-921-3536,Kristina.sabo@steward.org,7400 Barlite Blvd, San Antonio,Bexar,29.354277,-98.546513,1609912800000,0,0,0,0,,0,50,0,150,,0,50,0,150,,,300,1608703200000,Director of Pharmacy,Yes,1608703200000,1608789600000,Refrigerators,Acuity of exposure,Adrian RUssell,210-921-3431,adrian.russell@steward.org,210-921-3431,,No,,Eileen Tobar,,,,,195
HUNTSVILLE MEMORIAL,4862,Hospital,Q,936-291-4553,amanda.wheeler@hmh.cc,110 Memorial Hospital Dr, Huntsville,Walker,30.698215,-95.557748,1609912800000,0,0,0,0,,600,339,1,260,,600,339,1,260,,,0,,,Yes,,,,,,,,,,,,,,,,,196
LAVACA MEDICAL CENTER,6274,Hospital,S,361-798-3671; 1205,kkutac@lavacamedcen.com,1400 N Texana St, Hallettsville,Lavaca,29.460434,-96.93986,1609826400000,0,0,0,0,,0,170,0,200,,0,170,0,200,,,0,,,Yes,,,,,,,,,,,,,,,,,197
UTMB HEALTH LEAGUE CITY CAMPUS,162072,Hospital,R,409-539-0804,jahiggs@utmb.edu,2240 Gulf Freeway South, League City,Galveston,29.480794,-95.099211,1609826400000,50,170,646,0,,0,0,0,0,,50,170,646,0,,,0,,,Yes,,,,,,,,,,,,,,,,,198
CareFlite,30031300,Other,,214-499-1888,kreynolds@careflite.org,3110 S Great SW Pkwy,Grand Prairie,Tarrant,32.7048048,-97.0445811,1609912800000,0,0,0,0,,0,420,0,20,,0,420,0,20,,,0,1609135200000,Chief Operating Officer,Yes,1609221600000,1610085600000,"Shipping to freezer, average temp is -22.5C, vials are moved to refrigerator, average temp 4.2C or directly to vaccination station. We have dataloggers for both freezer and refrigerator and perform morning and evening checks on the freezer and refrigerator. Refrigerator has door open alarms and high/low temp alarms.","Priority 1: CareFlite's EMTs, Paramedics, Flight Nurses, Flight Paramedics, and Pilots. 
Priority 2: EMS/Fire First responders (mostly volunteers) and healthcare workers from other entities.
Priority 3: Persons over 65 and 18-64 with serious health conditions.",Kevin Reynolds,214-499-1888,kreynolds@careflite.org,,,"We have administered vaccines to EMS/Fire first responders, other healthcare workers, and public meeting 1b criteria.",972-339-4245,Rebecca Brazeal 817-716-9823,,,,,199
UTMB CLEAR LAKE,178687,Hospital,Q,832  632- 7383,liostrov@umtb.edu,200 Blossom, Webster,Harris,29.544993,-95.125694,1609826400000,390,601,1385,240,,0,0,0,300,,390,601,1385,540,,,975,,,Yes,,,Freezers in hospital,CDC Guidelines,Lizeth Ostrovsky ,713-401-0691,liostrov@umtb.edu,,,"Yes, League City Campus",832-632-7383,,,,,,200
SHANNON MEDICAL CENTER,14557,Hospital,K,325-657-8344,kathypowell@shannonhealth.org,120 E Harris Ave, San Angelo,Tom Green,31.464474,-100.435134,1609912800000,0,5,0,0,,0,384,4,1820,,0,389,4,1820,,,975,1608012000000,,Yes,1608012000000,1608357600000,Ultra Freezer,"Front line workers, in house staff",Carlos Robledo,325-374-4446 ,carlosrobledo@shannonhealth.org,325-374-4446 ,,Assisted living facilities,325-655-8191,,,,,,201
Lamar Plaza Drug Store,25203598,Pharmacy,,512-442-6777,lynh@cpdwellness.com,1509 S Lamar Blvd #550,Austin,Travis,30.25193,-97.7637839,1609826400000,0,0,0,0,,200,22,0,180,,200,22,0,180,,,0,1609826400000,Pharmacist,Yes,1609826400000,1609999200000,Freezer and refrigerator,"home health workers, 1 LTFC, online waitlist",Lynh Warnken,5126594568,lynh@cpdwellness.com,,,Nursing homes,5124426777,Jillian Blackwell,,,,,202
Dripping Springs Pharmacy,25194302,Pharmacy,,512-858-7935,lynh@cpdwellness.com,100 Commons Road Suite 1,Dripping Springs,Hays,30.1928356,-98.0844171,1609826400000,0,0,0,0,,100,21,0,80,,100,21,0,80,,,0,1609826400000,Pharmacist,Yes,1609826400000,1609999200000,Refrigerator and freezer,"Healthcare providers first, then Phase 1B on our waitlist",Lynh Warnken,5126594568,lynh@cpdwellness.com,,,Yes,5128587935,Angela Solis,,,,,203
MEDICAL CITY - DALLAS,4402,Hospital,E,972-566-7114,Craig.Brein@MedicalCityHealth.com,7777 Forest Ln, Dallas,Dallas,32.909451,-96.772137,1609826400000,0,0,0,0,,0,0,0,0,,0,0,0,0,,,0,-2208535200000,,Yes,-2208535200000,-2208535200000,,,,,,,,,,,,,,,204
TexomaCare Family Practice Denison,25134797,Doctors Office,,903-416-6480,stephanie.rambo-seals@thcs.org,Suite 300,Denison,Grayson,33.7112520705174,-96.5868361833695,1609912800000,0,0,0,0,,500,500,0,0,,500,500,0,0,,,0,,Practice Administrator,Yes,,,refrigerators/freezer,"Initially we are focusing on 75 and older, front line workers and patients with multiple co-morbities",Stephanie Rambo-Seals,423-349-4611,Angie.Favors@thcs.org,,,No,903-416-6480,Angie Favors,,,,,205
MEMORIAL HERMANN,4832,Hospital,Q,832-531-4295 EPO,michael.olivier@memorialhermann.org,6411 Fannin St, Houston,Harris,29.712581,-95.39463,1609912800000,0,779,16715,5550,,1200,0,0,1200,,1200,779,16715,6750,,,6825,1608098400000,Director of Pharmacy,Yes,1608098400000,1609394400000,Ultra cold freezer,"Front line physicians, front line nursing and axillary staff in COVID units, then staff in non-COVID units and finally support staff ",Sidney Phillips,972-746-6219,sidney.phillips@memorialhermann.org,,No,Administering at day clinics for employees and physicians then beginning to administer to first responders.,,Lisa Spivey,,,,,206
METHODIST HOSPITAL,45038818316412,Hospital,P,210-274-1417,samantha.reyes2@mhshealth.com,7700 Floyd Curl Dr, San Antonio,Bexar,29.50606,-98.572099,1609912800000,975,2057,1977,0,,3800,0,0,0,,4775,2057,1977,0,,,2925,1608271200000,Pharmacy Director,Yes,1608357600000,1609221600000,Ultra cold freezer,Group 1A Health care employees,Edward Vonberg,(210) 378-9752,edward.vonberg@healthtrustpg.com,N/A,,NO,(210) 575-6921,N/A,,,,,207
PARKLAND MEMORIAL HOSPITAL,4393,Hospital,E,214-590-8920,NATALIE.RODRIGUEZ@phhs.org,5200 Harry Hines Blvd, Dallas,Dallas,32.811985,-96.836781,1609826400000,975,1410,31615,5630,,0,342,0,2800,,975,1752,31615,8430,,,0,-2208535200000,,Yes,-2208535200000,-2208535200000,,,Steven Schultz,,carie.bergie@phh.org,,,,214-364-9052,Carie Bargie,,,,,208
HOUSTON METHODIST THE WOODLANDS,168532,Hospital,Q,--,Alburrough@houstonmethodist.org,17201 INTERSTATE 45 SOUTH, THE WOODLANDS,Montgomery,30.206925,-95.453763,1609912800000,585,114,1192,678,,500,869,0,485,,1085,983,1192,1163,,,975,1608271200000,Pharmacy Director,Yes,1608357600000,1608789600000,Ultra cold freezer,Group 1A Health care employees,Ran XU,(281) 755-9847,rxu@houstonmethodist.org,(936) 270-2700,,No,(936) 270-2700,Karen Simpson,,,,,209
HOUSTON METHODIST WILLOWBROOK,4867,Hospital,Q,281-737-4747,cespinosa@houstonmethodist.org,18220 Tomball Pkwy, Houston,Harris,29.964073,-95.550797,1609912800000,585,103,1262,630,,0,380,0,630,,585,483,1262,1260,,,975,1608271200000,Pharmacy Director,Yes,1608184800000,1608703200000,Thermal shipping boxes (Dry Ice),Group 1A Health care employees,Linda Drucker,(832) 319-9853,lgdrucker@houstonmethodist.org,(281) 382-6789,,No,(281) 737-1400,Dayo Osho,,,,,210
CHRISTUS SPOHN CC-SHORELINE,11496,Hospital,U,361-881-3031,janice.dennis@christushealth.org,600 Elizabeth St, Corpus Christi,Nueces,27.777492,-97.394893,1609740000000,0,0,5790,2840,,0,0,0,700,,0,0,5790,3540,,,975,1608098400000,,Yes,1608098400000,1609394400000,Ultra Freezer,"Front Line, hospital staff",Chad Wright,361-902-4335,chad.wright@christushealth.org,,,,,Justin Simon,,,,,211
TEXAS ORTHOPEDIC HOSPITAL ,8681,Hospital,Q,713-794-3501,belinda.ynfante@hcahealthcare.com,7401 Main St, Houston,Harris,29.701204,-95.408942,1609912800000,0,0,0,0,,92,288,0,104,,92,288,0,104,,,300,1609135200000,DIRECTOR OF PHARMACY,Yes,1609221600000,1609740000000,refrigerators,covid prioritization,Charles Hannibal,713-794-3546,charles.hannibal@hcahealthcare.com,charles.hannibal@hcahealthcare.com,,no,713-794-3546,Kemp Jacks,,,,,212
CHRISTUS GOOD SHEPHERD - LONGVIEW,12587,Hospital,G,903-372-9533 (cell),jamie.jack@christushealth.org,700 E Marshall Ave, Longview,Gregg,32.501452,-94.73146,1609912800000,0,150,0,0,,0,107,0,500,,0,257,0,500,,,975,1608357600000,,Yes,1608357600000,1608703200000,Dry ice in Pfizer containers within their ultra cold fridge,CDC Guidelines,Jamie Jack,903-372-9533,jamie.jack@christushealth.org,903-315-4000,,Yes,(903) 315-3470,Shelly Johnson,,,,,213
NORTHWEST TEXAS HEALTHCARE SYSTEM,12741,Hospital,A,806 354 1747,Lori.henke@nwths.com,1501 S Coulter St, Amarillo,Potter,35.199601,-101.919682,1609912800000,0,186,2801,1258,,0,0,0,0,,0,186,2801,1258,,,1950,1608012000000,Director of Pharmacy,Yes,1608012000000,1608530400000,Freezers on hand,Tier 1 per CDC guidance,Lori Henke,806-683-4369,lori.henke@nwths.com,806-354-1177,,Used system to allocated 350 to Texas Tech on Tuesday,806-354-1747,Kyle Hawley,,,,,214
WISE HEALTH SURGICAL HOSPITAL - PARKWAY,162523,Hospital,E,940-626-4017,shahn1@wisehealthsystem.com,3200 NORTH TARRANT PARKWAY, Fort Worth,Tarrant,32.896688,-97.312742,1609740000000,0,0,0,0,,200,215,0,0,,200,215,0,0,,,975,1608876000000,Pharmacy Manager,Yes,1609308000000,1609394400000,200 doses from shipper to medication refrigerator (30 days stable).,"hospital staff, over 60 yrs old, ",Bradley Boys,940-502-7290,bboys@wisehealthsystem.com,940-626-1363,,NO,940-502-7290,Kristy Langford,,,,,215
Kelsey Seybold Spring Medical Diagnostic Center,25110994,Doctors Office,,7134421700,Beverly.Collier@kelsey-seybold.com,15655 Cypress Woods Medical Dr #100,Houston,Harris,30.0014496780937,-95.4713204481971,1609912800000,0,0,0,0,,0,102,0,248,,0,102,0,248,,,0,1608703200000,clinic administrator ,Yes,1608789600000,,freezer/refrigerator ,"following the states EAU plan, yes we have plan in place. ",Beverly Collier ,281-433-7203,Beverly.collier@kelsey-seybold.com ,,,not at this time ,7134421711,"Angel Sargent, RN ",,,,,216
REAGAN MEMORIAL HOSPITAL,14554,Hospital,K,325-884-2561,Jon-Michael.Parker@reaganhealth.com,1300 N Main , Big Lake,Reagan,31.201401,-101.461527,1609912800000,0,0,0,0,,100,20,0,90,,100,20,0,90,,,0,-2208880800000,MSHA,Yes,-2208880800000,-2208880800000,,,Eric Wanoreck,,erica.wanoreck@reganhealth.com,,,,325-884-5658,,,,,,217
EL PASO CHILDREN'S HOSPITAL,56275,Hospital,I,AOD: 915-996-8174,EPCHAOD@elpasochildrens.org,4815 Alameda, El Paso,El Paso,31.771496,-106.435928,1609912800000,0,0,0,0,,700,120,0,700,,700,120,0,700,,,700,1608789600000,Director of Pharmacy,Yes,1608789600000,1609480800000,Vaccine is being stored in the refrigerator with a data logger,The vaccine is being provided to hospital employees based on a tier system that was developed by Infection Control and Senior Leadership.,Erika Estrada,9155388078,eestrada@elpasochildrens.org,915-298-5444,,No,,Jacqueline Medina,,,,,218
CITIZENS MEDICAL CENTER,4500231720616,Hospital,S,361-573-9181,llanghoff@cmcvtx.org,2701 Hospital Dr, Victoria,Victoria,28.813028,-96.976746,1609912800000,0,0,0,0,,0,0,0,0,,0,0,0,0,,,195,-2208621600000,Pharmacy Director,Yes,1608616800000,1609135200000,Ultra low cold refrigerators,Government tier 1 & 2,Michael Casas,,mcasas1@cmcvtx.org,,No,No,361.573.9181,,,,,,219
S Texas Cancer Ctr Brownsville,25242707,Other,,956 982-7121,luis.lester@usoncology.com,2150 North Expressway 83,Brownsville,Cameron,25.946478,-97.5039866,1609826400000,0,0,0,0,,0,0,0,100,,0,0,0,100,,,0,1609826400000,Pharmacy Manager,Yes,1610344800000,1610949600000,Refrigerators,Yes,Luis Lester,956 345-1527,christine.naranjo@usoncology.com,,,No,956 982-7121,Christy Naranjo,,,,,220
START CENTER FOR CANCER CARE,25204688,Doctors Office,,210-593-5744,elizabeth.cavanaugh@stoh.com,"4383 Medical Drive, San Antonio, TX, USA",San Antonio,Bexar,29.510888778377,-98.571170111453,1609912800000,0,0,0,0,,0,50,0,0,,0,50,0,0,,,0,1608703200000,Director of Clinical Services,Yes,1609135200000,1609826400000,Freezer,Yes,Elizabeth Cavanaugh,210-896-3011,elizabeth.cavanaugh@stoh.com,,,No,210-593-5744,Karen Tindall,,,,,221
ROLLING PLAINS MEMORIAL HOSPITAL,11698,Hospital,D,325-725-1770,stephaniel@rpmh.net,200 East Arizona, Sweetwater,Nolan,32.453745,-100.398241,1609912800000,0,0,0,0,,200,0,0,200,,200,0,0,200,,,0,,,Yes,,,,,,,,,,,,,,,,,222
Sievers Medical Clinic,25010635,Doctors Office,,830-672-8502,skoepp@gonzaleshealthcare.com,Sarah Dewitt Drive,Gonzales,Texas,29.5168541403941,-97.4298584493435,1609912800000,0,0,0,0,,0,19,0,200,,0,19,0,200,,,0,1608703200000,Clinic Administrator,Yes,1608703200000,,freezer and refrigerator,By State guidelines,Sherri Koepp,8306728502,skoepp@gonzaleshealthcare.com,,,No,8306728502,,,,,,223
NACOGDOCHES MEDICAL CENTER,11579,Hospital,H,936-615-1820,pamela2.miller@tenethealth.com,4920 NE Stallings Dr, Nacogdoches,Nacogdoches,31.6528,-94.65539,1609912800000,0,0,0,0,,0,540,0,70,,0,540,0,70,,,0,,,Yes,,,,,,,,,,,,,,,,,224
Austin Regional Clinic- Manor,25137185,Doctors Office,,512-582-6075,akrivers@austinregionalclinic.com,East Hwy 290,Manor,Travis,30.3495004437408,-97.5368665799123,1609912800000,0,0,0,0,,0,44,0,40,,0,44,0,40,,,0,1608703200000,Clinic Manager,Yes,1608703200000,1609999200000,Refrigerator,"By CDC and Tx DSHS guidelines, Tier 1A and Tier 1B",AUTUMN RIVERS,5129651002,akrivers@austinregionalclinic.com,,,No,512-582-6075 ext 6,Nicole Kreig,,,,,225
S Texas Cancer Ctr Harlingen,25242758,Other,,956-364-6735,leonel.ramirez@usoncology.com,Pease Suite 101,Harlingen,Texas,26.1747952,-97.6701251,1609912800000,0,0,0,0,,0,0,0,100,,0,0,0,100,,,0,1609826400000,"Manager, Pharmacy Services",Yes,1610085600000,1611295200000,Freezer/Refrigerator,"As a cancer clinic we have our employees which will be vaccinated first, then we have our cancer patient's who are 1B. Our cancer patients will be on a first come first serve basis once prescribed by our physician.",Leonel Ramirez Jr.,(512) 779-0973,leonel.ramirez@usoncology.com,,,No,(956) 364-6735,Maria Luisa Hernandez,,,,,226
ENNIS REGIONAL MEDICAL CENTER,7533,Hospital,E,469-246-2472,david.lewis1@lpnt.net,2201 W Lampasas St, Ennis,Ellis,32.307207,-96.644261,1609912800000,0,0,0,0,,400,120,0,210,,400,120,0,210,,,0,,,Yes,,,,,,,,,,,,,,,,,227
OAK BEND MEDICAL CENTER,4840,Hospital,Q,281-238-7844,mphillips@obmc.org,1705 Jackson St, Richmond,Fort Bend,29.57687,-95.771889,1609912800000,0,0,0,0,,0,651,0,360,,0,651,0,360,,,0,,,Yes,,,,,,,,,,,,,,,,,228
MEDICAL CITY - NORTH HILLS,4446,Hospital,E,817-255-1875,william.harn@medicalcity.com,4401 Booth Calloway Rd, North Richland Hills,Tarrant,32.829075,-97.212214,1609826400000,0,0,0,0,,0,27,0,910,,0,27,0,910,,,1200,,Pharmacy Director,Yes,,,Looking to receive Maderna but freezers are available ,Tier program will be followed,Dale Jones,972-906-1707,Dale.Jones@HealthtrustPG.com,,,,9729061707,Dianna Elzind,,,,,229
DOCTORS HOSPITAL OF LAREDO,92706,Hospital,T,956 206 9174,--,10700 McPherson, Laredo,Webb,27.606603,-99.478263,1609912800000,0,0,0,0,,0,220,0,330,,0,220,0,330,,,0,,PharmacyDirector,Yes,,,hospital freezer/fridge,yes,Tyson Chapman,940-612-8740,,,,,940-612-8740,,,,,,230
MEDICAL CITY - WEATHERFORD,4427,Hospital,E,682-582-1881,samuel.miller@medicalcityhealth.com,713 E Anderson St, Weatherford,Parker,32.747477,-97.787192,1609912800000,0,0,0,0,,0,130,0,330,,0,130,0,330,,,600,,Director of Pharmacy,Yes,,,Freezers,Following Tier Guidelines,Dale Jones,972-906-1707,Dale.Jones@HealthtrustPG.com ,,,no,972-906-1707,,,,,,231
HCA HOUSTON HEALTHCARE NORTH CYPRESS,14762,Hospital,Q,281-898-0532,jim.bunch@hcahealthcare.com,21214 Northwest Fwy, Cypress,Harris,29.924961,-95.629807,1609912800000,0,0,0,0,,3050,209,1,340,,3050,209,1,340,,,0,,,Yes,,,,,,,,,,,,,,,,,232
CORYELL MEMORIAL HOSPITAL,16294,Hospital,L,254-248-6235,heather.rambeau@coryellhealth.org,1507 W Main St, Gatesville,Coryell,31.435028,-97.762487,1609912800000,0,0,0,0,,0,167,0,160,,0,167,0,160,,,0,,,Yes,,,,,,,,,,,,,,,,,233
DRISCOLL CHILDREN'S HOSPITAL,11506,Hospital,U,361-694-5100,charlotte.trudeau@dchstx.org,3533 S Alameda St, Corpus Christi,Nueces,27.749526,-97.385174,1609912800000,0,0,0,0,,1000,0,0,1000,,1000,0,0,1000,,,0,,,Yes,,,,,,,,,,,,,,,,,234
CHRISTUS JASPER MEMORIAL HOSPITAL,7861,Hospital,R,409-548-8500,kirk.vital@chistushealth.org,1275 Marvin Hancock Dr, Jasper,Jasper,30.907341,-94.008515,1609912800000,0,0,0,0,,300,40,0,110,,300,40,0,110,,,0,,,Yes,,,,,,,,,,,,,,,,,235
ADVENTHEALTH CENTRAL TEXAS,16300,Hospital,L,254-519-8346,amy.haire@adventhealth.com,2201 S Clear Creek Rd, Killeen,Bell,31.112431,-97.799877,1609912800000,0,0,0,0,,0,50,0,1030,,0,50,0,1030,,,0,,,Yes,,,,,,,,,,,,,,,,,236
"ST. JOSEPH REGIONAL HEALTH CENTER, BRYAN",11712,Hospital,N,979-575-9507,kchristian@st-joseph.org,2801 Franciscan Dr, Bryan,Brazos,30.655981,-96.346721,1609912800000,0,0,0,0,,200,676,1,1690,,200,676,1,1690,,,0,,,Yes,,,,,,,,,,,,,,,,,237
FAITH COMMUNITY HOSPITAL,7949,Hospital,C,940-216-2253,smarion@fchtexas.com,215 Chisolm Trail, Jacksboro,Jack,33.226023,-98.169189,1609912800000,0,0,0,0,,200,131,0,70,,200,131,0,70,,,0,,,Yes,,,,,,,,,,,,,,,,,238
THOP - SIERRA CAMPUS,6093,Hospital,I,915-747-2829  AOD,charlie.castillo@tenethealth.com,1625 Medical Center St, El Paso,El Paso,31.778131,-106.479596,1609826400000,0,0,0,0,,100,0,0,0,,100,0,0,0,,,0,,,Yes,,,,,,,,,,,,,,,,,239
CRANE  MEMORIAL HOSPITAL,12904,Hospital,J,432-558-3555," jincyb@cranememorial.org, ptouchstone@cranememorial.org",1310 S Alford St, Crane,Crane,31.389674,-102.349942,1609912800000,0,0,0,0,,10,29,10,0,,10,29,10,0,,,0,,,Yes,,,,,,,,,,,,,,,,,240
MEMORIAL MEDICAL CENTER,6275,Hospital,P,361-552-0442,eclevenger@mmcportlavaca.com,815 N. Virginia St.,Port Lavaca,CALHOUN,28.620825,-96.631857,1609912800000,0,0,0,0,,0,368,0,0,,0,368,0,0,,,0,,,Yes,,,,,,,,,,,,,,,,,241
CLAY COUNTY MEMORIAL HOSPITAL,6859,Hospital,C,940-235-1205,jrodriguez@ccmhospital.com,310 W South St, Henrietta,Clay,33.813924,-98.197535,1609912800000,0,0,0,0,,100,0,0,100,,100,0,0,100,,,0,,,Yes,,,,,,,,,,,,,,,,,242
COLEMAN COUNTY MEDICAL CENTER,11689,Hospital,D,3256252135,michelle.burdick@colemancountymc.com,310 S Pecos St, Coleman,Coleman,31.828912,-99.425237,1609912800000,0,0,0,0,,0,90,0,0,,0,90,0,0,,,0,,,Yes,,,,,,,,,,,,,,,,,243
COMANCHE COUNTY MEDICAL CENTER,11690,Hospital,D,254-879-4901,--,10201 Highway 16 North, Comanche,Comanche,31.9666,-98.563719,1609912800000,0,0,0,0,,300,305,0,0,,300,305,0,0,,,0,,,Yes,,,,,Nikki Stark,,Nstark@comanchecmc.cim,,,,254-485-9424,,,,,,244
EASTLAND MEMORIAL HOSPITAL,11691,Hospital,D,254-631-5262,brenda.soos@emhd.org,304 S Daugherty Ave, Eastland,Eastland,32.399639,-98.821638,1609912800000,0,0,0,0,,40,40,0,260,,40,40,0,260,,,0,,,Yes,,,,,,,,,,,,,,,,,245
HILL COUNTRY MEMORIAL - FREDERICKSBURG,3394,Hospital,P,830-928-4583,mwilkinson@hillcountrymemorial.org,1020  HWY 16 South, Fredericksburg,Gillespie,30.262236,-98.881867,1609826400000,0,0,0,0,,0,300,0,140,,0,300,0,140,,,0,,,Yes,,,,,,,,,,,,,,,,,246
Providence Family Care,30002960,Doctors Office,,2817748785,providencefamilycare@gmail.com,21 Alpine St,Coldspring,San Jacinto,30.5912956039381,-95.1321990392786,1609826400000,0,0,0,0,,0,0,0,500,,0,0,0,500,,,0,,,Yes,,,,,,,,,,,,,,,,,247
CONNALLY MEMORIAL MEDICAL CENTER,20,Hospital,P,830-393-1340,asralla@connallymmc.org,499 10th St, Floresville,Wilson,29.149845,-98.162351,1609912800000,0,0,0,0,,200,31,0,540,,200,31,0,540,,,0,,,Yes,,,,,,,,,,,,,,,,,248
SE Texas ER and Hospital,26456,Nursing Home,Q,281-883-5500,ecarter@setexaser.com,19211 McKay Dr,Humble,Harris,29.9983538640656,-95.2756527975555,1609912800000,0,0,0,0,,600,51,0,11,,600,51,0,11,,,0,,,Yes,,,,,,,,,,,,,,,,,249
Highland Park ER,27911,Other,E,214-443-8131,melinda.mayfield@prestonhollower.com,5150 Lemmon Ave,Dallas,Dallas,32.8250446699912,-96.8206848076126,1609912800000,0,0,0,0,,100,6,4,90,,100,6,4,90,,,0,,,Yes,,,,,,,,,,,,,,,,,250
Brenham State Supported Living Center,6006,SSLC,N,,robin.blankenburg@hhs.texas.gov,4001 Hwy 36S ,Brenham,Washington,30.12315801,-96.39135318,1609912800000,0,0,0,0,,700,211,1,480,,700,211,1,480,,,0,,,Yes,,,,,,,,,,,,,,,,,251
Sun City West Emergency Room,30948,Free Standing ER,I,915-255-4575,jmbmd1@gmail.com,315 E. Redd Rd,El Paso,El Paso,31.8637075111251,-106.577737349789,1609826400000,0,0,0,0,,100,30,0,70,,100,30,0,70,,,0,,,Yes,,,,,,,,,,,,,,,,,252
Lakewood Emergency Room,31131,Other,E,217-217-0911,melinda.mayfield@prestonhollower.com,6101 E. Mockingbird Lane,Dallas,Dallas,32.8366112023763,-96.7611158065317,1609912800000,0,0,0,0,,100,6,4,90,,100,6,4,90,,,0,,,Yes,,,,,,,,,,,,,,,,,253
PARIS REGIONAL MEDICAL CENTER NORTH,72515,Hospital,F,903-737-1431(House Office),jynnell.elder@parisrmc.com,865 DeShong Drive, Paris,Lamar,33.689299,-95.548375,1609912800000,0,0,0,0,,0,218,0,0,,0,218,0,0,,,0,,,Yes,,,freezers ,,,,,,,,,,,,,,254
STERLING COUNTY NURSING HOME,4889,Nursing Home,K,(325) 378-2134,administrator@sterlingcountynh.com,309 FIFTH ST,STERLING CITY,Sterling,31.8372,-100.9815,1609740000000,0,18,0,0,,0,0,0,0,,0,18,0,0,,,0,,,Yes,,,,,,,,,,,,,,,,,255
METHODIST - MCKINNEY HOSPITAL,25635,Hospital,E,972-569-2745,facilities@txmmh.com,8000 W Eldorado Pkwy, McKinney,Collin,33.173358,-96.683307,1609912800000,0,0,0,0,,200,0,0,200,,200,0,0,200,,,200,1609740000000,Director of Quality/Infection Prevention,Yes,1609826400000,1610344800000,refrigerator,yes,Monica Singletary,,msingletary@txmmh.com,,,no,972-569-2742,Shari McDaniel,,,,,256
IRAAN GENERAL HOSPITAL,12893,Hospital,J,432-557-3231,cno@igh-hospital.com,600 Hwy 349 N, Iraan,Pecos,30.912737,-101.901305,1609912800000,0,0,0,0,,0,41,0,30,,0,41,0,30,,,0,,,Yes,,,,,,,,,,,,,,,,,257
CRESCENT MEDICAL CENTER LANCASTER,92973,Hospital,E,469-297-5417,donnarunnels@cmclancaster.com,2600 W. Pleasant Run Road, Lancaster,Dallas,32.60312,-96.81251,1609912800000,0,0,0,0,,400,62,0,170,,400,62,0,170,,,0,,,Yes,,,,,,,,,,,,,,,,,258
TX HEALTH RESOURCES- FLOWER MOUND,24835,Hospital,E,469-322-7112,Christy.hardcastle@phfmtexas.com,4400 Long Prairie Road, Flower Mound,Denton,33.046263,-97.068844,1609912800000,0,75,0,0,,0,0,0,0,,0,75,0,0,,,0,,,Yes,,,,,,,,,,,,,,,,,259
PARMER MEDICAL CENTER,12746,Hospital,A,806-729-1804,dcarpenter@parmermedicalcenter.com,1307 Cleveland Ave, Friona,Parmer,34.643358,-102.72109,1609912800000,0,0,0,0,,100,100,0,100,,100,100,0,100,,,0,,,Yes,,,,,,,,,,,,,,,,,260
BAYLOR SCOTT WHITE INSTITUTE REHAB - FORT WORTH,22735,Hospital,E,817-433-9994,jwaits@BAYLOR SCOTT WHITErehab.com,6601 Harris Parkway, Fort Worth,Tarrant,32.653665,-97.418009,1609912800000,0,0,0,0,,0,20,0,120,,0,20,0,120,,,0,,,Yes,,,,,,,,,,,,,,,,,261
HEREFORD REGIONAL MEDICAL CENTER,12739,Hospital,A,806-349-9199,Candice.Smith@dschd.org,540 West 15th St., Hereford,Deaf Smith,34.836798,-102.414396,1609826400000,0,0,0,0,,0,160,0,180,,0,160,0,180,,,0,,,Yes,,,,,,,,,,,,,,,,,262
St Johns Physician,25136419,Doctors Office,,281 240 8151,samuel_chen@yahoo.com,9180 Bellaire Blvd #E ,Houston,Harris,29.7063018,-95.5439886,1609826400000,0,0,0,0,,0,0,0,1,,0,0,0,1,,,0,,,Yes,,,,,,,,,,,,,,,,,263
REFUGIO COUNTY MEMORIAL HOSPITAL,11512,Hospital,U,361 526 2321,jmoehler@rmchospital.org,107 Swift St, Refugio,Refugio,28.306028,-97.279532,1609912800000,0,0,0,0,,600,636,0,0,,600,636,0,0,,,300,1608703200000,Director of Nursing,Yes,1608703200000,-2208880800000,,,Corey Wasicek,361-655-1881,CWASICEK@RCMHOSPITAL.ORG,361-526-2321,,,361-526-2321 x 113,Barbara Sheive,,,,,264
SAN LUCAS FAMILY HEALTH CLINIC,25213380,Doctors Office,,9566860027,sanlucas97@yahoo.com,1720 PECAN BLVD,McAllen,hidalgo,26.2189978110693,-98.2357400088737,1609912800000,0,0,0,0,,0,0,0,81,,0,0,0,81,,,0,-2208967200000,,Yes,-2208967200000,-2208967200000,,,,,,,,,,,,,,,265
GONZALES HEALTHCARE SYSTEMS,177395,Hospital,P,--,tfreeman@gonzaleshealthcare.com,1110 N Sarah DeWitt Dr., Gonzales,Gonzales,29.517148,-97.431639,1609912800000,0,0,0,0,,0,79,4,210,,0,79,4,210,,,0,,,Yes,,,,,,,,,,,,,,,,,266
CHST CHILDREN'S MEDICAL CENTER - DALLAS,4391,Hospital,E,214-213-0818,dana.derossett@childrens.com,1935 Medical District Dr, Dallas,Dallas,32.808392,-96.836715,1609912800000,0,0,0,0,,2400,2476,10,11530,,2400,2476,10,11530,,,0,,,Yes,,,,,,,,,,,,,,,,,267
POST ACUTE REHABILITATION HOSPITAL,172811,Hospital,U,361-443-2255,kgibbs@postacutecorpuschristi.com,345 S. Water St. , Corpus Christi,Nueces,27.78944,-97.395319,1609826400000,0,0,0,0,,0,0,0,100,,0,0,0,100,,,0,,,Yes,,,,,,,,,,,,,,,,,268
BAPTIST HEALTH SYSTEM-MTB,4500581787637,Hospital,P,210-297-3650,--,3333 Research Plaza, San Antonio,Bexar,29.345999,-98.437858,1609912800000,0,0,0,0,,300,0,0,300,,300,0,0,300,,,0,,,Yes,,,,,,,,,,,,,,,,,269
LUBBOCK HEART & SURGICAL HOSPITAL,12295,Hospital,B,806-472-5373 Emergency room ,arowden@lubbockheart.com,4810 N Loop 289, Lubbock,Lubbock,33.601734,-101.915527,1609912800000,0,0,0,0,,0,63,0,284,,0,63,0,284,,,0,,,Yes,,,,,,,,,,,,,,,,,270
Family First Urgent Care,1356571764,Other,Q,936-235-2825,cpollard@familyfirstuc.com,2510 S Loop 336 W,Conroe,Montgomery,30.2892755780979,-95.4920214672379,1609912800000,0,0,0,0,,100,0,0,100,,100,0,0,100,,,0,,,Yes,,,,,,,,,,,,,,,,,271
MidCities Pharmacy,1502098141,Pharmacy,,8176053500,aemad@midrx.com,2000 Precinct Line Rd,Hurst,TX,32.8516679503264,-97.1860381482103,1609826400000,0,0,0,0,,0,11,0,0,,0,11,0,0,,,0,-2208967200000,,Yes,-2208967200000,-2208967200000,,,,,,,,,,,,,,,272
38th Street Pharmacy,30039640,Pharmacy,,512-458-3784,austinrx38th@aol.com,711 W 38th St C-3,Austin,TX,30.3040639172792,-97.7407395922303,1609826400000,0,0,0,0,,0,21,0,21,,0,21,0,21,,,0,-2208967200000,,Yes,-2208967200000,-2208967200000,,,,,,,,,,,,,,,273
Panhandle Family Care,25206807,Doctors Office,,8065322273,Hjeffreys@familycarepanhandle.com,102 Hwy 60,Panhandle,Carson,35.3399643187129,-101.376587823674,1609826400000,0,0,0,0,,0,40,0,60,,0,40,0,60,,,0,-2208967200000,,Yes,-2208967200000,-2208967200000,,,,,,,,,,,,,,,274
TRUBI1 LLC,1502083005,Pharmacy,,830-896-0167,MAPHARMACYRX@GMAIL.COM,200 Wesley Drive,Kerrville,KERR,30.0468223266981,-99.1499568883882,1609912800000,0,0,0,0,,0,90,0,90,,0,90,0,90,,,0,-2208967200000,,Yes,-2208967200000,-2208967200000,,,,,,,,,,,,,,,275
HARRIS COUNTY PUBLIC HEALTH  -   DSRIP,30030062,Other,,409-789-0633,herbert.frankovich@phs.hctx.net,2223 W Loop S,Houston,Harris,29.744195700504,-95.4569182430658,1609912800000,0,0,0,0,,0,0,0,6760,,0,0,0,6760,,,0,-2208967200000,,Yes,-2208967200000,-2208967200000,,,,,,,,,,,,,,,276
AMISTAD COMMUNITY HEALTH CENTER,25181886,Doctors Office,,361-886-3030,VICTORIA.VIDAURRE@AMISTADCHC.ORG,Brownlee,CORPUS CHRISTI,TX,27.7752260853421,-97.4047616484598,1609826400000,0,0,0,0,,0,150,0,1100,,0,150,0,1100,,,0,-2208967200000,,Yes,-2208967200000,-2208967200000,,,,,,,,,,,,,,,277
Huntsville Family Medicine - Huntsville 2,25104642,Doctors Office,,936-661-7151,bglass-hfmed@sbcglobal.net,Medical Park Lane,Huntsville,Tx,30.696689229718,-95.559503646758,1609912800000,0,0,0,0,,0,20,0,190,,0,20,0,190,,,0,-2208967200000,,Yes,-2208967200000,-2208967200000,,,,,,,,,,,,,,,278
Houston Health Department Immunization Bureau,25010282,Other,,8323935188,rachel.woods@houstontx.gov,8000 N Stadium Dr,Houston,Texas,29.6931554841311,-95.4078596343324,1609912800000,0,0,0,0,,3000,1426,1,3790,,3000,1426,1,3790,,,0,-2208967200000,,Yes,-2208967200000,-2208967200000,,,,,,,,,,,,,,,279
Vaxanation Mobile Vaxanation Clinic,25241006,Pharmacy,,18324609003,myvaccine@gmail.com,,Houston,Texas,29.8657613340139,-95.5393335574956,1609912800000,0,0,0,0,,0,36,0,12,,0,36,0,12,,,0,-2208967200000,,Yes,-2208967200000,-2208967200000,,,,,,,,,,,,,,,280
