OBJECTID,NAME,TYPE,TSA,STREET,CITY,COUNTY,ADDRESS,ZIP,LATITUDE,LONGITUDE,PFIZER_AVAILABLE,MODERNA_AVAILABLE,PFIZER_AVAILABLE2,MODERNA_AVAILABLE2,JJ_AVAILABLE,VACCINES_AVAILABLE,VACCINES_AVAILABLE2,PublicPhone,WEBSITE,RemoveRecord,LAST_UPDATE_VAC,LAST_UPDATE_TIME_VAC,x,y
1,Walgreens Pharmacy 05390,Pharmacy,,, Houston ,,8300 Wilcrest Dr,77072,30.0606886,-97.1600286,29,0,0,0,0,29,0,,,,04/17/2021      ,18:49:36        ,-97.160029,30.060689
2,Walgreens Pharmacy 09601,Pharmacy,,,,,"3755 ATASCOCITA RD Humble, TX 77396",,29.9799175450852,-95.2182115691454,0,0,0,0,60,60,0,(281) 812-4778,https://www.walgreens.com/locator/walgreens-3755+atascocita+rd-humble-tx-77396/id=9601,,04/17/2021      ,18:19:49        ,-95.218212,29.979918
3,Walgreens Pharmacy 04538,Pharmacy,,,,,"1180 CLEAR LAKE CITY BLVD Houston, TX 77062",,29.5808335214013,-95.1556571860489,0,0,0,0,45,45,0,(281) 218-0184,https://www.walgreens.com/locator/walgreens-1180+clear+lake+city+blvd-houston-tx-77062/id=4538,,04/17/2021      ,18:05:02        ,-95.155657,29.580834
4,Walgreens Pharmacy 03224,Pharmacy,,,,,"6901 SAN PEDRO AVE San Antonio, TX 78216",,29.5059290407028,-98.5006285879054,54,0,0,0,140,194,0,(210) 349-9809,https://www.walgreens.com/locator/walgreens-6901+san+pedro+ave-san+antonio-tx-78216/id=3224,,04/17/2021      ,17:42:27        ,-98.500629,29.505929
5,Walgreens Pharmacy 04316,Pharmacy,,,,,"10800 S POST OAK RD Houston, TX 77035",,29.6635275609564,-95.4644119157717,34,0,0,0,0,34,0,(713) 723-4774,https://www.walgreens.com/locator/walgreens-10800+s+post+oak+rd-houston-tx-77035/id=4316,,04/17/2021      ,17:51:19        ,-95.464412,29.663528
6,Walgreens Pharmacy 15681,Pharmacy,,,Katy,,9423 SPRING GREEN BLVD , 77494,29.699259,-95.8161889,30,0,0,0,65,95,0,,,,04/17/2021      ,17:11:08        ,-95.816189,29.699259
7,Walgreens Pharmacy 07112,Pharmacy,,,,,"4500 NORTH TARRANT PKWY Keller, TX 76244",,32.8931885198558,-97.2897101238698,35,0,0,0,0,35,0,(817) 485-2547,https://www.walgreens.com/locator/walgreens-4500+north+tarrant+pkwy-keller-tx-76244/id=7112,,04/17/2021      ,17:06:29        ,-97.28971,32.893189
8,GREENVILLE PHARMACY LLC,Pharmacy,,4209 Wesley St,Greenville,Hunt,"4209 Wesley Street, Greenville, TX, USA",75401,33.1269938,-96.1091506,0,80,0,0,0,80,0,(405) 361-5420,,,04/17/2021      ,14:36:20        ,-96.109151,33.126994
9,United Care Pharmacy,Federal Allocation,,1755 West Price Road Ste C,Brownsville,Cameron,1755 W PRICE RD STE C BROWNSVILLE 78520,78520,25.936612478483,-97.5018309036087,0,205,0,0,205,410,0,,,,04/17/2021      ,15:13:57        ,-97.501831,25.936612
10,Walgreens Pharmacy 05671,Pharmacy,,,,,"4445 KINGWOOD DR Kingwood, TX 77339",,30.0526042821985,-95.1859118061731,99,0,15,0,125,224,15,(281) 360-4694,https://www.walgreens.com/locator/walgreens-4445+kingwood+dr-kingwood-tx-77339/id=5671,,04/17/2021      ,13:55:55        ,-95.185912,30.052604
11,Moore County Internal Medicine,Other,,1405 E 1st St Ste 101,Dumas,Moore,1405 E 1st St Ste 101,79029,35.8652177120634,-101.955212574384,0,0,0,0,40,40,0,(806) 935-9194,http://www.moorecountyinternalmed.com/,,04/07/2021      ,14:47:00        ,-101.955213,35.865218
12,Brookshires Pharmacy 79,Pharmacy,,1705 W Audie Murphy Pkwy,Farmersville,Collin,1705 W Audie Murphy Pkwy,75442,33.1588567808075,-96.3887366821937,0,90,0,0,205,295,0,(972) 782-8601,https://www.brookshires.com/covid-19-information,,04/17/2021      ,10:36:52        ,-96.388737,33.158857
13,LC PHARMA OF UVALDE,Federal Allocation,,1001 East Main St,Uvalde,Uvalde,1001 East Main St,78802,29.2151634,-99.7722399,0,90,0,0,0,90,0,830-591-2014,,,04/17/2021      ,12:06:55        ,-99.77224,29.215163
14,Walgreens Pharmacy 05792,Pharmacy,,,,,"102 N TIMBERLAND DR Lufkin, TX 75901",,31.3359629184299,-94.7019082182473,620,440,622,450,545,1605,1072,(936) 699-2916,https://www.walgreens.com/locator/walgreens-102+n+timberland+dr-lufkin-tx-75901/id=5792,,04/17/2021      ,16:24:40        ,-94.701908,31.335963
15,Walgreens Pharmacy 06750,Pharmacy,,,,,"18535 CHAMPION FOREST DR Spring, TX 77379",,30.0336842588354,-95.5552597294048,23,0,0,0,60,83,0,(281) 370-4961,https://www.walgreens.com/locator/walgreens-18535+champion+forest+dr-spring-tx-77379/id=6750,,04/17/2021      ,11:10:11        ,-95.55526,30.033684
16,Walgreens Pharmacy 03570,Pharmacy,,,,,"890 N RESLER DR El Paso, TX 79912",,31.8589612078799,-106.558045873761,223,0,2,0,0,223,2,(915) 584-1359,https://www.walgreens.com/locator/walgreens-890+n+resler+dr-el+paso-tx-79912/id=3570,,04/17/2021      ,09:30:26        ,-106.558046,31.858961
17,James Haden Md,Medical Practice,,1000 College Ave,Fort Worth,Tarrant,1000 College Ave,76104,32.734023622579,-97.3350817977149,0,90,0,40,0,90,40,(817) 336-8855,http://www.allergyfortworth.com/,,04/13/2021      ,14:23:33        ,-97.335082,32.734024
18,Irving Regional Dialysis Center,Medical Practice,,2535 W Airport Freeway,Irving,Dallas,2535 W Airport Freeway,75062,32.8376374826013,-96.9808720410712,0,0,0,20,0,0,20,(972) 252-1656,http://www.americanrenaldallas.com/,,04/17/2021      ,22:11:49        ,-96.980872,32.837637
19,Internal Medicine Associates Of Plano,Medical Practice,,6124 W Parker Rd Ste 234,Plano,Collin,6124 W Parker Rd Ste 234,75093,33.045061071266,-96.8335574635417,0,600,0,10,0,600,10,(972) 468-9999,http://www.planointernist.com/,,03/25/2021      ,08:22:55        ,-96.833557,33.045061
20,Walgreens Pharmacy 06715,Pharmacy,,W UNIVERSITY BLVD, Odessa,odessa,"1305 W UNIVERSITY BLVD Odessa, TX 79764",79764,31.8645123752942,-102.397163582645,30,0,30,0,0,30,30,(432) 580-0166,https://www.walgreens.com/locator/walgreens-1305+w+university+blvd-odessa-tx-79764/id=6715,,04/17/2021      ,08:03:18        ,-102.397164,31.864512
21,Medly Pharmacy,Federal Allocation,,,San Antonio,Bexar,13331 Nacogdoches Rd,78217,30.3195496,-97.7056526,0,0,0,0,100,100,0,,,,04/17/2021      ,09:56:08        ,-97.705653,30.31955
22,EVERETTS PHARMACY,Federal Allocation,,,SAN SABA,,401 W WALLACE ST , 76877,31.1957522186294,-98.7240171443211,0,0,0,0,25,25,0,(325) 372-3033,RXEVERETTE@GMAIL.COM,,04/17/2021      ,09:17:33        ,-98.724017,31.195752
23,Walgreens Pharmacy 03825,Pharmacy,,,North Richland Hills,,7151 GRAPEVINE HWY,76180,32.8244256994384,-97.2107392970719,0,0,0,0,65,65,0,(817) 514-9474,https://www.walgreens.com/locator/walgreens-7151+grapevine+hwy-north+richland+hills-tx-76180/id=3825,,04/13/2021      ,08:40:39        ,-97.210739,32.824426
24,BRUCES PHARMACY,Pharmacy,,6001 39th St,Groves,Jefferson,6001 39th Street,77619,29.9450846,-93.9221114,0,54,0,0,0,54,0,(409) 962-4431,,,04/17/2021      ,06:05:49        ,-93.922111,29.945085
25,Brookshires Pharmacy 93,Pharmacy,,400 W Central Ave,Comanche,Comanche,400 W Central Ave,76442,31.8973625413595,-98.6074729722959,0,0,0,0,70,70,0,(325) 356-5276,https://www.brookshires.com/covid-19-information,,04/17/2021      ,16:40:42        ,-98.607473,31.897363
26,Brookshires Pharmacy 32,Pharmacy,,880 E State Highway 243,Canton,Van Zandt,880 E State Highway 243,75103,32.5462473242294,-95.850013241102,0,100,0,0,290,390,0,(903) 567-2403,https://www.brookshires.com/covid-19-information,,04/17/2021      ,17:55:41        ,-95.850013,32.546247
27,Super 1 Pharmacy 630,Pharmacy,,100 N 15th St,Corsicana,Navarro,100 N 15th St,75110,32.0913726706482,-96.4693651425045,0,80,0,0,0,80,0,(903) 874-2152,https://www.brookshires.com/covid-19-information,,04/16/2021      ,14:43:49        ,-96.469365,32.091373
28,Brookshires Pharmacy 77,Pharmacy,,800 N Main St Ste A,Corsicana,Navarro,800 N Main St Ste A,75110,32.0997128738554,-96.4694653900666,0,100,0,0,195,295,0,(903) 874-1111,https://www.brookshires.com/covid-19-information,,04/17/2021      ,16:06:38        ,-96.469465,32.099713
29,Brookshires Pharmacy 14,Pharmacy,,925 Clarksville St,Paris,Lamar,925 Clarksville St,75460,33.6602295885028,-95.5462548273323,0,85,0,0,60,145,0,(903) 785-3297,https://www.brookshires.com/covid-19-information,,04/17/2021      ,10:17:02        ,-95.546255,33.66023
30,Brookshires Pharmacy 90,Pharmacy,,100 Peplow Dr,Robinson,McLennan,100 Peplow Dr,76706,31.4794903429536,-97.1196499988852,0,100,0,0,100,200,0,(254) 662-6403,https://www.brookshires.com/covid-19-information,,04/17/2021      ,13:53:50        ,-97.11965,31.47949
31,Brookshires Pharmacy 60,Pharmacy,,502C E. Goode,Quitman,Wood,502C E. Goode,75783,32.7957802,-95.44676,0,90,0,0,205,295,0,(903) 763-1420,https://www.brookshires.com/covid-19-information,,04/17/2021      ,17:03:05        ,-95.44676,32.79578
32,Walgreens Pharmacy 09180,Pharmacy,,,,,"11103 W MILITARY DR San Antonio, TX 78251",,29.4485953900637,-98.7128663668722,48,0,0,0,60,108,0,(210) 679-5267,https://www.walgreens.com/locator/walgreens-11103+w+military+dr-san+antonio-tx-78251/id=9180,,04/17/2021      ,14:21:19        ,-98.712866,29.448595
33,Walgreens Pharmacy 07599,Pharmacy,,,,,"7304 LOUETTA RD Spring, TX 77379",,30.0218978725767,-95.5251860300331,54,0,0,0,0,54,0,(281) 379-1317,https://www.walgreens.com/locator/walgreens-7304+louetta+rd-spring-tx-77379/id=7599,,04/17/2021      ,18:01:00        ,-95.525186,30.021898
34,Walgreens Pharmacy 07963,Pharmacy,,,,,"2906 HOUSTON HWY Victoria, TX 77901",,28.8127756126209,-96.9735039367591,1542,100,0,0,70,1712,0,(361) 576-5458,https://www.walgreens.com/locator/walgreens-2906+houston+hwy-victoria-tx-77901/id=7963,,04/16/2021      ,19:22:31        ,-96.973504,28.812776
35,Walgreens Pharmacy 07964,Pharmacy,,,,,"5204 N NAVARRO ST Victoria, TX 77904",,28.8435372447648,-96.9993728815118,38,50,20,50,90,178,70,(361) 576-5238,https://www.walgreens.com/locator/walgreens-5204+n+navarro+st-victoria-tx-77904/id=7964,,04/17/2021      ,17:07:05        ,-96.999373,28.843537
36,Walgreens Pharmacy 15638,Pharmacy,,,,,"26288 KUYKENDAHL RD Tomball, TX 77375",,30.1415064101971,-95.5507001721837,36,0,0,0,0,36,0,(281) 378-2995,https://www.walgreens.com/locator/walgreens-26288+kuykendahl+rd-tomball-tx-77375/id=15638,,04/17/2021      ,14:55:26        ,-95.5507,30.141506
37,"Conviva Care Solutions, Inc.",Medical Practice,,711 Navarro Street,San Antonio,Bexar,711 NAVARRO ST STE 600 SAN ANTONIO 78205,78205,29.4284313837975,-98.4898819556635,0,40,0,0,0,40,0,,,,04/16/2021      ,16:20:41        ,-98.489882,29.428431
38,Conviva Cliffside,Other,,1211b Cliff Drive,El Paso,El Paso,1211b Cliff Drive,79902,31.7755794,-106.4898499,0,0,0,0,20,20,0,,,,04/16/2021      ,16:18:35        ,-106.48985,31.775579
39,Walgreens Pharmacy 07251,Pharmacy,,, Houston ,,11038 Westheimer Rd,77042,,,0,90,0,0,70,160,0,,,,04/17/2021      ,17:04:31        ,,
40,"Dr. Mario Sanchez, DO",Other,V,106 N Main St,La Feria,Cameron,"106 N Main St, La Feria, TX 78559",78559,26.1582,-97.82401,0,10,0,0,0,10,0,956-797-2002,,,04/16/2021      ,17:11:26        ,-97.82401,26.1582
41,El Paso Pulmonary Association West,Medical Practice,,4305 N Mesa St,El Paso,El Paso,4305 N Mesa St Ste A,79902,31.7973560010071,-106.511277419753,0,0,0,0,25,25,0,(915) 532-2477,http://www.elpasopulmonary.com/,,04/16/2021      ,16:08:42        ,-106.511277,31.797356
42,CHRISTUS ST. MICHAEL HOSPITAL,Vaccine Hub,F,2600 Saint Michael Dr,Texarkana,Bowie,2600 Saint Michael Dr,75503,33.462346803147,-94.0750877438464,0,800,400,80,2150,2950,480,(903) 614-1000,https://www.christushealth.org/St-Michael?utm_source=organic&utm_medium=GMB&utm_campaign=website&y_source=1_MTUzNzY1OTMtNzE1LWxvY2F0aW9uLmdvb2dsZV93ZWJzaXRlX292ZXJyaWRl,,04/16/2021      ,11:37:40        ,-94.075088,33.462347
43,Imperical Care Internal Med,Other,,600 E Taylor,Sherman,Grayson,600 E Taylor,75090,33.6558617,-96.6104384,0,10,0,0,0,10,0,,,,04/14/2021      ,14:16:24        ,-96.610438,33.655862
44,Gulf Coast Health Center Inc.,Other,,,Port Arthur,Jefferson,2548 Memorial Blvd,77640,29.904135,-93.936165,0,30,0,0,500,530,0,(409) 983-1161,,,04/16/2021      ,17:25:54        ,-93.936165,29.904135
45,Zarzamora Healthcare LLC,Community Clinic,,2716 Sw Military Dr,San Antonio,Bexar,2716 SW MILITARY DR STE 102 San Antonio 78224,78224,29.3563962114303,-98.5401200882084,0,60,0,0,0,60,0,,,,04/16/2021      ,13:49:37        ,-98.54012,29.356396
46,Red River Pharmacy Long Term Care,Pharmacy,F,1550 Moores Lane,TEXARKANA,BOWIE,"1550 Moores Lane, Suite A",75503,33.4731022,-94.0602729,0,60,0,370,0,60,370,,,,04/14/2021      ,11:59:25        ,-94.060273,33.473102
47,University Health System - San Antonio UHSSA,Vaccine Hub,P,4522 Fredericksburg Rd,San Antonio,Bexar,4522 Fredericksburg Rd,78201,29.4928487820863,-98.551282944107,0,0,0,0,0,0,0,210-644-1960,https://www.universityhealthsystem.com/coronavirus-covid19/vaccine?utm_source=corpcomm&utm_medium=web&utm_campaign=wecandoitsa_typed&utm_content=typed_URL,,04/17/2021      ,08:59:23        ,-98.551283,29.492849
48,Phillips 66 Health Services Borger,Other,,Spur 119 North,Borger,Hutchinson,"State Highway 119 Spur, Borger, TX, USA",79008,35.6766805,-101.3954936,0,180,0,0,0,180,0,,,,04/16/2021      ,17:20:47        ,-101.395494,35.676681
49,Phillips 66 Health Services Old Ocean,Other,,8189 Old FM 524,Old Ocean,Brazoria,8189 Old FM 524,77463,29.0794548,-95.7490238,0,240,0,0,0,240,0,,,,04/09/2021      ,17:33:22        ,-95.749024,29.079455
50,Montana Vista Community Partnership,Other,,14900 GREG DRIVE STE B ,EL PASO,EL PASO,14900 GREG DRIVE STE B EL PASO 79938,79938,31.798157,-106.162859,0,200,0,200,0,200,200,915-533-7057,,,04/06/2021      ,14:35:21        ,-106.162859,31.798157
51,Randol Mill LTC Pharmacy,Federal Allocation,,1014 N Fielder Rd Suite 110,Arlington,Tarrant,"1014 North Fielder Road, Arlington, TX, USA",76012,32.7492602,-97.1323622,0,170,0,0,0,170,0,,,,04/17/2021      ,12:19:39        ,-97.132362,32.74926
52,Tejas Healthcare Clinic,Other,,890 E Travis St,La Grange,Fayette,890 E Travis St,78945,29.90982,-96.86735,0,66,0,1,0,66,1,(979) 968-2000,,,04/16/2021      ,15:57:49        ,-96.86735,29.90982
53,The Friendly Pharmacy ,Federal Allocation,,3302 Boca Chica Blvd STE 107,Brownsville,Cameron,"3302 Boca Chica Blvd STE 107, Brownsville, TX 78521",78521,25.9208268757284,-97.4690303750826,0,105,0,0,105,210,0,(956) 544-1200,https://www.unitedfriendlypharmacy.com/,,04/17/2021      ,15:18:48        ,-97.46903,25.920827
54,Hope Community Medicine - San Augustine,Community Clinic,,109 E Main St,San Augustine,San Augustine,"109 E Main St, San Augustine, Texas 75972",75972,31.5293677810251,-94.1092439154672,0,199,0,0,0,199,0,(936) 275-4420,http://www.hcmtx.org/,,04/16/2021      ,15:05:47        ,-94.109244,31.529368
55,Umc Internal Medicine,Medical Practice,,808 Joliet Ave,Lubbock,Lubbock,808 Joliet Ave,79415,33.5878220077547,-101.889357539774,0,190,0,0,0,190,0,(806) 761-0566,https://www.umchealthsystem.com/medical-services/umc-clinics/details/umc-internal-medicine,,04/17/2021      ,06:00:34        ,-101.889358,33.587822
56,DSHS - Gainesville,Other,,1714 Justice Center Blvd Ste A,Gainesville,Cooke,1714 Justice Center Blvd Ste A,76240,33.64318,-97.1685,0,30,0,20,0,30,20,,,,04/16/2021      ,15:19:36        ,-97.1685,33.64318
57,Pharr- San Juan- Alamo ISD,Other,,,San Juan,,704 W Ridge Rd,78589,26.3088061436282,-98.1430067821001,0,9970,0,0,0,9970,0,(956)354-2016,,,04/17/2021      ,21:18:14        ,-98.143007,26.308806
58,Presbyterian Pan American,Other,,223 N Fm 772,Kingsville,Kleberg,223 N FM 772 KINGSVILLE 78363,78363,27.3908721855471,-97.8224169305685,0,50,0,0,0,50,0,,,,04/13/2021      ,16:51:14        ,-97.822417,27.390872
59,Austin Regional Clinic Far West,Medical Practice,,6835 Austin Center Blvd,Austin,Travis,6835 Austin Center Blvd,78731,30.3510824545991,-97.7511104372101,2000,0,0,0,0,2000,0,(512) 346-6611,https://www.austinregionalclinic.com/clinics/arc-far-west?utm_source=online-directory&utm_campaign=yext&utm_content=location-fw,,04/16/2021      ,08:44:00        ,-97.75111,30.351082
60,Arlington Fire Department,Vaccine Hub,,620 W Division St,Arlington,Tarrant,620 W Division St,76011,32.73910246917,-97.1148560089594,0,7000,1363,7880,45997,52997,9243,817-248-6299 Option 7,www.tarrantcounty.com/COVIDshot,,04/16/2021      ,10:46:40        ,-97.114856,32.739102
61,Dr Andres Garcia Zuniga MD PA,Medical Practice,,,Laredo,, 6416 Polaris Drive,78041,27.5574,-99.45636,0,233,0,0,0,233,0,(956) 568-5140,,,04/10/2021      ,10:26:11        ,-99.45636,27.5574
62,Archer City RHC/Archer Family Clinic,Other,,404 East Chestnut,Archer City,Archer,"404 E Chestnut St, Archer City, TX 76351",76351,33.5913933358261,-98.6208228047479,0,50,0,0,0,50,0,940-574-2580,https://olneyhamiltonhospital.com/services/archer-family-clinic/,,04/14/2021      ,09:20:45        ,-98.620823,33.591393
63,Uthealth Tyler Hospital,Hospital,,1000 S BECKHAM AVE,Tyler,,1000 S BECKHAM AVE,75701,32.3385702,-95.2912161,0,0,0,102,0,0,102,,,,04/13/2021      ,12:14:16        ,-95.291216,32.33857
64,North East ISD,Other,,,San Antonio,,10333 BROADWAY ST,78217,29.5351334474088,-98.4482464527131,0,207,0,0,0,207,0,,,,04/16/2021      ,16:52:46        ,-98.448246,29.535133
65,BJP Healthcare LLC,Pharmacy,,1724 S colorado Street,lockhart,caldwell,"1724 South Colorado Street, Lockhart, TX, USA",78644,29.861939,-97.667846,0,50,0,0,340,390,0,(512) 398-2288,,,04/16/2021      ,17:01:49        ,-97.667846,29.861939
66,Northwest Texas Hospital Pharmacy,Hospital,,1501 S Coulter St,Amarillo,Potter,1501 S Coulter St,79106,35.1997580869122,-101.921855687127,242,0,0,0,0,242,0,(806) 354-1000,https://www.nwths.com/?utm_source=google-business&utm_medium=organic&utm_campaign=homepage,,04/12/2021      ,16:22:22        ,-101.921856,35.199758
67,SPLENDORA PHARMACY,Federal Allocation,,13841 Hwy 59 Ste C,Splendora,Montgomery,13841 HIGHWAY 59 STE C Splendora 77372,77372,30.2430980912298,-95.1571733863393,0,30,0,0,0,30,0,,,,04/16/2021      ,17:10:31        ,-95.157173,30.243098
68,EAGLE LAKE DRUGSTORE,Pharmacy,,702 S MCCARTY AVE,Eagle Lake,Colorado,702 S MCCARTY AVE EAGLE LAKE 77434,77434,29.5842097340765,-96.3397843860478,0,0,0,0,30,30,0,,,,04/17/2021      ,08:12:50        ,-96.339784,29.58421
69,Evins Regional Juvenile Center/Utmb,Other,,,Edinburg,Hidalgo,3801 E Monte Cristo,78541,26.3324393,-98.1230482,0,80,0,0,80,160,0,,,,04/13/2021      ,18:18:18        ,-98.123048,26.332439
70,Falls Community Hospital & Clinic,Vaccine Hub,M,322 Coleman Street, Marlin,Falls,"307 Live Oak Street Marlin, TX  76661",76661,31.307442,-96.894062,1170,0,1170,0,70,1240,1170,254-252-2667,http://www.fallshospital.com/,,04/13/2021      ,09:10:03        ,-96.894062,31.307442
71,Health Plus Pharmacy,Federal Allocation,,,Mission,Hidalgo,3401 West Mile 5 Road Suite 2,78574,26.2927109475273,-98.3565826578856,0,0,0,0,65,65,0,(956) 424-3535,,,04/17/2021      ,09:20:34        ,-98.356583,26.292711
72,Livingston Pharmacy ,Pharmacy,,,LIVINGSTON ,,"714 W Church St, Livingston, TX 77351",77351,30.711232,-94.939349,0,170,0,0,0,170,0,(936) 327-5519,http://www.localpharmacyrx.com/livingston-pharmacy,,04/15/2021      ,16:50:10        ,-94.939349,30.711232
73,Irving Health Center Parkland Health And Hospital,Community Clinic,E,1800 N Britain Rd,Irving,Dallas,1800 N Britain Rd,75061,32.8332499103799,-96.9443967691068,0,0,0,100,0,0,100,214-266-3031,https://www.parklandhospital.com/locations/irving-health-center-7,,04/17/2021      ,00:25:17        ,-96.944397,32.83325
74,HILL REGIONAL HOSPITAL,Hospital,M,101 Circle Dr,Hillsboro,Hill,101 Circle Dr,76645,32.0122258374529,-97.0992588797115,0,490,0,10,90,580,10,(254) 580-8500,https://www.hillregionalhospital.com/?utm_campaign=gmb-website&utm_medium=organic&utm_source=google,,04/16/2021      ,12:48:05        ,-97.099259,32.012226
75,"Tesoro Medical Care., P.A.",Medical Practice,,101 W Village Blvd A,Laredo,Webb,"101 W Village Blvd A, Laredo, TX 78041",78041,27.56567,-99.49793,0,150,0,0,0,150,0,(956) 727-2997,,,04/16/2021      ,11:27:02        ,-99.49793,27.56567
76,"Maxhealth Family, Internal And Sports Medicine",Medical Practice,,5207 Heritage Ave,Colleyville,Tarrant,"5207 Heritage Ave, Colleyville, TX, USA",76034,32.88489,-97.1043186,0,563,0,0,0,563,0,,,,04/17/2021      ,04:28:07        ,-97.104319,32.88489
77,MEMORIAL HERMANN MEMORIAL CITY,Vaccine Hub,Q,921 Gessner Rd,Houston,Harris,921 Gessner Rd,77024,29.7808159840205,-95.544491864529,0,0,0,0,0,0,0,833-772-2864,https://memorialhermann.org/covid19vaccine,,04/16/2021      ,14:18:49        ,-95.544492,29.780816
78,St Hope Foundation- GP,Other,Q,255 Northpoint Dr Suite 200,Houston,Harris,255 Northpoint Dr,77060,29.94166641,-95.40581735,0,200,0,300,190,390,300,(713) 778-1300,,,04/16/2021      ,09:20:58        ,-95.405817,29.941666
79,UT Health Dell Medical School,Vaccine Hub,,1601 Trinity Avenue,Austin,Travis,1601 Trinity Avenue,78712,30.2769715107404,-97.7356333368157,0,0,0,0,0,0,0,1-833-UTCARES,https://uthealthaustin.org/patient-resources/covid-19-updates/covid-19-vaccination,,04/17/2021      ,10:43:36        ,-97.735633,30.276972
80,Kelsey Seybold Main Campus,Medical Practice,,2727 West Holcombe Blvd,Houston,Harris,2727 West Holcombe Blvd,77025,29.7060425345347,-95.4216699932803,12654,0,0,0,0,12654,0,(713) 442-0000,https://www.kelsey-seybold.com/find-a-location/main-campus,,04/16/2021      ,08:46:09        ,-95.42167,29.706043
81,Texas Oncology Cancer Center Mcallen  ,Other,V,1901 South Second Street,McAllen,Hidalgo,1901 South Second Street,78503,26.1848712746336,-98.2242193333745,0,0,0,290,0,0,290,956-687-5150,,,04/16/2021      ,10:34:32        ,-98.224219,26.184871
82,IDEA Public Schools RGV HQ,Other,,2115 W Pike Blvd,Weslaco,Hidalgo,2115 W Pike Blvd,78596,26.1692079652539,-98.0121226036052,1170,0,0,0,0,1170,0,,,,04/16/2021      ,10:48:12        ,-98.012123,26.169208
83,KEARNEY PARK PHARMACY,Federal Allocation,,502 W Kearney Stste 900,Mesquite,Dallas,502 W Kearney Stste 900,75149,32.7704354,-96.6056817,0,0,0,0,75,75,0,,,,04/14/2021      ,13:05:09        ,-96.605682,32.770435
84,Mendoza's Pharmacy LLC,Federal Allocation,,102 S. University Blvd.,Kingsville,Kleberg,102 S University Blvd Kingsville 78363,78363,27.5169150159452,-97.8819713305665,0,0,0,0,200,200,0,,,,04/15/2021      ,17:35:10        ,-97.881971,27.516915
85,OTTO KAISER MEMORIAL - KENEDY,Hospital,P,3349 US-181,Kenedy,Karnes,"3349 US-181, Kenedy, TX 78119",78119,28.8511619108883,-97.8785406310243,2088,0,0,0,0,2088,0,(830) 583-3401,http://www.okmh.org/,,04/15/2021      ,07:28:53        ,-97.878541,28.851162
86,Kk Pharmacy,Pharmacy,,1411 West American Blvd,Muleshoe,Bailey,1411 West American Blvd,79347,34.2336625579604,-102.737287738701,0,0,1014,0,0,0,1014,(806) 272-7511,https://www.mygnp.com/pharmacies/kks-pharmacy-51-dallas-tx-75233/?utm_source=google&utm_medium=local&utm_campaign=localmaps&utm_content=5904493,,04/16/2021      ,09:41:54        ,-102.737288,34.233663
87,Trinity University Student Health Services,Other,,,San Antonio,Bexar,607 Kings Court,78212,29.4589304,-98.4866516,0,0,0,0,600,600,0,,,,04/17/2021      ,22:28:23        ,-98.486652,29.45893
88,Hometown Healthcare Cotulla ,Medical Practice,,408 N Giraud St,Cotulla,La Salle,"408 North Giraud Street, Cotulla, TX 78014",78014,28.4396415,-99.2387,0,150,0,0,0,150,0,830-879-2279,no,,04/16/2021      ,10:30:08        ,-99.2387,28.439642
89,PHARMACIA SANA,Federal Allocation,,,Irving,,1111 West Airport Freeway Suite 151,75062,32.8382815270746,-96.9610201650742,0,0,0,0,5,5,0,(469) 647-5291,,,04/16/2021      ,15:42:29        ,-96.96102,32.838282
90,Chevron Houston Medical Clinic,Community Clinic,,1400 Smith St,Houston,Harris,1400 Smith St Houston 77002,77002,29.7558478659396,-95.3715048016928,0,682,0,0,0,682,0,(936) 443-8793,,,04/16/2021      ,16:46:04        ,-95.371505,29.755848
91,Market Street Pharmacy 566,Pharmacy,,1929 Preston Rd,Plano,Collin,1929 Preston Rd,75093,33.0263794486553,-96.7952133965562,204,0,0,0,380,584,0,(972) 713-5515,https://local.pharmacy.marketstreetunited.com/tx/plano/1929-preston-rd.html,,04/17/2021      ,09:34:26        ,-96.795213,33.026379
92,COSTCO PHARMACY 669,Federal Allocation,,2601 E. State Hwy 114,Southlake,Tarrant,2601 E STATE HIGHWAY 114 SOUTHLAKE 76092,76092,32.9417924784726,-97.1114111286175,0,40,0,0,0,40,0,,,,04/17/2021      ,10:42:37        ,-97.111411,32.941792
93,BEAUMONT ELITE EMERGENCY CTR LLC,Medical Practice,R,4004 College Street, Beaumont,Jefferson,"4004 College Street, Beaumont, TX, 77707",77707,30.068767,-94.135634,0,110,0,0,0,110,0,(409) 840-4004,https://beaumontemergencycenter.com/,,04/17/2021      ,08:35:48        ,-94.135634,30.068767
94,Med Clinic,Community Clinic,,3705 9th Ave,Port Arthur,Jefferson,3705 9th Ave Port Arthur 77642,77642,29.9204599597518,-93.938407086345,0,66,0,0,0,66,0,,,,04/16/2021      ,08:53:15        ,-93.938407,29.92046
95,Kroger Pharmacy 974,Pharmacy,,,Baytown ,,1700 N Alexander Dr ,77520,30.2801866397388,-97.7094573040521,108,10,0,0,100,218,0,,,,04/15/2021      ,08:05:00        ,-97.709457,30.280187
96,Kroger Pharmacy 950,Other,R,1600 N 16th St,Orange,Orange,"1600 N 16th St Orange, TX 77630",77630,30.1058,-93.7473,174,140,0,0,95,409,0,(409) 883-8521,,,04/15/2021      ,08:05:00        ,-93.7473,30.1058
97,Kroger Pharmacy 367,Pharmacy,,,Humble ,,3820 Atascocita Road ,77396,29.9791935971336,-95.215102188603,54,0,0,0,85,139,0,,,,04/15/2021      ,08:05:00        ,-95.215102,29.979194
98,Kroger Pharmacy 359,Pharmacy,,,Kingwood ,,25651 Highway 59 N ,77339,30.0721816766656,-95.2431616174374,138,0,0,0,100,238,0,,,,04/15/2021      ,08:05:00        ,-95.243162,30.072182
99,Kroger Pharmacy 354,Pharmacy,,,Pasadena ,,3550 Spencer Hwy ,77504,29.6638645973941,-95.1895228611093,138,0,0,0,65,203,0,,,,04/15/2021      ,08:05:00        ,-95.189523,29.663865
100,Kroger Pharmacy 351,Pharmacy,,,Houston ,,14710 Woodforest Blvd ,77015,29.7898177143536,-95.1593137444265,138,0,0,0,50,188,0,,,,04/15/2021      ,08:05:00        ,-95.159314,29.789818
101,Kroger Pharmacy 342,Pharmacy,,,Seabrook ,,1905 El Mar Ln ,77586,29.5692024016703,-95.0255219174458,126,0,0,0,10,136,0,,,,04/15/2021      ,08:05:00        ,-95.025522,29.569202
102,Kroger Pharmacy 337,Pharmacy,,,Pasadena ,,2619 Red Bluff ,77506,29.6969068942075,-95.1736324867562,114,0,0,0,65,179,0,,,,04/15/2021      ,08:05:00        ,-95.173632,29.696907
103,Kroger Pharmacy 331,Pharmacy,,,Houston ,,12620 Woodforest Blvd Ste 200 ,77015,29.7902147577518,-95.2009311886062,144,0,0,0,15,159,0,,,,04/15/2021      ,08:05:00        ,-95.200931,29.790215
104,Kroger Pharmacy 328,Pharmacy,,,Beaumont ,,3845 Phelan Blvd ,77707,30.0836473703952,-94.1420873139999,186,0,0,0,30,216,0,,,,04/15/2021      ,08:05:00        ,-94.142087,30.083647
105,Kroger Pharmacy 325,Pharmacy,,,Beaumont ,,3965 Dowlen Rd,77706,30.1172473151145,-94.1698468309289,198,0,0,0,45,243,0,,,,04/15/2021      ,08:05:00        ,-94.169847,30.117247
106,Kroger Pharmacy 322,Other,,,Pasadena ,,6767 Spencer Hwy,77505,29.665475,-95.135078,132,0,0,0,65,197,0,,,,04/15/2021      ,08:05:00        ,-95.135078,29.665475
107,Kroger Pharmacy 319,Pharmacy,,, La Porte ,,1300 FM 655 RD,77571,29.2996326721142,-95.5391229155986,90,0,0,0,40,130,0,,,,04/15/2021      ,08:05:00        ,-95.539123,29.299633
108,Kroger Pharmacy 318,Pharmacy,,19250 West Lake Houston Pkwy,Humble,Harris,19250 West Lake Houston Pkwy,77346,30.0010900106286,-95.1608610410061,120,0,0,0,35,155,0,(281) 812-4499,http://www.kroger.com/stores/details/034/00318?cid=loc_03400318PP_gmb,,04/15/2021      ,08:05:00        ,-95.160861,30.00109
109,Kroger Pharmacy 310,Pharmacy,,3410 Northpark Dr,Kingwood,Harris,3410 Northpark Dr,77345,30.067865058659,-95.1874054406629,144,20,0,0,80,244,0,(281) 361-7404,http://www.kroger.com/stores/details/034/00310?cid=loc_03400310PP_gmb,,04/15/2021      ,08:05:00        ,-95.187405,30.067865
110,Kroger Pharmacy 190,Pharmacy,,9475 Fm 1960 Bypass Rd W,Humble,Harris,9475 Fm 1960 Bypass Rd W,77338,30.0050462145868,-95.2831780652143,1020,0,0,0,20,1040,0,(281) 973-5090,http://www.kroger.com/stores/details/034/00190?cid=loc_03400190PP_gmb,,04/15/2021      ,08:05:00        ,-95.283178,30.005046
111,Kroger Pharmacy 150,Pharmacy,,6315 Garth Rd,Baytown,Harris,6315 Garth Rd,77521,29.7921339840592,-94.9842749605813,186,0,0,0,55,241,0,(346) 216-4155,http://www.kroger.com/stores/details/034/00150?cid=loc_03400150PP_gmb,,04/15/2021      ,08:05:00        ,-94.984275,29.792134
112,Kroger Pharmacy 138,Pharmacy,,22030 Market Place Dr,New Caney,Montgomery,22030 Market Place Dr,77357,30.1332999906192,-95.2362089861353,66,0,0,0,100,166,0,(281) 747-5089,http://www.kroger.com/stores/details/011/00320?cid=loc_01100320PP_gmb,,04/15/2021      ,08:05:00        ,-95.236209,30.1333
113,Kroger Pharmacy 346,Pharmacy,,,HOUSTON,,1505 WIRT RD , 77055,29.7968582798374,-95.4864223866717,0,100,78,0,0,100,78,,,,04/15/2021      ,08:05:00        ,-95.486422,29.796858
114,Kroger Pharmacy 739,Other,,,Houston,,9125 W Sam Houston Pkwy ,77064,29.9032281,-95.5535627,162,40,0,0,5,207,0,281-447-0701,,,04/15/2021      ,08:05:00        ,-95.553563,29.903228
115,Kroger Pharmacy 737,Pharmacy,,12400 Fm 1960 Rd W,Houston,Harris,12400 Fm 1960 Rd W,77065,29.9224241310373,-95.6036239283178,60,0,0,0,50,110,0,(832) 237-4890,https://www.kroger.com/stores/details/034/00737?cid=loc_03400737_gmb,,04/15/2021      ,08:05:00        ,-95.603624,29.922424
116,Kroger Pharmacy 735,Pharmacy,,12555 Briar Forest Dr,Houston,Harris,12555 Briar Forest Dr,77077,29.7538125094739,-95.6053060086469,0,100,0,0,0,100,0,(281) 496-1092,http://www.kroger.com/stores/details/021/00735?cid=loc_02100735PP_gmb,,04/15/2021      ,08:05:00        ,-95.605306,29.753813
117,Kroger Pharmacy 733,Pharmacy,,1550 W Grand Pkwy S,Katy,Fort Bend,1550 W Grand Pkwy S,77494,29.758022068887,-95.7768191098131,0,30,144,0,55,85,144,(281) 693-0606,http://www.kroger.com/stores/details/034/00733?cid=loc_03400733PP_gmb,,04/15/2021      ,08:05:00        ,-95.776819,29.758022
118,Kroger Pharmacy 396,Pharmacy,,6350 N Eldridge Pkwy,Houston,Harris,6350 N Eldridge Pkwy,77041,29.8651947173594,-95.6082534210792,12,0,0,0,0,12,0,(713) 896-8487,http://www.kroger.com/stores/details/034/00396?cid=loc_03400396PP_gmb,,04/15/2021      ,08:05:00        ,-95.608253,29.865195
119,Kroger Pharmacy 392,Pharmacy,,6425 Fm 1464 Rd,Richmond,Fort Bend,6425 Fm 1464 Rd,77407,29.7082364557815,-95.6880609577931,0,140,0,0,0,140,0,(281) 277-2242,http://www.kroger.com/stores/details/034/00392?cid=loc_03400392PP_gmb,,04/15/2021      ,08:05:00        ,-95.688061,29.708236
120,Kroger Pharmacy 378,Pharmacy,,6055 Fry Rd,Katy,Harris,6055 Fry Rd,77449,29.8605707566535,-95.7202358989608,0,0,144,0,0,0,144,(281) 858-7613,http://www.kroger.com/stores/details/034/00378?cid=loc_03400378PP_gmb,,04/15/2021      ,08:05:00        ,-95.720236,29.860571
121,Kroger Pharmacy 374,Pharmacy,,8550 Highway 6 N,Houston,Harris,8550 Highway 6 N,77095,29.9014360131237,-95.6315950097663,90,100,0,0,100,290,0,(281) 463-2409,http://www.kroger.com/stores/details/034/00374?cid=loc_03400374PP_gmb,,04/15/2021      ,08:05:00        ,-95.631595,29.901436
122,Kroger Pharmacy 363,Pharmacy,,9919 Westheimer Elmside,Houston,Harris,9919 Westheimer Elmside,77042,29.7369941369336,-95.5446733327325,90,70,0,0,0,160,0,(713) 532-5858,http://www.kroger.com/stores/details/011/00363?cid=loc_01100363PP_gmb,,04/15/2021      ,08:05:00        ,-95.544673,29.736994
123,Kroger Pharmacy 362,Pharmacy,,17455 Spring Cypress Rd,Cypress,Harris,17455 Spring Cypress Rd,77429,29.9724810244384,-95.6906127443958,0,100,0,0,0,100,0,(281) 304-0971,http://www.kroger.com/stores/details/034/00362?cid=loc_03400362PP_gmb,,04/15/2021      ,08:05:00        ,-95.690613,29.972481
124,Kroger Pharmacy 356,Pharmacy,,,Houston,,1352 W 43rd St ,77018,29.8288181,-95.4320766,0,0,42,0,200,200,42,,,,04/15/2021      ,08:05:00        ,-95.432077,29.828818
125,Kroger Pharmacy 355,Pharmacy,,1938 W Gray St,Houston,Harris,1938 W Gray St,77019,29.7531311445653,-95.4054996256742,0,0,0,0,100,100,0,(713) 521-2317,http://www.kroger.com/stores/details/034/00355?cid=loc_03400355PP_gmb,,04/15/2021      ,08:05:00        ,-95.4055,29.753131
126,Kroger Pharmacy 352,Pharmacy,,18030 Fm 529 Rd,Cypress,Harris,18030 Fm 529 Rd,77433,29.8799374792169,-95.6855909785654,144,10,144,0,0,154,144,(281) 550-6942,http://www.kroger.com/stores/details/034/00352?cid=loc_03400352PP_gmb,,04/15/2021      ,08:05:00        ,-95.685591,29.879937
127,Kroger Pharmacy 349,Pharmacy,,1520 Eldridge Pkwy,Houston,Harris,1520 Eldridge Pkwy,77077,29.7575360023219,-95.6254174633075,0,100,0,0,0,100,0,(281) 496-7719,https://www.kroger.com/stores/details/034/00349?cid=loc_03400349_gmb,,04/15/2021      ,08:05:00        ,-95.625417,29.757536
128,Kroger Pharmacy 336,Pharmacy,,22150 Westheimer Pkwy,Katy,Harris,22150 Westheimer Pkwy,77450,29.7341873728367,-95.7544985207516,0,170,0,0,100,270,0,(281) 828-8778,http://www.kroger.com/stores/details/034/00136?cid=loc_03400136PP_gmb,,04/15/2021      ,08:05:00        ,-95.754499,29.734187
129,Kroger Pharmacy 312,Pharmacy,,1035 N Shepherd Dr,Houston,Harris,1035 N Shepherd Dr,77008,29.7893450315061,-95.409885288873,0,0,0,0,5,5,0,(713) 880-4661,,,04/16/2021      ,19:41:17        ,-95.409885,29.789345
130,Kroger Pharmacy 311,Pharmacy,,9330 Jones Rd,Houston,Harris,9330 Jones Rd,77065,29.9078861809838,-95.5845082437545,0,0,0,0,5,5,0,(281) 894-4859,http://www.kroger.com/stores/details/034/00311?cid=loc_03400311PP_gmb,,04/15/2021      ,08:05:00        ,-95.584508,29.907886
131,Kroger Pharmacy 309,Pharmacy,,1801 S Voss Rd,Houston,Harris,1801 S Voss Rd,77057,29.7484707225806,-95.5009583549111,36,50,0,0,0,86,0,(713) 780-7643,http://www.kroger.com/stores/details/029/00572P?cid=loc_02900572PP_gmb,,04/15/2021      ,08:05:00        ,-95.500958,29.748471
132,Kroger Pharmacy 179,Pharmacy,,,Cypress,,20355 Cypresswood Dr ,77433,29.9900018202319,-95.7368847472816,0,0,0,0,85,85,0,,,,04/15/2021      ,08:05:00        ,-95.736885,29.990002
133,Kroger Pharmacy 161,Pharmacy,,,Houston,,14344 Memorial Dr ,77079,29.7713486761154,-95.5991132848225,0,100,0,0,0,100,0,,,,04/15/2021      ,08:05:00        ,-95.599113,29.771349
134,Kroger Pharmacy 146,Pharmacy,,,Katy,,1712 Spring Green Blvd , 77494,29.7633499744725,-95.8429532511957,0,100,0,0,60,160,0,,,,04/15/2021      ,08:05:00        ,-95.842953,29.76335
135,Kroger Pharmacy 122,Pharmacy,,,Katy,Harris,2700 W Grand Pkwy N,77449,29.8129324585784,-95.7703180750279,0,40,0,0,45,85,0,,,,04/15/2021      ,08:05:00        ,-95.770318,29.812932
136,Kroger Pharmacy 121,Pharmacy,,,Katy,Fort Bend,9806 Gaston Rd,77494,29.736539,-95.810186,0,0,0,0,80,80,0,(346) 307-3055,,,04/15/2021      ,08:05:00        ,-95.810186,29.736539
137,Kroger Pharmacy 017,Pharmacy,,1440 Studemont St,Houston,Harris,1440 Studemont St,77007,29.77325517208,-95.3905712046615,6,20,0,0,0,26,0,(832) 708-2287,http://www.kroger.com/stores/details/034/00017?cid=loc_03400017PP_gmb,,04/15/2021      ,08:05:00        ,-95.390571,29.773255
138,Kroger Pharmacy 879,Pharmacy,,6805 N Main,The Colony,Denton,6805 N Main,75056,33.0981285511973,-96.8927226666794,24,0,0,0,100,124,0,(972) 370-1006,http://www.kroger.com/stores/details/016/00879?cid=loc_01600879PP_gmb,,04/15/2021      ,08:05:00        ,-96.892723,33.098129
139,Kroger Pharmacy 870,Pharmacy,,3770 Belt Line Rd,Addison,Dallas,3770 Belt Line Rd,75001,32.9505169917599,-96.8530190162608,30,0,0,0,100,130,0,(972) 620-0349,http://www.kroger.com/stores/details/035/00870?cid=loc_03500870PP_gmb,,04/15/2021      ,08:05:00        ,-96.853019,32.950517
140,Kroger Pharmacy 844,Pharmacy,,708 E Pipeline Rd,Hurst,Tarrant,708 E Pipeline Rd,76053,32.8235024925429,-97.1591106975261,72,0,0,0,70,142,0,(817) 285-8851,http://www.kroger.com/stores/details/035/00844?cid=loc_03500844PP_gmb,,04/15/2021      ,08:05:00        ,-97.159111,32.823502
141,Kroger Pharmacy 807,Pharmacy,,7201 Boulevard 26,North Richland Hills,Tarrant,7201 Boulevard 26,76180,32.8242517508681,-97.2273077057803,42,0,0,0,125,167,0,(817) 281-8310,http://www.kroger.com/stores/details/035/00807?cid=loc_03500807PP_gmb,,04/15/2021      ,08:05:00        ,-97.227308,32.824252
142,Kroger Pharmacy 599,Pharmacy,,4620 State Highway 121,Lewisville,Denton,4620 State Highway 121,75056,33.0637339563405,-96.8921995521021,0,0,0,0,115,115,0,(469) 535-2480,http://www.kroger.com/stores/details/035/00599?cid=loc_03500599PP_gmb,,04/15/2021      ,08:05:00        ,-96.8922,33.063734
143,Kroger Pharmacy 587,Pharmacy,,3939 Frankford Rd,Dallas,Denton,3939 Frankford Rd,75287,32.9970674836067,-96.8458219789182,36,0,0,0,100,136,0,(972) 662-1011,http://www.kroger.com/stores/details/035/00587?cid=loc_03500587PP_gmb,,04/15/2021      ,08:05:00        ,-96.845822,32.997067
144,Kroger Pharmacy 582,Pharmacy,,9135 Grapevine Hwy,North Richland Hills,Tarrant,9135 Grapevine Hwy,76180,32.8507213707682,-97.1923263296366,30,0,0,0,75,105,0,(817) 605-3937,http://www.kroger.com/stores/details/035/00582?cid=loc_03500582PP_gmb,,04/15/2021      ,08:05:00        ,-97.192326,32.850721
145,Kroger Pharmacy 577,Pharmacy,,7505 N Macarthur Blvd,Irving,Dallas,7505 N Macarthur Blvd,75063,32.9090515511039,-96.9588772200675,144,0,0,0,65,209,0,(972) 373-8158,http://www.kroger.com/stores/details/035/00577?cid=loc_03500577PP_gmb,,04/15/2021      ,08:05:00        ,-96.958877,32.909052
146,Kroger Pharmacy 576,Pharmacy,,4750 W Bailey Boswell Rd,Fort Worth,Tarrant,4750 W Bailey Boswell Rd,76179,32.8809734690063,-97.3955165764222,66,0,0,0,150,216,0,(682) 316-7508,http://www.kroger.com/stores/details/026/00576?cid=loc_02600576PP_gmb,,04/15/2021      ,08:05:00        ,-97.395517,32.880973
147,Kroger Pharmacy 572,Pharmacy,,3400 Fm 407 E,Argyle,Denton,3400 Fm 407 E,76226,33.0761631033735,-97.1291159731939,0,0,36,0,200,200,36,(940) 294-8332,http://www.kroger.com/stores/details/035/00572?cid=loc_03500572PP_gmb,,04/15/2021      ,08:05:00        ,-97.129116,33.076163
148,Kroger Pharmacy 562,Pharmacy,,12600 N Beach St,Fort Worth,Tarrant,12600 N Beach St,76244,32.9557919748854,-97.2813043451312,90,0,0,0,0,90,0,(817) 562-3901,http://www.kroger.com/stores/details/035/00562?cid=loc_03500562PP_gmb,,04/15/2021      ,08:05:00        ,-97.281304,32.955792
149,Kroger Pharmacy 542,Pharmacy,,3300 Texas Sage Trl,Fort Worth,Tarrant,3300 Texas Sage Trl,76177,32.9119824911057,-97.3093589941549,48,0,0,0,300,348,0,(817) 750-2041,http://www.kroger.com/stores/details/035/00542?cid=loc_03500542PP_gmb,,04/15/2021      ,08:05:00        ,-97.309359,32.911982
150,Kroger Pharmacy 537,Pharmacy,,2061 Rufe Snow Dr,Keller,Tarrant,2061 Rufe Snow Dr,76248,32.8970886454438,-97.2384487638425,24,0,0,0,100,124,0,(817) 605-8728,http://www.kroger.com/stores/details/026/00537?cid=loc_02600537PP_gmb,,04/15/2021      ,08:05:00        ,-97.238449,32.897089
151,Kroger Pharmacy 535,Pharmacy,,9150 N Tarrant Pkwy,North Richland Hills,Tarrant,9150 N Tarrant Pkwy,76182,32.903737715866,-97.1886891765467,18,0,0,0,0,18,0,(817) 918-3387,http://www.kroger.com/stores/details/035/00535?cid=loc_03500535PP_gmb,,04/15/2021      ,08:05:00        ,-97.188689,32.903738
152,Kroger Pharmacy 532,Pharmacy,,5241 North Tarrant Pkwy,Fort Worth,Tarrant,5241 North Tarrant Pkwy,76244,32.8951074569,-97.2710329933423,48,0,0,0,100,148,0,(817) 380-6181,http://www.kroger.com/stores/details/035/00532?cid=loc_03500532PP_gmb,,04/15/2021      ,08:05:00        ,-97.271033,32.895107
153,Kroger Pharmacy 530,Pharmacy,,1653 Basswood Blvd,Fort Worth,Tarrant,1653 Basswood Blvd,76131,32.87097750831,-97.3401840298158,0,0,0,60,0,0,60,(682) 316-6387,http://www.kroger.com/stores/details/035/00530?cid=loc_03500530PP_gmb,,04/15/2021      ,08:05:00        ,-97.340184,32.870978
154,Kroger Pharmacy 521,Pharmacy,,2109 Harwood Rd,Bedford,Tarrant,2109 Harwood Rd,76021,32.852137546452,-97.1331970380308,0,0,0,0,5,5,0,(817) 685-9628,http://www.kroger.com/stores/details/035/00521?cid=loc_03500521PP_gmb,,04/15/2021      ,08:05:00        ,-97.133197,32.852138
155,Kroger Pharmacy 516,Pharmacy,,976 Keller Pkwy,Keller,Tarrant,976 Keller Pkwy,76248,32.9322930159663,-97.2304940024533,24,0,0,0,100,124,0,(817) 431-5178,http://www.kroger.com/stores/details/035/00516?cid=loc_03500516PP_gmb,,04/15/2021      ,08:05:00        ,-97.230494,32.932293
156,Kroger Pharmacy 512,Pharmacy,,2110 E Southlake Blvd,Southlake,Tarrant,2110 E Southlake Blvd,76092,32.9428729894305,-97.1215089769669,0,0,0,0,135,135,0,(817) 421-7487,http://www.kroger.com/stores/details/035/00460?cid=loc_03500460PP_gmb,,04/15/2021      ,08:05:00        ,-97.121509,32.942873
157,Kroger Pharmacy 460,Pharmacy,,4038 Old Denton Rd,Carrollton,Denton,4038 Old Denton Rd,75007,33.0189513336025,-96.9150901105788,162,100,66,0,0,262,66,(972) 512-3366,http://www.kroger.com/stores/details/029/00391?cid=loc_02900391PP_gmb,,04/15/2021      ,08:05:00        ,-96.91509,33.018951
158,Kroger Pharmacy 456,Pharmacy,,2709 Cross Timbers Road,Flower Mound,Denton,2709 Cross Timbers Road,75028,33.0361759769895,-97.0717040435746,18,0,0,0,100,118,0,(972) 355-1086,http://www.kroger.com/stores/details/011/00456?cid=loc_01100456PP_gmb,,04/15/2021      ,08:05:00        ,-97.071704,33.036176
159,Kroger Pharmacy 451,Pharmacy,E,1060 N MAIN ST,EULESS,Tarrant,1060 N MAIN ST,76039,32.85018,-97.08154,6,0,0,0,300,306,0,(817) 283-1152,,,04/15/2021      ,08:05:00        ,-97.08154,32.85018
160,Kroger Pharmacy 448,Pharmacy,,950 E Sandy Lake Rd,Coppell,Dallas,950 E Sandy Lake Rd,75019,32.9695325544896,-96.9610008117561,90,0,0,0,100,190,0,(972) 304-0823,http://www.kroger.com/stores/details/035/00448?cid=loc_03500448PP_gmb,,04/15/2021      ,08:05:00        ,-96.961001,32.969533
161,Kroger Pharmacy 429,Pharmacy,,2201 W Grauwyler Rd,Irving,Dallas,2201 W Grauwyler Rd,75061,32.8289855983244,-96.9747077380189,48,0,0,0,115,163,0,(972) 790-5747,http://www.kroger.com/stores/details/035/00429?cid=loc_03500429PP_gmb,,04/15/2021      ,08:05:00        ,-96.974708,32.828986
162,Kroger Pharmacy 402,Pharmacy,,3612 N Belt Line Rd,Irving,Dallas,3612 N Belt Line Rd,75062,32.8553555227261,-96.9919882401021,48,0,0,0,65,113,0,(972) 252-6450,http://www.kroger.com/stores/details/035/00402?cid=loc_03500402PP_gmb,,04/15/2021      ,08:05:00        ,-96.991988,32.855356
163,KROGER PHARMACY 917,Pharmacy,,,Granbury,,3915 E US HIGHWAY 377,76049,32.4546221319016,-97.7269034297048,360,0,0,0,0,360,0,,,,04/15/2021      ,08:05:00        ,-97.726903,32.454622
164,Kroger Pharmacy 851,Pharmacy,,2210 S Fielder Rd,Arlington,Tarrant,2210 S Fielder Rd,76013,32.7078450111243,-97.1320074783325,102,0,0,30,100,202,30,(817) 277-3533,http://www.kroger.com/stores/details/026/00851?cid=loc_02600851PP_gmb,,04/15/2021      ,08:05:00        ,-97.132007,32.707845
165,Kroger Pharmacy 817,Pharmacy,,2525 W Interstate 20,Grand Prairie,Dallas,2525 W Interstate 20,75052,32.6749246253977,-97.0432194867371,0,0,108,0,100,100,108,(972) 988-1366,http://www.kroger.com/stores/details/035/00542?cid=loc_03500542PP_gmb,,04/15/2021      ,08:05:00        ,-97.043219,32.674925
166,Kroger Pharmacy 695,Pharmacy,,5701 W Pleasant Ridge Rd,Arlington,Tarrant,5701 W Pleasant Ridge Rd,76016,32.6816559642005,-97.193171734546,216,0,0,0,0,216,0,(817) 483-0354,http://www.kroger.com/stores/details/035/00695?cid=loc_03500695PP_gmb,,04/15/2021      ,08:05:00        ,-97.193172,32.681656
167,Kroger Pharmacy 688,Pharmacy,,301 S Bowen Rd,Arlington,Tarrant,301 S Bowen Rd,76013,32.7328723681778,-97.1491019507631,0,0,0,0,90,90,0,(817) 277-0072,http://www.kroger.com/stores/details/029/00688?cid=loc_02900688PP_gmb,,04/15/2021      ,08:05:00        ,-97.149102,32.732872
168,Kroger Pharmacy 596,Pharmacy,,2200 Fm 663,Midlothian,Ellis,2200 Fm 663,76065,32.4602088483329,-96.9948020097773,0,0,0,0,200,200,0,(469) 336-2041,http://www.kroger.com/stores/details/035/00596?cid=loc_03500596PP_gmb,,04/15/2021      ,08:05:00        ,-96.994802,32.460209
169,Kroger Pharmacy 594,Pharmacy,,3300 E Broad St,Mansfield,Tarrant,3300 E Broad St,76063,32.5756597996573,-97.0839572963694,0,0,0,0,100,100,0,(817) 435-5418,http://www.kroger.com/stores/details/035/00594?cid=loc_03500594PP_gmb,,04/15/2021      ,08:05:00        ,-97.083957,32.57566
170,Kroger Pharmacy 592,Pharmacy,,5101 W Sublett Rd,Arlington,Tarrant,5101 W Sublett Rd,76017,32.648117999848,-97.1886600075237,56,0,0,0,0,56,0,(817) 516-3763,,,04/15/2021      ,08:05:00        ,-97.18866,32.648118
171,Kroger Pharmacy 591,Pharmacy,,1631 Sw Wilshire Blvd,Burleson,Johnson,1631 Sw Wilshire Blvd,76028,32.5173757520449,-97.3509747108234,0,0,0,20,0,0,20,(817) 258-5952,http://www.kroger.com/stores/details/035/00591?cid=loc_03500591PP_gmb,,04/15/2021      ,08:05:00        ,-97.350975,32.517376
172,Kroger Pharmacy 590,Pharmacy,,1004 S Crowley Rd,Crowley,Tarrant,1004 S Crowley Rd,76036,32.562919139193,-97.3523245460135,90,0,138,0,0,90,138,(817) 297-0006,http://www.kroger.com/stores/details/035/00590?cid=loc_03500590PP_gmb,,04/15/2021      ,08:05:00        ,-97.352325,32.562919
173,Kroger Pharmacy 545,Pharmacy,,1001 N Beckley Ste 500,Desoto,Dallas,1001 N Beckley Ste 500,75115,32.6057527545048,-96.8234571807083,0,0,0,0,160,160,0,(972) 224-3225,http://www.kroger.com/stores/details/026/00545?cid=loc_02600545PP_gmb,,04/15/2021      ,08:05:00        ,-96.823457,32.605753
174,Kroger Pharmacy 538,Pharmacy,,2350 Se Green Oaks Blvd,Arlington,Tarrant,2350 Se Green Oaks Blvd,76018,32.6603115315828,-97.0664221034694,0,0,108,0,80,80,108,(817) 419-0312,http://www.kroger.com/stores/details/035/00538?cid=loc_03500538PP_gmb,,04/15/2021      ,08:05:00        ,-97.066422,32.660312
175,Kroger Pharmacy 529,Pharmacy,,4241 Capitol Ave,Dallas,Dallas,4241 Capitol Ave,75204,32.8071281621449,-96.7873040511898,0,0,0,0,85,85,0,(972)338-3101,http://www.kroger.com/stores/details/034/00352?cid=loc_03400352PP_gmb,,04/15/2021      ,08:05:00        ,-96.787304,32.807128
176,Kroger Pharmacy 528,Pharmacy,,4142 Cedar Springs Rd,Dallas,Dallas,4142 Cedar Springs Rd,75219,32.8125188466222,-96.813119983679,0,0,0,0,70,70,0,(214)599-9861,http://www.kroger.com/stores/details/034/00744?cid=loc_03400744PP_gmb,,04/15/2021      ,08:05:00        ,-96.81312,32.812519
177,Kroger Pharmacy 527,Pharmacy,,200 W Camp Wisdom Rd,Duncanville,Dallas,200 W Camp Wisdom Rd,75116,32.6618790732051,-96.9093604930254,102,0,204,0,200,302,204,(972) 298-6255,http://www.kroger.com/stores/details/035/00527?cid=loc_03500527PP_gmb,,04/15/2021      ,08:05:00        ,-96.90936,32.661879
178,Kroger Pharmacy 520,Pharmacy,,3120 S University Dr,Fort Worth,Tarrant,3120 S University Dr,76109,32.7045125759694,-97.3604560817409,0,0,0,0,85,85,0,(817) 566-7861,http://www.kroger.com/stores/details/018/00520?cid=loc_01800520PP_gmb,,04/15/2021      ,08:05:00        ,-97.360456,32.704513
179,Kroger Pharmacy 518,Pharmacy,,5665 E Mockingbird Ln,Dallas,Dallas,5665 E Mockingbird Ln,75206,32.8366574704818,-96.7702799927305,0,0,0,0,80,80,0,(214) 826-2967,http://www.kroger.com/stores/details/034/00343?cid=loc_03400343PP_gmb,,04/15/2021      ,08:05:00        ,-96.77028,32.836657
180,Kroger Pharmacy 509,Federal Allocation,,,Dallas ,,4901 Maple Ave ,75235,32.8140016680626,-96.8292192452673,0,0,0,0,65,65,0,,,,04/15/2021      ,08:05:00        ,-96.829219,32.814002
181,Kroger Pharmacy 495,Pharmacy,,515 S Macarthur Blvd,Irving,Dallas,515 S Macarthur Blvd,75060,32.8094833822965,-96.9600784671309,0,0,0,0,90,90,0,(972) 254-9105,http://www.kroger.com/stores/details/035/00495?cid=loc_03500495PP_gmb,,04/15/2021      ,08:05:00        ,-96.960078,32.809483
182,Kroger Pharmacy 445,Pharmacy,,5330 S Cooper St,Arlington,Tarrant,5330 S Cooper St,76017,32.6607374579929,-97.1344508869272,0,0,108,0,75,75,108,(817) 472-9576,http://www.kroger.com/stores/details/035/00445?cid=loc_03500445PP_gmb,,04/15/2021      ,08:05:00        ,-97.134451,32.660737
183,Kroger Pharmacy 439,Pharmacy,,9114 Camp Bowie West Blvd,Fort Worth,Tarrant,9114 Camp Bowie West Blvd,76116,32.724607476371,-97.4773719801928,102,0,0,0,80,182,0,(817) 560-4233,http://www.kroger.com/stores/details/035/00439?cid=loc_03500439PP_gmb,,04/15/2021      ,08:05:00        ,-97.477372,32.724607
184,Kroger Pharmacy 436,Pharmacy,,235 E Fm 1382,Cedar Hill,Dallas,235 E Fm 1382,75104,32.5977437256827,-96.9415061813503,0,0,108,0,0,0,108,(972) 291-0224,http://www.kroger.com/stores/details/035/00436?cid=loc_03500436PP_gmb,,04/15/2021      ,08:05:00        ,-96.941506,32.597744
185,KROGER PHARMACY 435,Federal Allocation,,,Arlington,,2475 Ascension Blvd,76006,32.7752397536448,-97.0816208005199,0,0,0,0,100,100,0,,,,04/15/2021      ,08:05:00        ,-97.081621,32.77524
186,Kroger Pharmacy 415,Pharmacy,,1617 W Henderson St,Cleburne,Johnson,1617 W Henderson St,76033,32.3383550449916,-97.4135885468746,150,0,0,0,0,150,0,(817) 641-0700,http://www.kroger.com/stores/details/024/00711?cid=loc_02400711PP_gmb,,04/15/2021      ,08:05:00        ,-97.413589,32.338355
187,Kroger Pharmacy 413,Pharmacy,,2580 E Arkansas Ln,Arlington,Tarrant,2580 E Arkansas Ln,76014,32.7060225339165,-97.0649960064632,204,0,0,0,0,204,0,(817) 861-2779,http://www.kroger.com/stores/details/011/00413?cid=loc_01100413PP_gmb,,04/15/2021      ,08:05:00        ,-97.064996,32.706023
188,Kroger Pharmacy 224,Pharmacy,,3510 Altamesa Blvd,Fort Worth,Tarrant,3510 Altamesa Blvd,76133,32.6498780318772,-97.3666256653921,0,0,0,0,185,185,0,(817) 292-3777,http://www.kroger.com/stores/details/035/00224?cid=loc_03500224PP_gmb,,04/15/2021      ,08:05:00        ,-97.366626,32.649878
189,Kroger Pharmacy 213,Pharmacy,,752 Wynnewood Village Shp Ctr,Dallas,Dallas,752 Wynnewood Village Shp Ctr,75224,32.721619445936,-96.8323298943602,6,0,0,0,85,91,0,(214) 942-3191,http://www.kroger.com/stores/details/035/00213?cid=loc_03500213PP_gmb,,04/15/2021      ,08:05:00        ,-96.83233,32.721619
190,Kroger Pharmacy 191,Pharmacy,,313 E Pioneer Pkwy,Grand Prairie,Dallas,313 E Pioneer Pkwy,75051,32.7093019626399,-97.0010955742679,0,0,0,0,90,90,0,(972) 264-3011,http://www.kroger.com/stores/details/035/00191?cid=loc_03500191PP_gmb,,04/15/2021      ,08:05:00        ,-97.001096,32.709302
191,Kroger Pharmacy 990,Pharmacy,,1215 North St,Nacogdoches,Nacogdoches,1215 North St,75961,31.6141083192146,-94.6530319539146,78,0,0,40,0,78,40,(936) 569-9884,http://www.kroger.com/stores/details/035/00990?cid=loc_03500990PP_gmb,,04/15/2021      ,08:05:00        ,-94.653032,31.614108
192,Kroger Pharmacy 959,Pharmacy,,701 W Marshall Ave,Longview,Gregg,701 W Marshall Ave,75601,32.5000352098141,-94.7495244232703,0,0,0,0,70,70,0,(903) 758-0323,http://www.kroger.com/stores/details/021/00959?cid=loc_02100959PP_gmb,,04/15/2021      ,08:05:00        ,-94.749524,32.500035
193,Kroger Pharmacy 953,Pharmacy,,300 E End Blvd Hwy 80,Marshall,Harrison,300 E End Blvd Hwy 80,75670,32.5428882765318,-94.3498888585481,96,0,54,0,105,201,54,(903) 935-7410,http://www.kroger.com/stores/details/035/00953?cid=loc_03500953PP_gmb,,04/15/2021      ,08:05:00        ,-94.349889,32.542888
194,Kroger Pharmacy 893,Pharmacy,,1919 Faithon P Lucas Blvd,Mesquite,Dallas,1919 Faithon P Lucas Blvd,75181,32.7438584787229,-96.5524886277029,126,0,0,0,100,226,0,(469) 726-0013,http://www.kroger.com/stores/details/035/00893?cid=loc_03500893PP_gmb,,04/15/2021      ,08:05:00        ,-96.552489,32.743858
195,Kroger Pharmacy 579,Pharmacy,,500 Marketplace Blvd,Forney,Kaufman,500 Marketplace Blvd,75126,32.74742886698,-96.4480002976873,48,0,0,0,200,248,0,(972) 564-8490,http://www.kroger.com/stores/details/035/00579?cid=loc_03500579PP_gmb,,04/15/2021      ,08:05:00        ,-96.448,32.747429
196,Kroger Pharmacy 574,Pharmacy,,1950 N Goliad St,Rockwall,Rockwall,1950 N Goliad St,75087,32.9488631165349,-96.4620531892689,43,0,95,0,110,153,95,(469) 651-6027,http://www.kroger.com/stores/details/026/00574?cid=loc_02600574PP_gmb,,04/15/2021      ,08:05:00        ,-96.462053,32.948863
197,Kroger Pharmacy 490,Pharmacy,,2415 Us Highway 79 S,Henderson,Rusk,2415 Us Highway 79 S,75654,32.1301439181574,-94.8083119070195,276,0,0,0,255,531,0,(903) 657-8596,http://www.kroger.com/stores/details/011/00490?cid=loc_01100490PP_gmb,,04/15/2021      ,08:05:00        ,-94.808312,32.130144
198,Kroger Pharmacy 450,Pharmacy,,3600 Gus Thomasson Road,Mesquite,Dallas,3600 Gus Thomasson Road,75150,32.8136274790456,-96.6348935648027,36,0,96,0,100,136,96,(972) 270-2401,http://www.kroger.com/stores/details/035/00450?cid=loc_03500450PP_gmb,,04/15/2021      ,08:05:00        ,-96.634894,32.813627
199,Kroger Pharmacy 431,Pharmacy,,325 E Spring St,Palestine,Anderson,325 E Spring St,75801,31.7617474551135,-95.6276390029246,114,0,1170,60,100,214,1230,(903) 729-5362,http://www.kroger.com/stores/details/011/00431?cid=loc_01100431PP_gmb,,04/15/2021      ,08:05:00        ,-95.627639,31.761747
200,Kroger Pharmacy 403,Pharmacy,,532 W Interstate 30,Garland,Dallas,532 W Interstate 30,75043,32.8385032531402,-96.5983458898317,192,0,0,0,195,387,0,(972) 226-1132,http://www.kroger.com/stores/details/035/00403?cid=loc_03500403PP_gmb,,04/15/2021      ,08:05:00        ,-96.598346,32.838503
201,Kroger Pharmacy 209,Pharmacy,,525 N Galloway,Mesquite,Dallas,525 N Galloway,75149,32.7717830067369,-96.5992374516092,30,0,114,0,100,130,114,(409) 948-3471,https://www.kroger.com/stores/details/034/00108?cid=loc_03400108_gmb,,04/15/2021      ,08:05:00        ,-96.599237,32.771783
202,Kroger Pharmacy 957,Pharmacy,,1310 Clarksville St,Paris,Lamar,1310 Clarksville St,75460,33.6587317770619,-95.5422577520564,0,0,0,10,130,130,10,(903) 785-1922,http://www.kroger.com/stores/details/035/00957?cid=loc_03500957PP_gmb,,04/15/2021      ,08:05:00        ,-95.542258,33.658732
203,Kroger Pharmacy 824,Pharmacy,,1820 N Loy Lake Rd,Sherman,Grayson,1820 N Loy Lake Rd,75090,33.6556291317828,-96.6064137018318,0,0,0,0,135,135,0,(903) 868-1565,http://www.kroger.com/stores/details/035/00824?cid=loc_03500824PP_gmb,,04/15/2021      ,08:05:00        ,-96.606414,33.655629
204,Kroger Pharmacy 589,Pharmacy,,4650 W University Dr,Prosper,Collin,4650 W University Dr,75078,33.2191206529829,-96.8772940136852,48,0,0,0,70,118,0,(972) 346-5244,http://www.kroger.com/stores/details/035/00589?cid=loc_03500589PP_gmb,,04/15/2021      ,08:05:00        ,-96.877294,33.219121
205,Kroger Pharmacy 588,Pharmacy,,9140 Forest Ln,Dallas,Dallas,9140 Forest Ln,75243,32.9090017841729,-96.7457993374567,0,0,48,0,190,190,48,(214) 221-0978,http://www.kroger.com/stores/details/035/00588?cid=loc_03500588PP_gmb,,04/15/2021      ,08:05:00        ,-96.745799,32.909002
206,KROGER PHARMACY 581,Federal Allocation,,,Plano,,2925 Custer Rd ,75075,33.0389877610022,-96.7347840912897,18,0,0,0,0,18,0,,,,04/15/2021      ,08:05:00        ,-96.734784,33.038988
207,Kroger Pharmacy 580,Pharmacy,,2671 Little Elm Pkwy,Little Elm,Denton,2671 Little Elm Pkwy,75068,33.1691576788061,-96.8921690419744,24,0,0,0,200,224,0,(469) 888-5519,http://www.kroger.com/stores/details/035/00580?cid=loc_03500580PP_gmb,,04/15/2021      ,08:05:00        ,-96.892169,33.169158
208,Kroger Pharmacy 573,Pharmacy,,1250 N Preston Road,Prosper,Collin,1250 N Preston Road,75078,33.2498681979486,-96.784771213673,60,0,0,0,200,260,0,(972) 346-5210,http://www.kroger.com/stores/details/035/00573?cid=loc_03500573PP_gmb,,04/15/2021      ,08:05:00        ,-96.784771,33.249868
209,KROGER PHARMACY 568,Federal Allocation,,,Allen,,1320 W MCDERMOTT DR,75013,33.1035197872381,-96.6990334385864,78,0,0,0,100,178,0,,,,04/15/2021      ,08:05:00        ,-96.699033,33.10352
210,Kroger Pharmacy 567,Pharmacy,,2901 Lake Forest Dr,Mckinney,Collin,2901 Lake Forest Dr,75072,33.1745619946972,-96.6819359905468,0,0,0,0,60,60,0,(972) 540-1172,http://www.kroger.com/stores/details/026/00567?cid=loc_02600567PP_gmb,,04/15/2021      ,08:05:00        ,-96.681936,33.174562
211,Kroger Pharmacy 565,Pharmacy,,1801 N Lake Forest Dr,Mckinney,Collin,1801 N Lake Forest Dr,75071,33.2167008277283,-96.6795535936165,84,0,0,0,90,174,0,(469) 678-3882,http://www.kroger.com/stores/details/026/00565?cid=loc_02600565PP_gmb,,04/15/2021      ,08:05:00        ,-96.679554,33.216701
212,KROGER PHARMACY 563,Federal Allocation,,,Plano,,4017 14th St,75074,33.0152206537026,-96.6540820533997,60,0,0,0,0,60,0,,,,04/15/2021      ,08:05:00        ,-96.654082,33.015221
213,Kroger Pharmacy 560,Federal Allocation,,7500 Preston,Frisco,Collin,7500 Preston,75034,33.14016,-96.80449,0,0,0,0,40,40,0,,,,04/15/2021      ,08:05:00        ,-96.80449,33.14016
214,Kroger Pharmacy 559,Pharmacy,,1406 W Walnut St,Garland,Dallas,1406 W Walnut St,75042,32.916232493201,-96.6498789827572,66,0,1170,0,0,66,1170,(972) 494-3306,http://www.kroger.com/stores/details/035/00559?cid=loc_03500559PP_gmb,,04/15/2021      ,08:05:00        ,-96.649879,32.916232
215,Kroger Pharmacy 557,Pharmacy,,6850 North Shiloh Road,Garland,Dallas,6850 North Shiloh Road,75044,32.9774112920172,-96.6652174464727,28,0,26,0,230,258,26,(972) 496-4503,http://www.kroger.com/stores/details/035/00557?cid=loc_03500557PP_gmb,,04/15/2021      ,08:05:00        ,-96.665217,32.977411
216,Kroger Pharmacy 548,Pharmacy,,1210 N Greenville Ave,Allen,Collin,1210 N Greenville Ave,75002,33.1158859902601,-96.6497240013674,54,0,0,0,100,154,0,(214) 383-7100,https://www.kroger.com/stores/details/035/00548?cid=loc_03500548_gmb,,04/15/2021      ,08:05:00        ,-96.649724,33.115886
217,Kroger Pharmacy 547,Pharmacy,,3205 Main St,Frisco,Collin,3205 Main St,75034,33.152982491605,-96.8623302210412,120,0,0,0,70,190,0,(972) 731-0615,http://www.kroger.com/stores/details/035/00547?cid=loc_03500547PP_gmb,,04/15/2021      ,08:05:00        ,-96.86233,33.152982
218,Kroger Pharmacy 546,Pharmacy,,4851 Legacy Drive,Frisco,Collin,4851 Legacy Drive,75034,33.1181749203792,-96.8403484285067,0,0,0,0,100,100,0,(972) 377-0251,http://www.kroger.com/stores/details/035/00546?cid=loc_03500546PP_gmb,,04/15/2021      ,08:05:00        ,-96.840348,33.118175
219,Kroger Pharmacy 544,Pharmacy,,1212 E Bethany Dr,Allen,Collin,1212 E Bethany Dr,75002,33.08262400007,-96.6447960290335,60,0,0,0,0,60,0,(972) 244-7681,http://www.kroger.com/stores/details/035/00578?cid=loc_03500578PP_gmb,,04/15/2021      ,08:05:00        ,-96.644796,33.082624
220,Kroger Pharmacy 540,Pharmacy,,3305 N Dallas Parkway,Plano,Collin,3305 N Dallas Parkway,75093,33.0468759793075,-96.8300674375291,72,0,0,0,0,72,0,(972) 608-4694,http://www.kroger.com/stores/details/025/00430?cid=loc_02500430PP_gmb,,04/15/2021      ,08:05:00        ,-96.830067,33.046876
221,Kroger Pharmacy 526,Pharmacy,,536 Centennial Blvd,Richardson,Dallas,536 Centennial Blvd,75081,32.938212525536,-96.7205000374096,90,0,0,0,75,165,0,(972) 437-2478,http://www.kroger.com/stores/details/035/00526?cid=loc_03500526PP_gmb,,04/15/2021      ,08:05:00        ,-96.7205,32.938213
222,Kroger Pharmacy 522,Pharmacy,,7100 Independence Pkwy,Plano,Collin,7100 Independence Pkwy,75025,33.0724629137209,-96.7500884113458,78,0,0,0,80,158,0,(972) 491-2596,http://www.kroger.com/stores/details/035/00522?cid=loc_03500522PP_gmb,,04/15/2021      ,08:05:00        ,-96.750088,33.072463
223,Kroger Pharmacy 517,Pharmacy,,160 N Coit,Richardson,Dallas,160 N Coit,75080,32.9532189820675,-96.7688025146574,90,0,0,0,0,90,0,(972) 497-9339,http://www.kroger.com/stores/details/034/00241?cid=loc_03400241PP_gmb,,04/15/2021      ,08:05:00        ,-96.768803,32.953219
224,Kroger Pharmacy 488,Pharmacy,,1707 W University Dr,Mckinney,Collin,1707 W University Dr,75069,33.216502607435,-96.6326020362939,90,0,0,0,80,170,0,(972) 548-9633,http://www.kroger.com/stores/details/011/00488?cid=loc_01100488PP_gmb,,04/15/2021      ,08:05:00        ,-96.632602,33.216503
225,Kroger Pharmacy 461,Pharmacy,,5190 Highway 78,Sachse,Dallas,5190 Highway 78,75048,32.9701932580069,-96.6046804080737,60,0,0,0,75,135,0,(972) 675-1066,http://www.kroger.com/stores/details/011/00461?cid=loc_01100461PP_gmb,,04/15/2021      ,08:05:00        ,-96.60468,32.970193
226,Kroger Pharmacy 746,Pharmacy,,11701 S Sam Houston Pkwy,Houston,Harris,11701 S Sam Houston Pkwy,77089,29.589831,-95.22251,6,0,0,0,0,6,0,(281) 484-3294,,,04/15/2021      ,08:05:00        ,-95.22251,29.589831
227,Kroger Pharmacy 744,Pharmacy,,3135 Fm 528,Friendswood,Galveston,3135 Fm 528,77546,29.4645456622281,-95.2271091417117,60,100,0,0,45,205,0,(281) 557-4894,http://www.kroger.com/stores/details/034/00744?cid=loc_03400744PP_gmb,,04/15/2021      ,08:05:00        ,-95.227109,29.464546
228,Kroger Pharmacy 743,Pharmacy,,151 N Friendswood Dr,Friendswood,Galveston,151 N Friendswood Dr,77546,29.534382372878,-95.2068435750931,60,0,0,0,25,85,0,(281)-992-1710,http://www.kroger.com/stores/details/018/00743?cid=loc_01800743PP_gmb,,04/15/2021      ,08:05:00        ,-95.206844,29.534382
229,Kroger Pharmacy 740,Pharmacy,,7747 Kirby Dr,Houston,Harris,7747 Kirby Dr,77030,29.6953467231689,-95.4155875814219,222,50,0,0,0,272,0,(713) 661-7440,http://www.kroger.com/stores/details/034/00740?cid=loc_03400740PP_gmb,,04/15/2021      ,08:05:00        ,-95.415588,29.695347
230,Kroger Pharmacy 734,Pharmacy,,,League City ,,250 S EGRET BAY BLVD ,77573,29.5198121653864,-95.0758447763251,12,0,0,0,0,12,0,,,,04/15/2021      ,08:05:00        ,-95.075845,29.519812
231,Kroger Pharmacy 398,Pharmacy,,,League City,,2750 E League City PKWY,77573,29.5079735231247,-95.0414925030416,24,0,0,0,115,139,0,,,,04/15/2021      ,08:05:00        ,-95.041493,29.507974
232,Kroger Pharmacy 397,Pharmacy,,8011 W Grand Pkwy S,Richmond,Fort Bend,8011 W Grand Pkwy S,77407,29.6639329845383,-95.7379829863729,6,11,0,0,100,117,0,(281) 341-2761,http://www.kroger.com/stores/details/034/00397?cid=loc_03400397PP_gmb,,04/15/2021      ,08:05:00        ,-95.737983,29.663933
233,Kroger Pharmacy 385,Pharmacy,,16400 El Camino Real,Houston,Harris,16400 El Camino Real,77062,29.5589571071597,-95.1242390811092,0,20,0,0,0,20,0,(281) 286-8364,http://www.kroger.com/stores/details/034/00385?cid=loc_03400385PP_gmb,,04/15/2021      ,08:05:00        ,-95.124239,29.558957
234,Kroger Pharmacy 375,Pharmacy,,11565 State Hwy 6 South,Sugar Land,Fort Bend,11565 State Hwy 6 South,77478,29.6480352510492,-95.6512821824848,0,0,0,80,50,50,80,(281) 340-1504,http://www.kroger.com/stores/details/034/00375?cid=loc_03400375PP_gmb,,04/15/2021      ,08:05:00        ,-95.651282,29.648035
235,Kroger Pharmacy 347,Pharmacy,,9303 Hwy 6 South,Houston,Harris,9303 Hwy 6 South,77083,29.6786343817034,-95.643535952849,0,100,0,0,0,100,0,(713) 474-2111,http://www.kroger.com/stores/details/034/00347?cid=loc_03400347PP_gmb,,04/15/2021      ,08:05:00        ,-95.643536,29.678634
236,Kroger Pharmacy 343,Pharmacy,,8323 Broadway St,Pearland,Brazoria,8323 Broadway St,77581,29.5590729031522,-95.3491304886291,0,0,0,0,50,50,0,(281) 997-6500,http://www.kroger.com/stores/details/029/00343?cid=loc_02900343PP_gmb,,04/15/2021      ,08:05:00        ,-95.34913,29.559073
237,Kroger Pharmacy 321,Pharmacy,,3100 Hwy 35,Alvin,Brazoria,3100 Hwy 35,77511,29.3985214957587,-95.247541810787,0,0,0,0,180,180,0,(281) 388-3403,http://www.kroger.com/stores/details/034/00321?cid=loc_03400321PP_gmb,,04/15/2021      ,08:05:00        ,-95.247542,29.398521
238,Kroger Pharmacy 320,Pharmacy,,4825 Sweetwater Blvd,Sugar Land,Fort Bend,4825 Sweetwater Blvd,77479,29.5863645056197,-95.6323654743065,50,60,0,0,0,110,0,(281) 494-6555,http://www.kroger.com/stores/details/011/00320?cid=loc_01100320PP_gmb,,04/15/2021      ,08:05:00        ,-95.632365,29.586365
239,Kroger Pharmacy 313,Pharmacy,,,Houston,,10306 S Post Oak Rd, 77035,29.6695600043408,-95.4636869607085,0,30,1,0,0,30,1,,,,04/15/2021      ,08:05:00        ,-95.463687,29.66956
240,Kroger Pharmacy 308,Pharmacy,,,Pearland ,Brazoria,11003 Shadow Creek PWY,77584,29.5832555865591,-95.3898827453678,0,0,0,0,85,85,0,281-669-1250,,,04/15/2021      ,08:05:00        ,-95.389883,29.583256
241,Kroger Pharmacy 302,Pharmacy,,5730 Seawall Blvd,Galveston,Galveston,5730 Seawall Blvd,77551,29.2687283600529,-94.82277614634,108,0,0,0,0,108,0,(409) 741-9091,http://www.kroger.com/stores/details/034/00302?cid=loc_03400302PP_gmb,,04/15/2021      ,08:05:00        ,-94.822776,29.268728
242,Kroger Pharmacy 300,Pharmacy,,1950 El Dorado Blvd,Houston,Harris,1950 El Dorado Blvd,77062,29.5782270187411,-95.1215090114258,0,80,0,0,20,100,0,(281) 480-7092,http://www.kroger.com/stores/details/016/00522?cid=loc_01600522PP_gmb,,04/15/2021      ,08:05:00        ,-95.121509,29.578227
243,Kroger Pharmacy 264,Pharmacy,,,Pearland ,,3245 East Broadway (F.M. 518,77581,29.5602232026212,-95.2713100742043,0,10,0,0,150,160,0,,,,04/15/2021      ,08:05:00        ,-95.27131,29.560223
244,Kroger Pharmacy 256,Pharmacy,,1804 N Velasco St,Angleton,Brazoria,1804 N Velasco St,77515,29.1827026537057,-95.4329200670943,0,0,0,180,305,305,180,(979) 849-5460,http://www.kroger.com/stores/details/016/00538?cid=loc_01600538PP_gmb,,04/15/2021      ,08:05:00        ,-95.43292,29.182703
245,Kroger Pharmacy 241,Pharmacy,,,Dickinson ,,3410 Gulf Fwy ,77539,29.4500258726597,-95.0795036895508,0,0,0,0,70,70,0,,,,04/15/2021      ,08:05:00        ,-95.079504,29.450026
246,Kroger Pharmacy 156,Pharmacy,,6322 Telephone Rd,Houston,Harris,6322 Telephone Rd,77087,29.6756243983634,-95.2899220657025,0,0,0,0,50,50,0,(713) 644-1815,http://www.kroger.com/stores/details/034/00156?cid=loc_03400156PP_gmb,,04/15/2021      ,08:05:00        ,-95.289922,29.675624
247,Kroger Pharmacy 149,Pharmacy,,800 N Dixie Dr,Clute,Brazoria,800 N Dixie Dr,77531,29.0384250781679,-95.4222465843995,0,0,0,0,220,220,0,(979) 529-4392,,,04/15/2021      ,08:05:00        ,-95.422247,29.038425
248,Kroger Pharmacy 131,Pharmacy,,,Sugar Land ,,18861 University Blvd ,77479,29.5515970445571,-95.5842350453687,0,80,0,0,100,180,0,(832) 342-9649,,,04/15/2021      ,08:05:00        ,-95.584235,29.551597
249,Kroger Pharmacy 108,Pharmacy,,,Texas City ,,3541 Palmer @ Hwy. 146 ,77590,29.3936297976527,-94.9494116318808,0,0,0,0,115,115,0,,,,04/15/2021      ,08:05:00        ,-94.949412,29.39363
250,Kroger Pharmacy 010,Pharmacy,,24401 Brazos Town Xing,Rosenberg,Fort Bend,24401 Brazos Town Xing,77471,29.5429645616293,-95.7512495274427,96,0,0,200,0,96,200,(281) 232-1237,http://www.kroger.com/stores/details/034/00010?cid=loc_03400010PP_gmb,,04/15/2021      ,08:05:00        ,-95.75125,29.542965
251,KROGER PHARMACY 009,Federal Allocation,,,FRESNO,,10250 STATE HIGHWAY 6,77545,29.529845996266,-95.5110288453694,0,10,198,0,225,235,198,,,,04/15/2021      ,08:05:00        ,-95.511029,29.529846
252,Carvajal Pharmacy-San Antonio-3410 Roosevelt Ave ,Pharmacy,,3410 Roosevelt Ave,San Antonio,Bexar,"3410 Roosevelt Avenue, San Antonio, Texas 78214",78214,29.35837,-98.48091,0,800,0,0,0,800,0,210-922-2176,https://www.carvajalpharmacy.com/,,04/17/2021      ,09:37:46        ,-98.48091,29.35837
253,Walgreens Pharmacy 11513,Pharmacy,,,,,"5011 W SLAUGHTER LN Austin, TX 78749",,30.1990544889205,-97.8634390797613,0,0,0,0,100,100,0,(512) 292-1340,https://www.walgreens.com/locator/walgreens-5011+w+slaughter+ln-austin-tx-78749/id=11513,,04/06/2021      ,15:12:45        ,-97.863439,30.199054
254,Summerwood Pharmacy,Federal Allocation,,13176 W Lake Houston Pkwy Ste1,Houston,Harris,13176 W Lake Houston Pkwy Ste1,77044,29.9240255689583,-95.188217618847,0,190,0,0,0,190,0,(281) 225-4300,https://summerwoodrx.com/,,04/16/2021      ,15:34:34        ,-95.188218,29.924026
255,Tyler family circle of care- Broadway,Community Clinic,,2990 N Broadway Ave,Tyler,Smith,"2990 North Broadway Avenue, Tyler, TX, USA",75702,32.3790515,-95.303055,0,100,0,0,0,100,0,(903) 593-1892,,,04/16/2021      ,10:37:04        ,-95.303055,32.379052
256,Cleveland Pharmacy,Federal Allocation,,111 S.william Barnett Ave,Cleveland,Liberty,111 S WILLIAM BARNETT AVE Cleveland 77327,77327,30.3406081291667,-95.0854416305188,0,220,0,0,0,220,0,,,,04/16/2021      ,10:30:26        ,-95.085442,30.340608
257,Shepherd Pharmacy,Other,,,Shepherd,San Jacinto,11011 Hwy 150,77371,30.497,-94.994986,0,50,0,0,0,50,0,(936) 628-2099,http://www.localpharmacyrx.com/,,04/16/2021      ,09:11:22        ,-94.994986,30.497
258,City of South Houston EMS,Other,,506 Georgia Avenue,South Houston,Harris,506 GEORGIA ST,77587,29.6655298,-95.2389224,0,148,0,0,0,148,0,,,,04/15/2021      ,12:10:03        ,-95.238922,29.66553
259,"Emergency Hospital Systems, LLC",Vaccine Hub,,,Cleveland,Liberty,300 E. Crockett Street,77327,30.3419162,-95.085492,2886,0,1278,0,0,2886,1278,281-592-5410     281-592-5400,www.emergencyhospitals.care,,04/16/2021      ,20:32:13        ,-95.085492,30.341916
260,Collegiate Academy Teen Health Center,Other,,7100 Stewart Rd Rm 177b,Galveston,Galveston,7100 STEWART RD RM 177B GALVESTON 77551,77551,29.265245609728,-94.8389001612275,0,80,0,0,0,80,0,,,,04/12/2021      ,10:15:31        ,-94.8389,29.265246
261,CHRISTUS GOOD SHEPHERD - LONGVIEW,Vaccine Hub,G,700 E Marshall Ave, Longview,Gregg,"700 E Marshall Ave, Longview, TX, 75601",75601,32.501452,-94.73146,7160,190,12610,200,0,7350,12810,903-315-2000,https://www.christushealth.org/vaccine,,04/15/2021      ,21:29:44        ,-94.73146,32.501452
262,Lotus Pharmacy,Federal Allocation,,8200 Wilcrest Ste 8,Houston,Harris,8200 Wilcrest Ste 8,77072,29.6892518,-95.5742133,0,50,0,0,85,135,0,,,,04/16/2021      ,16:53:11        ,-95.574213,29.689252
263,"Oncology Consultants, PA",Other,,,Houston,,2130 W HOLCOMBE BLVD STE 1000 ,77030,29.7067446141593,-95.4085324615365,0,250,0,0,0,250,0,,,,04/15/2021      ,15:45:30        ,-95.408532,29.706745
264,Lhd Hays County Health Department Re,Vaccine Hub,,broadway,san marcos,bexar,401 Broadway St Ste A,78666,29.8616713304617,-97.9424713466867,0,0,0,0,0,0,0,512-393-5520,https://hayscountytx.com/departments/local-health-department/,,04/15/2021      ,13:42:28        ,-97.942471,29.861671
265,AHF Pharmacy 2409,Pharmacy,,Stemmons,Dallas,Dallas,2600 N Stemmons Fwy Ste 141A,TX,32.8081234,-96.840795,0,0,0,0,100,100,0,,,,04/15/2021      ,15:31:12        ,-96.840795,32.808123
266,Healthcare Associates Of Southlake,Medical Practice,,2106 East State Hwy 114,Southlake,Tarrant,2106 East State Hwy 114,76092,32.9444894988119,-97.1195917022984,0,0,0,0,200,200,0,(817) 310-0421,https://healthcareassociates.com/location/southlake/,,04/15/2021      ,12:31:42        ,-97.119592,32.944489
267,Fresenius West Plano,Other,,4405 Tradition Trail,Plano,Collin,4405 Tradition Trail,75093,33.0129855,-96.7824442,0,20,0,0,0,20,0,(972) 943-7656,,,04/16/2021      ,13:35:41        ,-96.782444,33.012986
268,Kelsey Seybold Ft Bend Diagnostic Ctr,Medical Practice,,11555 University Blvd,Sugar Land,Fort Bend,11555 University Blvd,77478,29.6106819154744,-95.6417237015634,2022,0,0,0,80,2102,0,(713) 442-9100,https://www.kelsey-seybold.com/find-a-location/fort-bend-medical-and-diagnostic-center,,04/16/2021      ,08:10:19        ,-95.641724,29.610682
269,Blinn College,Other,,2423 Blinn Blvd,Bryan,Brazos,2423 BLINN BLVD Bryan 77802,77805,30.6632658150225,-96.3520747881856,0,790,0,0,0,790,0,,,,04/16/2021      ,12:27:31        ,-96.352075,30.663266
270,Moore County Family Health Clinic,Community Clinic,,110 S Bliss Ave,Dumas,Moore,110 S Bliss Ave,79029,35.8649127305788,-101.971851476455,0,200,1170,200,0,200,1370,(806) 935-1900,http://www.moorecountyclinic.com/,,04/16/2021      ,09:50:07        ,-101.971851,35.864913
271,LIFECARE HOSPITAL - FORT WORTH,Hospital,E,6201 Overton Ridge Blvd, Fort Worth,Tarrant,"6201 Overton Ridge Blvd, Fort Worth, TX, 76132",76132,32.6793,-97.42126,0,0,0,30,0,0,30,(817) 222-8300,http://www.lifecare-health.com/,,04/12/2021      ,16:36:01        ,-97.42126,32.6793
272,SCOTTS PHARMACY,Federal Allocation,,211 E Coke Rd,Winnsboro,Wood,211 E COKE RD WINNSBORO 75494,75494,32.9497135551975,-95.2912050844361,0,0,0,0,190,190,0,,,,04/17/2021      ,11:47:21        ,-95.291205,32.949714
273,Walgreens Pharmacy 15320,Pharmacy,,,Houston,,4101 Greenbriar Drive, 77098,,,0,0,0,0,100,100,0,,,,04/15/2021      ,14:24:42        ,,
274,CHRISTUS ST. MICHAEL - ATLANTA,Hospital,F,1007 S William St,Atlanta,Cass,1007 S William St,75551,33.1056179912321,-94.1633299897254,0,100,0,0,95,195,0,(903) 799-3000,https://www.christushealth.org/st-michael-atlanta?utm_source=organic&utm_medium=GMB&utm_campaign=website,,04/16/2021      ,11:34:54        ,-94.16333,33.105618
275,The Pediatric Care Center - Rio Grande City,Community Clinic,,,Rio Grande ,Starr,1673 E San Benito St,78582,26.3780489368399,-98.8031958938447,0,0,0,0,125,125,0,(956) 263-1830,,,04/16/2021      ,12:14:39        ,-98.803196,26.378049
276,"ASKE Solutions, LLC",Other,,N. US Hwy 183,Loockhart,,4001 N US HIGHWAY 183 Lockhart 78644,78644,29.9311433,-97.6734823,0,330,0,0,0,330,0,512-481-2753,,,04/16/2021      ,09:11:49        ,-97.673482,29.931143
277,Wellness Pointe-Kilgore 040545,Community Clinic,,,Kilgore,,1711 S Henderson Blvd Ste 400,75662,32.373062,-94.8701751,0,90,0,0,0,90,0,(903) 212-2610,covidkilgore@wellnesspointe.org,,04/09/2021      ,06:02:32        ,-94.870175,32.373062
278,ST. JOSEPH MEDICAL CENTER,Hospital,Q,1401 St Joseph Pkwy,Houston,Harris,1401 St Joseph Pkwy,77002,29.7481423448244,-95.3667231414588,17,932,0,0,2045,2994,0,713-757-1000,https://www.sjmctx.org/,,04/17/2021      ,15:37:18        ,-95.366723,29.748142
279,Family Circle of Care Athens,Community Clinic,,1001 N. Palestine Street,Athens,Henderson,1001 North Palestine Street,75751,32.2180694,-95.8537048,0,20,0,20,0,20,20,9035359041,,,04/16/2021      ,17:21:03        ,-95.853705,32.218069
280,Kelsey Seybold Clinic - Cypress,Community Clinic,,13105 Wortham Center Drive,Houston,Harris,13105 Wortham Center Drive,77065,29.9195063430365,-95.6149808663704,0,0,0,0,155,155,0,713-442-4000,,,04/08/2021      ,17:26:59        ,-95.614981,29.919506
281,Advanced Pharmacy Services - Stafford,Federal Allocation,Q,"12503 Exchange Drive, Suite # 536",Stafford,Fort Bend,"12503 Exchange Drive, Suite # 536",77477,29.6359149,-95.5925003,918,0,0,0,100,1018,0,,,,04/15/2021      ,13:49:25        ,-95.5925,29.635915
282,DEL SOL MEDICAL CENTER,Hospital,I,10301 Gateway Blvd W,El Paso,El Paso,10301 Gateway Blvd W,79925,31.7560467132164,-106.350195261813,0,0,6,110,0,0,116,915.263.6696,https://laspalmasdelsolhealthcare.com/covid-19/covid-19-vaccine-information/,,04/17/2021      ,08:36:31        ,-106.350195,31.756047
283,UTHEALTH RGV Family Health,Vaccine Hub,,2810 W Expressway 83,Mercedes,Hidalgo,2810 W Expressway 83,78570,26.1638143873683,-97.8495313651054,0,0,0,0,0,0,0,(956) 296-1831,https://uthealthrgv.org/locations/uthealthrgv-knapp-family-health-center/,,03/24/2021      ,19:57:39        ,-97.849531,26.163814
284,DSHS - Bee County / Beeville,Local Health Department,,1770 W Corpus Christi St,Beeville,Bee,"1770 West Corpus Christi Street, Beeville, TX, USA",78102,28.3944633,-97.7670573,0,0,0,200,0,0,200,,,,04/15/2021      ,16:06:54        ,-97.767057,28.394463
285,Crossover Health Medical Group- Spring,Medical Practice,,Hardy Toll Road,Spring,Texas,28420 E Hardy Rd,77373,30.1050606,-95.423176,0,190,0,0,0,190,0,,,,04/15/2021      ,11:27:14        ,-95.423176,30.105061
286,CLAY COUNTY MEMORIAL HOSPITAL,Hospital,C,310 W South St,Henrietta,Clay,310 W South St,76365,33.8139990089276,-98.1975530140283,0,0,0,0,905,905,0,(940) 538-5621,https://www.ccmhospital.com/,,04/15/2021      ,07:27:17        ,-98.197553,33.813999
287,Nuestra Clinica Del Valle Women Health Clinic,Other,,803 W 3rd Street,San Juan,Hidalgo,803 W 3rd Street,78589,26.1934402471384,-98.1650840164532,0,0,0,0,100,100,0,+1 956 782 2131,http://www.nuestraclinicadelvalle.org/,,04/16/2021      ,09:28:22        ,-98.165084,26.19344
288,Harris County Public Health,Vaccine Hub,,2223 W Loop S,Houston,Harris,2223 W Loop South,77027,29.744195700504,-95.4569182430658,0,0,0,0,0,0,0,832-927-8787,https://vacstrac.hctx.net,,04/16/2021      ,07:16:54        ,-95.456918,29.744196
289,Mesquite ISD Health Services,Other,,3819 Towne Crossing Blvd,Mesquite,Dallas,"3819 Towne Crossing Boulevard, Mesquite, TX, USA",75150,32.8170591,-96.6314539,0,200,0,0,0,200,0,,,,04/16/2021      ,14:23:42        ,-96.631454,32.817059
290,Tower Medic Pharmacy,Federal Allocation,,607 West Magnolia,Fort Worth,Tarrant,607 West Magnolia,76104,,,0,88,0,0,450,538,0,,,,04/16/2021      ,08:29:39        ,,
291,DMS PHARMACY LLC,Pharmacy,,305 E Euclid Avenue,San Antonio,Bexar,305 E EUCLID AVE STE 104 San Antonio 78212,78212,29.4388277144023,-98.4923392305345,0,80,0,0,0,80,0,,,,04/15/2021      ,16:26:45        ,-98.492339,29.438828
292,CONCHO COUNTY HOSPITAL,Hospital,K,614 Eaker St, Eden,Concho,"614 Eaker St, Eden, TX, 76837",76837,31.220884,-99.84772,0,10,0,100,30,40,100,(325) 869-5911,http://www.conchocounty.hospital/,,04/16/2021      ,13:54:02        ,-99.84772,31.220884
293,DOCTORS HOSPITAL OF LAREDO,Hospital,T,10700 Mcpherson Rd,Laredo,Webb,"10700 McPherson, Laredo, TX, 78045",78045,27.648832,-99.53371,0,620,0,0,0,620,0,(956) 523-2000,https://www.doctorshosplaredo.com/?utm_source=google-business&utm_medium=organic&utm_campaign=homepage,,04/09/2021      ,12:38:39        ,-99.53371,27.648832
294,Kickapoo Tribe - Eagle Pass,Federal Allocation,,,Eagle Pass,Maverick,2212 Rosita Valley Road,78852,28.6176254102918,-100.43353503863,0,1460,0,0,0,1460,0,,,,04/12/2021      ,16:51:01        ,-100.433535,28.617625
295,Discovery Medical Network LLC,Other,,,Sweetwater,Nolan,301 Jenny George Lane,79556,32.4530975892502,-100.396353677274,0,70,0,0,0,70,0,,,,04/16/2021      ,14:10:29        ,-100.396354,32.453098
296,Austin Regional Clinic Sendero Springs,Medical Practice,,1025 Sendero Springs Dr Ste 120,Round Rock,Williamson,1025 Sendero Springs Dr Ste 120,78681,30.5496002481798,-97.738114533833,0,0,0,0,240,240,0,(737) 220-7500,https://www.austinregionalclinic.com/clinics/arc-sendero-springs,,04/16/2021      ,09:54:42        ,-97.738115,30.5496
297,benzer Tx3 Llc,Federal Allocation,,North Galloway Ave,Mesquite,Dallas,1320 North Galloway Ave Suite 102,75149,32.7815313452213,-96.600182318264,0,70,0,0,0,70,0,,,,04/17/2021      ,13:55:15        ,-96.600182,32.781531
298,Vina Pharmacy,Pharmacy,,11207 N LAMAR BLVD,Austin,,11207 N LAMAR BLVD # A Austin 78753,78753,30.3812461372579,-97.6862578878872,0,0,0,0,155,155,0,,,,04/17/2021      ,10:25:17        ,-97.686258,30.381246
299,Walgreens Pharmacy 09123,Pharmacy,,6905 Wesley St,Greenville,Hunt,"6905 Wesley Street, Greenville, TX, USA",75402,33.0990794,-96.1090524,150,150,0,0,100,400,0,,,,04/17/2021      ,09:34:02        ,-96.109052,33.099079
300,Dept of Public Health - Lamar County / Paris,Vaccine Hub,,400 W Sherman St,Paris,Lamar,400 W Sherman St,75460,33.6572812689099,-95.5602262210132,0,1400,0,480,650,2050,480,(903) 785-4561,http://www.parislamarhealth.com/,,04/16/2021      ,20:00:45        ,-95.560226,33.657281
301,Brookshires Pharmacy 50,Pharmacy,,200 W Us Highway 80,White Oak,Gregg,200 W Us Highway 80,75693,32.5209833041395,-94.8633375926239,0,90,0,0,0,90,0,(903) 297-9896,https://www.brookshires.com/covid-19-information,,04/17/2021      ,15:11:37        ,-94.863338,32.520983
302,Exxonmobil Medical Clinic,Community Clinic,,2250 Grove Street,Beaumont,Jefferson ,2250 Grove Street,77701,30.079732359708,-94.0923757187277,0,0,0,0,200,200,0,,,,04/16/2021      ,07:13:58        ,-94.092376,30.079732
303,Family Healthcare Associates Richardson,Other,,,Richardson,,2821 E PRESIDENT GEORGE BUSH HWY Richardson 75082,75082,33.0720139949135,-96.6483102293958,0,40,0,0,0,40,0,,,,04/16/2021      ,10:14:04        ,-96.64831,33.072014
304,Walgreens Pharmacy 04839,Pharmacy,,,Katy ,,2010 S Fry Rd ,77450,,,0,90,0,0,0,90,0,,,,04/17/2021      ,17:17:36        ,,
305,Walgreens Pharmacy 09126,Pharmacy,,2602 Fort Worth Ave,Dallas,Dallas,"2602 Fort Worth Avenue, Dallas, TX, USA",75211,32.7577497,-96.8644604,0,0,0,0,100,100,0,214-941-0926,https://www.walgreens.com/locator/walgreens-2602+fort+worth+ave-dallas-tx-75211/id=9126,,04/17/2021      ,17:49:20        ,-96.86446,32.75775
306,AHF Pharmacy,Federal Allocation,,,Houston,Harris,1435 Westheimer Rd,77006,29.74255,-95.3973,0,0,0,0,100,100,0,,,,04/17/2021      ,14:05:01        ,-95.3973,29.74255
307,Walgreens Pharmacy 07491,Pharmacy,,,,,"6802 S FRY RD Katy, TX 77494",,29.7153474343261,-95.7746821603457,468,0,0,0,0,468,0,(281) 392-0077,https://www.walgreens.com/locator/walgreens-6802+s+fry+rd-katy-tx-77494/id=7491,,04/17/2021      ,17:59:46        ,-95.774682,29.715347
308,Hope Clinic Aldine,Federal Allocation,,"3000 Aldine Mail Route Rd, 200",Houston,Harris,"3000 Aldine Mail Route Rd, 200",77039,29.9020475,-95.3433679,0,100,0,100,0,100,100,713-773-0803,,,04/15/2021      ,11:27:22        ,-95.343368,29.902048
309,Family Circle of Care-Jacksonville,Community Clinic,,510 E Commerce St,Jacksonville,Cherokee,510 East Commerce St,75766,31.9653713,-95.2697089,0,89,0,0,35,124,0,(903) 535-9041,,,04/15/2021      ,08:21:17        ,-95.269709,31.965371
310,Tyler Care Clinic,Other,,Troup Hwy,Tyler,Smith,4519 Troup Hwy,75703,32.3025983706013,-95.2697421471122,0,200,0,0,0,200,0,,,,04/16/2021      ,13:59:30        ,-95.269742,32.302598
311,La Porte RapidCare ER LLC,Other,,,La Porte ,,1220 W FAIRMONT PKWY ,77571,29.652989181246,-95.0312475870931,0,90,0,0,0,90,0,,,,04/06/2021      ,09:00:26        ,-95.031248,29.652989
312,Dept of Public Health - Laredo,Vaccine Hub,T,2600 Cedar,Laredo,Webb,2600 Cedar,78040,27.520095201917,-99.4896515177051,0,3050,0,2470,0,3050,2470,956-795-4920,https://vaccinatelaredo.timetap.com/#/,,04/16/2021      ,10:55:42        ,-99.489652,27.520095
313,TTUHSC Pharmacy Dallas,Pharmacy,,,Dallas,,5920 FOREST PARK RD STE 500,75235,32.8212301010895,-96.8411801022606,0,90,0,0,0,90,0,(214) 654-9404,,,04/16/2021      ,16:28:48        ,-96.84118,32.82123
314,City of Dallas (The Potters House) ,Vaccine Hub,,650 S Griffin Street,Dallas,Dallas,650 S Griffin Street,75202,32.7747699817525,-96.7985150203102,0,0,0,0,0,0,0,214-670-3111,https://dallascityhall.com/Pages/Coronavirus-Vaccine-Information.aspx,,04/15/2021      ,13:52:54        ,-96.798515,32.77477
315,TTUHSC Lubbock,Other,,3601 4th St Ms 8150,Lubbock,Lubbock,3601 4th St Ms 8150,79430,33.5897089837071,-101.892101020502,0,0,0,109,0,0,109,(806) 743-2669,http://www.texastechphysicians.com/,,04/15/2021      ,08:17:36        ,-101.892101,33.589709
316,Zikam Drive Thru Pharmacy,Federal Allocation,,,Schertz,,17323 Ih 35n,78154,29.5987414427177,-98.281977288683,0,0,0,0,393,393,0,,,,04/16/2021      ,10:13:21        ,-98.281977,29.598741
317,Village Health Partners- McKinney,Community Clinic,,,Mckinney,Collin,7300 Eldorado Parkway Ste 200,75070,33.1752777209845,-96.7136640154526,0,0,0,0,20,20,0,+1 214 964 0304,https://villagehealthpartners.com/mckinney-medical-village,,03/26/2021      ,17:25:13        ,-96.713664,33.175278
318,Memphis Drug,Federal Allocation,,506 West Noel Street,Memphis,Hall,506 W NOEL ST MEMPHIS 79245,79245,34.7242763683865,-100.542702755565,0,200,0,0,0,200,0,,,,04/14/2021      ,15:27:06        ,-100.542703,34.724276
319,Overton Pharmacy,Other,,104 Overton St,Overton,Rusk,104 W Henderson St,75684,32.2753126109498,-94.9793498955194,0,300,0,300,0,300,300,(903)834-0154,,,04/16/2021      ,12:35:05        ,-94.97935,32.275313
320,Nuestra Clinica Del Valle - Mission,Community Clinic,,611 N Bryan Rd,Mission,Hidalgo,"611 Bryan Rd, Mission, TX 78572",78572,26.20908,-98.31106,0,0,0,80,0,0,80,956-580-3303,http://www.nuestraclinicadelvalle.org/,,04/15/2021      ,15:05:05        ,-98.31106,26.20908
321,Hereford Health Clinic,Community Clinic,,540 W 15th,Hereford,Deaf Smith,540 W 15th,79045,34.8389580169874,-102.413711968071,0,160,0,30,65,225,30,(806) 364-7512,https://dschd.org/clinic/,,04/14/2021      ,15:21:27        ,-102.413712,34.838958
322,Christus Spohn Health System - Kleberg,Vaccine Hub,U,1311 East General Cavazos Boulevard,Kingsville,Kleberg,"1311 East General Cavazos Boulevard, Kingsville, TX, 78363",78363,27.491449,-97.847583,0,0,2440,0,0,0,2440,877-335-5746,https://www.christushealth.org/vaccine,,04/15/2021      ,08:11:49        ,-97.847583,27.491449
323,Family Medicine At Sterling Ridge,Medical Practice,,10110 Woodlands Pkwy Ste 100,Spring,Montgomery,10110 Woodlands Pkwy Ste 100,77382,30.1924527399581,-95.5887264772983,0,0,0,0,5,5,0,(281) 419-6565,https://www.familymedicinesterlingridge.com/,,04/15/2021      ,08:12:12        ,-95.588726,30.192453
324,South San Medical Building Pharmacy,Federal Allocation,,919 Sw Military #105,San Antonio,Bexar,919 SW MILITARY DR STE 105 San Antonio 78221,78221,29.3573408602269,-98.5065760035534,0,0,0,0,215,215,0,,,,04/15/2021      ,17:19:05        ,-98.506576,29.357341
325,Accel Rehabilitation Hospital,Other,,Marsh Lane,Plano,Collin,2301 Marsh Lane,75093,33.0316362967157,-96.8539672605865,0,100,0,0,0,100,0,,,,04/15/2021      ,07:55:00        ,-96.853967,33.031636
326,Trinity Clinic Mineola,Community Clinic,,1302 N Pacific St,Mineola,Wood,1302 N Pacific St,75773,32.6785643411235,-95.4843280722779,0,0,0,10,100,100,10,(903) 569-5383,https://www.christushealth.org/trinity/clinic/locations-directions/mineola?utm_source=organic&utm_medium=GMB&utm_campaign=website&y_source=1_MTE3ODEyMDUtNzE1LWxvY2F0aW9uLmdvb2dsZV93ZWJzaXRlX292ZXJyaWRl,,04/16/2021      ,11:58:25        ,-95.484328,32.678564
327,Medical Arts Pharmacy - San Angelo,Pharmacy,,2102 Pecos St,San Angelo,Tom Green,2102 Pecos Ste 4,76901,31.4535462,-100.4651666,0,0,0,0,390,390,0,(325) 949-4636,,,04/15/2021      ,17:45:47        ,-100.465167,31.453546
328,"SAENZ MEDICAL PHARMACY LONESTAR, INC.",Federal Allocation,,Griffin Parkway,Mission,Hidalgo,2121 E. Griffin Parkway Ste 18,78572,26.2250619,-98.2877461,0,0,0,0,200,200,0,956-519-6500,,,04/17/2021      ,12:21:02        ,-98.287746,26.225062
329,Burleson Pharmacy,Pharmacy,,Sw Wilshire Blvd,Burleson,Johnson,344 Sw Wilshire Blvd Ste P,76028,32.5409876708749,-97.332674830806,0,280,0,0,0,280,0,,,,04/16/2021      ,10:38:41        ,-97.332675,32.540988
330,PERRYTON HEALTH CENTER,Community Clinic,, GARRETT DR,PERRYTON,OCHILTREE,3101 GARRETT DR,79070,36.3700259,-100.7987427,0,160,0,160,0,160,160,+18064357224,http://www.ochiltreehospital.com/perryton-health-center,,04/16/2021      ,17:09:28        ,-100.798743,36.370026
331,MCCAMEY COUNTY HOSPITAL DISTRICT,Hospital,J,2500 S Highway 305,Mccamey,Upton,"2500 S Hwy 305,  McCAMEY, TX, 79752",79752,31.156902,-102.19598,0,0,152,60,110,110,212,(432) 652-4030,http://www.mccameyhospital.org/getpage.php?name=contact,,04/07/2021      ,13:13:19        ,-102.19598,31.156902
332,Pattison First Family Clinic,Other,,3603 Front Street,Brookshire,Waller,"3603 S Front St #103, Brookshire, TX 77423",77423,29.7859915103912,-95.947917543398,0,0,0,0,50,50,0,+12819344444,http://www.pffclinic.com/,,04/16/2021      ,13:12:52        ,-95.947918,29.785992
333,COSTCO PHARMACY 1049,Federal Allocation,,1225 State Hwy 276,Rockwall,Rockwall,1225 State Hwy 276,75032,32.9084619855242,-96.4448516938094,0,50,0,0,0,50,0,,,,04/16/2021      ,18:04:08        ,-96.444852,32.908462
334,Northeast Family Practice,Other,,,El Paso,,4875 Maxwell Ave. ,El Paso,31.86732,-106.42879,0,70,0,90,0,70,90,,,,04/16/2021      ,12:57:32        ,-106.42879,31.86732
335,Walgreens Pharmacy 12522,Pharmacy,,,,,"1620 S BROADWAY AVE Tyler, TX 75701",,32.3312190570206,-95.3005582158066,3624,0,0,0,100,3724,0,(903) 533-0367,https://www.walgreens.com/locator/walgreens-1620+s+broadway+ave-tyler-tx-75701/id=12522,,04/16/2021      ,09:27:30        ,-95.300558,32.331219
336,Walgreens Pharmacy 01970,Pharmacy,,3407 Wells Branch Pkwy,Austin,Travis,3407 Wells Branch Pkwy,78728,30.4398786604589,-97.6963787049504,2070,0,0,0,75,2145,0,512-388-1539,https://www.walgreens.comocator/walgreens-29+new+derby+st-salem-ma-01970/id=2063,,04/15/2021      ,16:04:49        ,-97.696379,30.439879
337,Denton County Public Health,Vaccine Hub,E,"535 S Loop 288 #1003, Denton, TX 76205",Denton,Denton,535 S Loop 288,76205,33.2039740510303,-97.0908801616591,0,0,0,0,0,0,0, 940 349 2585,https://utswmed.org/covid-19/covid-19-vaccination/,,04/16/2021      ,07:36:51        ,-97.09088,33.203974
338,Dept of Public Health - Bell County,Vaccine Hub,,820 N 31st St,Temple,Bell,"820 North 31st Street, Temple, TX, USA",76504,31.1096332,-97.3546731,0,0,0,0,0,0,0,(254) 778-4766,https://www.bellcountyhealth.org/,,04/15/2021      ,14:24:05        ,-97.354673,31.109633
339,Brownsville Pharmacy 1 LLC,Pharmacy,,,Brownsville,,1205 Central Blvd,78520,25.9232887,-97.5120759,0,0,0,120,10,10,120,(956)548-0801,,,04/17/2021      ,17:34:48        ,-97.512076,25.923289
340,Costco Pharmacy 1163,Federal Allocation,,,Lubbock,,6020 34th Street,79407,,,0,0,0,0,165,165,0,,,,04/16/2021      ,17:04:28        ,,
341,Marfa Community Health Clinic,Community Clinic,J,406 South Summer St,Marfa,Presidio,406 S. Summer St,79843,30.30643,-104.02583,0,100,0,0,0,100,0,,,,04/13/2021      ,08:17:02        ,-104.02583,30.30643
342,Central Teen Health Center,Other,,3014 Sealy St Rm 157,Galveston,Galveston,3014 Sealy St Rm 157 Galveston 77550,77550,29.2993512220128,-94.8016524170457,0,174,0,0,0,174,0,,,,04/14/2021      ,11:42:26        ,-94.801652,29.299351
343,MEDICAL CENTER OF SOUTHEAST TEXAS,Hospital,R,2555 Jimmy Johnson Blvd,Port Arthur,Jefferson,2555 Jimmy Johnson Blvd,77640,29.933825070008,-93.9886543964915,0,20,0,310,0,20,310,(409) 724-7389,https://www.medicalcentersetexas.org/,,04/14/2021      ,11:19:31        ,-93.988654,29.933825
344,Clifton Medical Clinic,Medical Practice,,Posey Ave,Clifton,Bosque,201,76634,31.7765368203522,-97.5880780618584,0,820,48,1000,0,820,1048,(254) 675-8621,,,04/16/2021      ,16:26:47        ,-97.588078,31.776537
345,"Nurses On Wheels, Inc",Other,,1101 Third Street,Corpus Christi,Nueces,1101 3RD ST Corpus Christi 78404,78404,27.7817966543966,-97.3979683017259,18,0,0,0,0,18,0,,,,04/17/2021      ,08:05:09        ,-97.397968,27.781797
346,Tlc Pharmacy And Medical Equipment 2,Federal Allocation,,,Mission,Hidalgo,1242 E Business Hwy 83 Ste 7,78572,26.2148466079544,-98.32887304571,0,40,0,0,0,40,0,,,,04/16/2021      ,15:37:24        ,-98.328873,26.214847
347,Divine Grace Pharmacy,Pharmacy,,1970 Us Highway 259 S,Diana,Upshur,1970 Us Highway 259 S,75640,32.7005419846161,-94.751223351225,0,0,0,0,160,160,0,(430) 625-2600,https://divinegracerx.com/,,04/15/2021      ,12:03:08        ,-94.751223,32.700542
348,Daniel's Pharmacy #2,Federal Allocation,,,ZAPATA,,408 N US HIGHWAY 83  ,78076,26.9003243134947,-99.2652325885628,0,0,0,0,80,80,0,,,,04/16/2021      ,15:34:31        ,-99.265233,26.900324
349,Tlc Pharmacy And Medical Equipment - Beeville,Federal Allocation,,200 S Hillside Dr,Beeville,,"200 S Hillside Dr, Beeville, TX 78102",78102,28.4075309541134,-97.7329697515127,0,0,0,0,95,95,0,,,,04/16/2021      ,15:32:22        ,-97.73297,28.407531
350,"Martin-Tipton Pharmacy, LLC",Federal Allocation,,1501 S Tyler St,Amarillo,Potter,1501 South Tyler Street,79101,35.1983161,-101.8398604,0,0,0,0,255,255,0,(806) 373-2812,,,04/15/2021      ,12:45:12        ,-101.83986,35.198316
351,Dept of Public Health - Denton County / Lewisville Office,Local Health Department,E,190 N Valley Pkwy,Lewisville,Denton,190 N Valley Pkwy,75067,33.0445919526017,-97.02071851912,0,0,0,400,0,0,400,972-434-4700,www.dentoncounty.gov/vaccine,,04/13/2021      ,08:41:03        ,-97.020719,33.044592
352,Fiesta Lifecare Pharmacy 5 LLC,Federal Allocation,,3230 Martin Luther King Jr Blvd,Dallas,Texas,3230 Martin Luther King Junior,75210,32.7729891,-96.7621979,0,200,0,0,0,200,0,,,,04/15/2021      ,11:43:34        ,-96.762198,32.772989
353,Walgreens Pharmacy 04858,Pharmacy,,,,,"6205 WESTCREEK DR Fort Worth, TX 76133",,32.6544992521293,-97.3614723844499,9099,0,0,0,75,9174,0,(817) 263-0962,https://www.walgreens.com/locator/walgreens-6205+westcreek+dr-fort+worth-tx-76133/id=4858,,04/17/2021      ,08:46:04        ,-97.361472,32.654499
354,"Remedi SeniorCare of Dallas, LLC",Federal Allocation,,2700 Research Drive,Plano,Collin,2700 Research Drive,75074,,,0,0,0,0,300,300,0,,,,04/17/2021      ,17:38:37        ,,
355,CHRISTUS ST. ELIZABETH HOSPITAL,Hospital,R,2830 Calder St,Beaumont,Jefferson,"2830 Calder St, Beaumont, TX, 77702",77702,30.085112,-94.12607,110,0,110,0,0,110,110,(409) 892-7171,https://www.christushealth.org/southeast-texas/st-elizabeth?utm_source=organic&utm_medium=GMB&utm_campaign=website&y_source=1_MTUzNzY1NTgtNzE1LWxvY2F0aW9uLmdvb2dsZV93ZWJzaXRlX292ZXJyaWRl,,04/17/2021      ,16:05:16        ,-94.12607,30.085112
356,Kaufman County Detention Center,Other,,,Kaufman,Kaufman,1900 E Hwy 175,75142,,,0,0,0,0,135,135,0,,,,04/16/2021      ,06:55:38        ,,
357,International Travel Solutions - Dallas,Medical Practice,,12810 Hillcrest Rd,Dallas,Dallas,"12810 Hillcrest Road, Dallas, TX, USA",75230,32.923762,-96.785173,0,30,0,0,0,30,0,,,,04/17/2021      ,08:15:49        ,-96.785173,32.923762
358,International Travel Solutions - Grapevine,Medical Practice,,1340 S Main St,Grapevine,Tarrant,"1340 South Main Street, Grapevine, TX, USA",76051,32.9260911,-97.0787145,0,30,0,0,0,30,0,,,,04/17/2021      ,08:14:53        ,-97.078714,32.926091
359,Walgreens Pharmacy 05958,Pharmacy,,,,,"103 W FM 544 Murphy, TX 75094",,33.0146614666455,-96.5965055374975,12,0,0,0,135,147,0,(972) 509-8910,https://www.walgreens.com/locator/walgreens-103+w+fm+544-murphy-tx-75094/id=5958,,04/15/2021      ,11:12:56        ,-96.596506,33.014661
360,Lamesa Primary Care Clinic,Other,,1502 N. Ave K,Lamesa,Dawson,"1502 North Avenue K, Lamesa, TX, USA",79331,32.7434382,-101.9661184,0,0,0,0,100,100,0,(806) 894 7842,,,04/15/2021      ,10:36:05        ,-101.966118,32.743438
361,South Plains Rural Health Services Inc,Community Clinic,,1000 Fm 300,Levelland,Hockley,1000 Fm 300,79336,33.5719943761694,-102.380041611558,0,0,0,0,100,100,0,(806) 894 7842,https://www.sprhs.org/?utm_source=gmb_auth,,04/15/2021      ,10:36:49        ,-102.380042,33.571994
362,Paris Pediatric Clinic,Other,,3150 Clarksville St,Paris,Lamar,3150 Clarksville St,75460,33.64913,-95.51918,0,0,0,0,200,200,0,,,,04/16/2021      ,08:35:25        ,-95.51918,33.64913
363,Walgreens Pharmacy 04662,Pharmacy,,,Garland,,3045 BROADWAY BLVD,75041,32.881516778547,-96.6054692183438,0,31,0,0,0,31,0,(972) 864-1608,https://www.walgreens.com/locator/walgreens-3045+broadway+blvd-garland-tx-75041/id=4662,,04/17/2021      ,22:12:06        ,-96.605469,32.881517
364,Walgreens Pharmacy 09504,Pharmacy,,FM 1464 RD ,Richmond ,,7102 FM 1464 RD ,77407,29.7006133900952,-95.6886005601505,0,200,0,0,100,300,0,,,,04/17/2021      ,18:00:58        ,-95.688601,29.700613
365,North Houston Cancer Clinics ,Medical Practice,,,huntsville,Texas,3233 woodward dr,77384,30.6930478,-95.5625893,0,381,0,258,0,381,258,,,,04/15/2021      ,18:40:15        ,-95.562589,30.693048
366,"Ricky A. Siewert, DO",Other,,3006 Garrett Dr,Perryton,Ochiltree,3006 Garrett Dr,79070,36.3700599,-100.8009338,0,70,0,100,0,70,100,,,,04/14/2021      ,17:15:57        ,-100.800934,36.37006
367,Laredo Isd,Other,,,Laredo ,Webb,2001 Cedar St ,78040,,,0,0,0,1200,0,0,1200,,,,04/16/2021      ,12:14:19        ,,
368,Teare Memorial Clinic,Medical Practice,,146 N Pioneer,Booker,Lipscomb,146 N Pioneer,79005,36.4601770699411,-100.536487717731,0,240,0,280,0,240,280,(806) 658-4531,,,04/16/2021      ,08:32:05        ,-100.536488,36.460177
369,Orange County Convention and Expo Center,Other,,,Orange,,11475 FM 1442 ORANGE 77630,77630,30.1209198443181,-93.881852929411,0,2370,0,5600,500,2870,5600,,,,04/17/2021      ,07:10:04        ,-93.881853,30.12092
370,Woodhaven Pharmacy,Pharmacy,,1201 Woodhaven Blvd,Fort Worth,Tarrant,1201 Woodhaven Boulevard,76112,32.7620743,-97.2391498,0,100,0,0,0,100,0,,,,04/17/2021      ,12:53:55        ,-97.23915,32.762074
371,Walgreens Pharmacy 04396,Pharmacy,,, Houston ,,10850 Scarsdale Blvd,77089,29.5839235948172,-95.213625201157,13,0,0,0,135,148,0,,,,04/14/2021      ,18:58:48        ,-95.213625,29.583924
372,TitaniumRx Pharmacy,Pharmacy,,THOMPSON ROAD,RICHMOND,TX,2116 Thompson Road G-1,77469,29.564991,-95.76062,0,0,0,0,270,270,0,8323631246,,,04/16/2021      ,09:43:56        ,-95.76062,29.564991
373,Valleywide Pharmacy And Dme,Federal Allocation,,,Brownsville,,680 Paredes Line Rd Suite B,78521,25.9322162337229,-97.4879705836768,0,0,0,0,20,20,0,(956) 372-1405,,,04/16/2021      ,12:09:30        ,-97.487971,25.932216
374,Valu Rite Pharmacy,Pharmacy,,709 Woodrow Wilson Ray Cir,Bridgeport,Wise,709 Woodrow Wilson Ray Circle,76426,33.2221782,-97.760303,0,0,0,0,245,245,0,(940) 683-2950,valurite_pharmacy@yahoo.com,,04/16/2021      ,14:53:44        ,-97.760303,33.222178
375,MCALLEN MEDICAL CENTER (STHS),Hospital,V,301 W Expressway 83,Mcallen,Hidalgo,301 W Expressway 83,78501,26.1882083807114,-98.219988776733,1092,0,0,0,55,1147,0,(956) 632-4880,http://www.chghospitals.com/,,04/17/2021      ,16:09:29        ,-98.219989,26.188208
376,Gatesville Drug Company,Other,,,Gatesville,Coryell,2513 S State Hwy 36,76528,31.431812335547,-97.727497861363,0,0,0,0,650,650,0,,,,04/15/2021      ,09:38:10        ,-97.727498,31.431812
377,Family Health Center Perryton,Medical Practice,,3019 S Main St,Perryton,Ochiltree,3019 S Main St,79070,36.3699638873199,-100.802558381484,0,380,0,0,0,380,0,(806) 435-7154,,,04/16/2021      ,10:08:29        ,-100.802558,36.369964
378,KERRVILLE STATE HOSP,Hospital,P,721 Thompson Dr,Kerrville,Kerr,721 Thompson Dr,78028,30.0475604133901,-99.1543832696762,0,0,0,90,0,0,90,(830) 896-2211,http://www.dshs.texas.gov/mhhospitals/kerrvillesh/,,04/13/2021      ,14:47:49        ,-99.154383,30.04756
379,DRISCOLL CHILDREN'S HOSPITAL,Vaccine Hub,U,3533 S Alameda,Corpus Christi,Nueces,3533 S Alameda,78411,27.7493555507385,-97.3850633378074,7801,0,0,100,0,7801,100,(361) 694-5000,http://www.driscollchildrens.org/,,04/16/2021      ,15:16:44        ,-97.385063,27.749356
380,Eagle Pharmacy - Lindale,Pharmacy,,1404 S Main St,Lindale,Smith,1404 S Main St,75771,32.5026727013768,-95.4067414046296,0,600,0,0,0,600,0,,http://www.eaglerx.net/,,04/14/2021      ,17:17:30        ,-95.406741,32.502673
381,Project Vida Nafzger Health Clinic,Community Clinic,,3612 Pera Ave,El Paso,El Paso,3612 Pera Ave,79905,31.7723024924156,-106.450369985053,0,380,0,0,0,380,0,(915) 533-7057,http://www.pvida.net/,,04/16/2021      ,16:36:13        ,-106.45037,31.772302
382,EDINBURG REGIONAL MEDICAL CENTER (STHS),Pharmacy,V,1102 W Trenton Road,Edinburg,Hidalgo,1102 W Trenton Road,78539,26.263257738325,-98.1827475215229,0,0,0,0,15,15,0,(956) 388-6000,https://southtexashealthsystemedinburg.com/?utm_source=google-business&utm_medium=organic&utm_campaign=homepage,,04/14/2021      ,14:36:55        ,-98.182748,26.263258
383,Wills Point ISD,Other,,447 Terrace Dr,Wills Point,Van Zandt,"447 Terrace Drive, Wills Point, TX, USA",2323,32.7045339,-96.0195387,0,150,0,0,0,150,0,,,,04/15/2021      ,09:39:26        ,-96.019539,32.704534
384,AHF Pharmacy Dallas,Federal Allocation,,3920 Cedar Springs Rd,Dallas,Dallas,3920 CEDAR SPRINGS RD Dallas 75219,75219,32.8109858592879,-96.8104735881462,0,0,0,0,100,100,0,,,,04/15/2021      ,10:02:56        ,-96.810474,32.810986
385,Giles W. Dalby Correctional Facility,Other,,,Post,Garza,805 N Ave F,79356,33.19803,-101.37271,0,0,0,0,165,165,0,,,,04/15/2021      ,22:36:06        ,-101.37271,33.19803
386,Fresenius Kidney Care San Angelo,Other,,Pulliam Street,San Angelo,Tom Green County,2018 Pulliam Street,76904,31.4708011,-100.4046882,0,0,0,0,5,5,0,(325) 481-0798,,,04/16/2021      ,13:05:58        ,-100.404688,31.470801
387,USMD HOSPITAL - ARLINGTON,Hospital,E,801 W Interstate 20,Arlington,Tarrant,801 W Interstate 20,76017,32.6788489067365,-97.1178558082869,0,0,0,0,130,130,0,(817) 472-3400,http://www.usmdarlington.com/,,04/15/2021      ,13:03:32        ,-97.117856,32.678849
388,Lifecare Pharmacy - San Antonio,Pharmacy,,315 N San Saba,San Antonio,Bexar,"315 North San Saba, San Antonio, TX, USA",78207,29.4278921,-98.5001541,0,75,0,0,85,160,0,,,,04/16/2021      ,13:35:05        ,-98.500154,29.427892
389,Walgreens Pharmacy 07334,Pharmacy,,,,,"5001 ROSS AVE Dallas, TX 75206",,32.8079647648493,-96.7750794575938,0,90,0,0,30,120,0,(214) 370-8747,https://www.walgreens.com/locator/walgreens-5001+ross+ave-dallas-tx-75206/id=7334,,04/17/2021      ,08:59:01        ,-96.775079,32.807965
390,Collin County Healthcare Services,Vaccine Hub,E,825 N. McDonald St.,McKinney,Collin,"825 N. McDonald St., Suite 145",75069,33.2055924489892,-96.6119218355515,0,0,0,0,0,0,0,214-491-4838,https://www.collincountytx.gov/healthcare_services/Pages/COVID19vaccines.aspx,,04/16/2021      ,07:56:08        ,-96.611922,33.205592
391,Tackett Pharmacy,Federal Allocation,,,Weatherford,Parker County,138 College Park Drive Suite 130,76086,32.7386629537352,-97.7955652270485,0,0,0,0,10,10,0,(817) 341-7046,,,04/17/2021      ,13:46:12        ,-97.795565,32.738663
