OBJECTID,NAME,TYPE,TSA,STREET,CITY,COUNTY,ADDRESS,ZIP,LATITUDE,LONGITUDE,PFIZER_AVAILABLE,MODERNA_AVAILABLE,JJ_AVAILABLE,VACCINES_AVAILABLE,PublicPhone,WEBSITE,RemoveRecord,LAST_UPDATE_VAC,LAST_UPDATE_TIME_VAC,x,y
1,"Tesoro Medical Care., P.A.",Medical Practice,,101 W Village Blvd A,Laredo,Webb,"101 W Village Blvd A, Laredo, TX 78041",78041,27.56567,-99.49793,0,240,0,240,(956) 727-2997,,,04/10/2021      ,08:20:42        ,-99.49793,27.56567
2,"Remedi SeniorCare of Dallas, LLC",Federal Allocation,,2700 Research Drive,Plano,Collin,2700 Research Drive,75074,,,0,0,300,300,,,,04/13/2021      ,06:27:48        ,,
3,BRUCES PHARMACY,Pharmacy,,6001 39th St,Groves,Jefferson,6001 39th Street,77619,29.9450846,-93.9221114,0,70,0,70,(409) 962-4431,,,04/13/2021      ,06:08:17        ,-93.922111,29.945085
4,Walgreens Pharmacy 07775,Pharmacy,,,,,"560 RAYFORD RD Spring, TX 77386",,30.1266058426865,-95.4343238728873,0,40,0,40,(281) 298-0040,https://www.walgreens.com/locator/walgreens-560+rayford+rd-spring-tx-77386/id=7775,,04/12/2021      ,22:11:08        ,-95.434324,30.126606
5,Walgreens Pharmacy 03696,Pharmacy,,,Sugar Land,,4711 SWEETWATER BLVD,77479,29.5853552061569,-95.6152700031419,0,0,100,100,(281) 980-6304,https://www.walgreens.com/locator/walgreens-4711+sweetwater+blvd-sugar+land-tx-77479/id=3696,,04/11/2021      ,21:46:48        ,-95.61527,29.585355
6,Walgreens Pharmacy 11513,Pharmacy,,,,,"5011 W SLAUGHTER LN Austin, TX 78749",,30.1990544889205,-97.8634390797613,0,0,100,100,(512) 292-1340,https://www.walgreens.com/locator/walgreens-5011+w+slaughter+ln-austin-tx-78749/id=11513,,04/06/2021      ,15:12:45        ,-97.863439,30.199054
7,Walgreens Pharmacy 06821,Other,,,MEADOWS PLACE ,,11675 W Airport Blvd ,77477,29.6472186924797,-95.5815795471798,0,0,55,55,,,,04/12/2021      ,21:03:24        ,-95.58158,29.647219
8,Walgreens Pharmacy 07251,Pharmacy,,, Houston ,,11038 Westheimer Rd,77042,,,0,0,70,70,,,,04/12/2021      ,21:02:34        ,,
9,Walgreens Pharmacy 11646,Pharmacy,,,,,"4585 RESEARCH FOREST DR The Woodlands, TX 77381",,30.1838220945449,-95.4876479256348,0,0,100,100,(281) 465-0548,https://www.walgreens.com/locator/walgreens-4585+research+forest+dr-the+woodlands-tx-77381/id=11646,,04/08/2021      ,19:30:35        ,-95.487648,30.183822
10,Walgreens Pharmacy 10613,Pharmacy,,,,,"32320 STATE HIGHWAY 249 Pinehurst, TX 77362",,30.1337749654008,-95.6533151880361,0,0,160,160,(832) 934-0415,https://www.walgreens.com/locator/walgreens-32320+state+highway+249-pinehurst-tx-77362/id=10613,,04/12/2021      ,20:02:56        ,-95.653315,30.133775
11,Walgreens Pharmacy 07964,Pharmacy,,,,,"5204 N NAVARRO ST Victoria, TX 77904",,28.8435372447648,-96.9993728815118,30,0,85,115,(361) 576-5238,https://www.walgreens.com/locator/walgreens-5204+n+navarro+st-victoria-tx-77904/id=7964,,04/12/2021      ,19:59:54        ,-96.999373,28.843537
12,Walgreens Pharmacy 03224,Pharmacy,,,,,"6901 SAN PEDRO AVE San Antonio, TX 78216",,29.5059290407028,-98.5006285879054,0,0,140,140,(210) 349-9809,https://www.walgreens.com/locator/walgreens-6901+san+pedro+ave-san+antonio-tx-78216/id=3224,,04/12/2021      ,19:49:19        ,-98.500629,29.505929
13,Walgreens Pharmacy 06715,Pharmacy,,W UNIVERSITY BLVD, Odessa,odessa,"1305 W UNIVERSITY BLVD Odessa, TX 79764",79764,31.8645123752942,-102.397163582645,0,0,100,100,(432) 580-0166,https://www.walgreens.com/locator/walgreens-1305+w+university+blvd-odessa-tx-79764/id=6715,,04/12/2021      ,19:49:44        ,-102.397164,31.864512
14,HealthQuest Infusion Services,Pharmacy,,1311 West Sam Houston Pkwy N,Houston,Harris,"1311 West Sam Houston Pkwy N, Ste #100",77043,29.7949547,-95.5645993,0,40,320,360,(832) 612-3500,vaccines@hqrx.com,,04/12/2021      ,19:01:24        ,-95.564599,29.794955
15,"Emergency Hospital Systems, LLC",Vaccine Hub,,,Cleveland,Liberty,300 E. Crockett Street,77327,30.3419162,-95.085492,3150,0,0,3150,281-592-5410     281-592-5400,www.emergencyhospitals.care,,04/12/2021      ,19:16:24        ,-95.085492,30.341916
16,"Remedi SeniorCare of Houston, LLC",Federal Allocation,,16601 Central Green Blvd,Suite Houston,Harris,16601 CENTRAL GREEN BLVD STE 300 Houston 77032,77032,29.9607708712983,-95.377593440217,0,0,475,475,,,,04/12/2021      ,19:03:15        ,-95.377593,29.960771
17,Walgreens Pharmacy 03571,Pharmacy,,,Shavano Park,,14505 NW MILITARY HWY,8231,29.5772221386899,-98.5213780484406,0,0,5,5,(210) 408-1019,https://www.walgreens.com/locator/walgreens-14505+nw+military+hwy-shavano+park-tx-78231/id=3571,,04/12/2021      ,18:13:39        ,-98.521378,29.577222
18,El Paso Pulmonary Association West,Medical Practice,,4305 N Mesa St,El Paso,El Paso,4305 N Mesa St Ste A,79902,31.7973560010071,-106.511277419753,0,0,25,25,(915) 532-2477,http://www.elpasopulmonary.com/,,04/12/2021      ,16:47:44        ,-106.511277,31.797356
19,Lifecare Pharmacy - San Antonio,Pharmacy,,315 N San Saba,San Antonio,Bexar,"315 North San Saba, San Antonio, TX, USA",78207,29.4278921,-98.5001541,0,0,44,44,,,,04/12/2021      ,17:28:25        ,-98.500154,29.427892
20,Walgreens Pharmacy 03691,Pharmacy,,,,,"20500 FM 529 RD Cypress, TX 77433",,29.8802505077305,-95.7243499331805,0,0,130,130,(281) 859-2106,https://www.walgreens.com/locator/walgreens-20500+fm+529+rd-cypress-tx-77433/id=3691,,04/12/2021      ,20:51:08        ,-95.72435,29.880251
21,Lifecare of Brownfield LLC,Other,,706 E Felt Street,Brownfield,,706 E FELT ST Brownfield 79316,79316,33.18707,-102.26705,0,0,10,10,,,,04/12/2021      ,08:48:37        ,-102.26705,33.18707
22,Walgreens Pharmacy 04013,Pharmacy,,18207 Midway Rd,Dallas,Denton,18207 Midway Rd,75287,32.9976170011785,-96.8439582627473,0,0,155,155,(972) 307-7556,https://www.walgreens.com/locator/walgreens-18207+midway+rd-dallas-tx-75287/id=4013,,04/11/2021      ,18:26:05        ,-96.843958,32.997617
23,Kroger Pharmacy 990,Pharmacy,,1215 North St,Nacogdoches,Nacogdoches,1215 North St,75961,31.6141083192146,-94.6530319539146,90,20,0,110,(936) 569-9884,http://www.kroger.com/stores/details/035/00990?cid=loc_03500990PP_gmb,,04/07/2021      ,08:05:00        ,-94.653032,31.614108
24,South San Medical Building Pharmacy,Federal Allocation,,919 Sw Military #105,San Antonio,Bexar,919 SW MILITARY DR STE 105 San Antonio 78221,78221,29.3573408602269,-98.5065760035534,0,0,215,215,,,,04/12/2021      ,17:36:43        ,-98.506576,29.357341
25,Walgreens Pharmacy 10477,Pharmacy,,Shadow Creek Pkwy,Pearland,Brazoria,11633 Shadow Creek Pkwy,77584,29.580059178791,-95.3990747011571,0,0,100,100,,,,04/08/2021      ,08:34:07        ,-95.399075,29.580059
26,Walgreens Pharmacy 16261,Pharmacy,,,,,"6486 WEST LITTLE YORK RD Houston, TX 77091",,29.8662862624904,-95.4863780335113,0,0,110,110,(713) 957-8185,https://www.walgreens.com/locator/walgreens-6486+west+little+york+rd-houston-tx-77091/id=16261,,04/12/2021      ,22:28:18        ,-95.486378,29.866286
27,Walgreens Pharmacy 10787,Pharmacy,,,,,"12352 FM 1957 San Antonio, TX 78253",,29.4294491974201,-98.7387584558527,0,0,50,50,(210) 679-0130,https://www.walgreens.com/locator/walgreens-12352+fm+1957-san+antonio-tx-78253/id=10787,,04/12/2021      ,17:13:17        ,-98.738758,29.429449
28,Walgreens Pharmacy 15226,Pharmacy,,,,,"255 WESTLAKE PARK BLVD Houston, TX 77079",,29.7817109903309,-95.6298917356005,0,0,140,140,(281) 496-1751,https://www.walgreens.com/locator/walgreens-255+westlake+park+blvd-houston-tx-77079/id=15226,,04/12/2021      ,17:33:45        ,-95.629892,29.781711
29,Walgreens Pharmacy 21256,Pharmacy,,,,,"8000 DOMINION PKWY Plano, TX 75024",,33.0832436205029,-96.8040521956511,0,0,133,133,(469) 476-3344,https://www.walgreens.com/locator/walgreens-8000+dominion+pkwy-plano-tx-75024/id=21256,,04/09/2021      ,17:29:56        ,-96.804052,33.083244
30,Walgreens Pharmacy 03570,Pharmacy,,,,,"890 N RESLER DR El Paso, TX 79912",,31.8589612078799,-106.558045873761,0,0,120,120,(915) 584-1359,https://www.walgreens.com/locator/walgreens-890+n+resler+dr-el+paso-tx-79912/id=3570,,04/12/2021      ,07:16:53        ,-106.558046,31.858961
31,Walgreens Pharmacy 15967,Pharmacy,,750 W Wheatland Rd,Duncanville,Dallas,"750 West Wheatland Road, Duncanville, TX, USA",4521,32.6470868,-96.9249807,0,0,165,165,,,,04/12/2021      ,14:54:27        ,-96.924981,32.647087
32,Walgreens Pharmacy 05611,Pharmacy,,,,,"801 N FILLMORE ST Amarillo, TX 79107",,35.2225404298154,-101.866408065248,0,0,194,194,(806) 371-8116,https://www.walgreens.com/locator/walgreens-801+n+fillmore+st-amarillo-tx-79107/id=5611,,04/12/2021      ,20:31:14        ,-101.866408,35.22254
33,Walgreens Pharmacy 09163,Other,,, Houston ,,"29.60204236580727, -95.24736164718088",77075,29.6021263220875,-95.247125612803,0,0,10,10,,,,04/12/2021      ,20:20:47        ,-95.247126,29.602126
34,Walgreens Pharmacy 09394,Pharmacy,,1210 N Ih 35, New Braunfels,Comal,"1210 N Ih 35 New Braunfels, Texas  78130",78130,29.7024308,-98.0954018,0,0,200,200,8306263364,https://www.walgreens.com/locator/walgreens-1210+n+business+ih+35-new+braunfels-tx-78130/id=9394,,04/06/2021      ,14:49:48        ,-98.095402,29.702431
35,SAN ANTONIO STATE HOSPITAL BH,Local Health Department,P,6711 S New Braunfels Ave,San Antonio,Bexar,"6711 S New Braunfels Ave, San Antonio, TX 78223",78223,29.3603380207719,-98.4587449852651,0,20,0,20,(210) 532-8811,http://www.dshs.texas.gov/mhhospitals/,,04/08/2021      ,06:40:05        ,-98.458745,29.360338
36,Randol Mill LTC Pharmacy,Federal Allocation,,1014 N Fielder Rd Suite 110,Arlington,Tarrant,"1014 North Fielder Road, Arlington, TX, USA",76012,32.7492602,-97.1323622,0,0,50,50,,,,04/12/2021      ,07:20:00        ,-97.132362,32.74926
37,Walgreens Pharmacy 16065,Pharmacy,,,,,"4010 FM 1463 ROAD Katy, TX 77494",,29.7336329424151,-95.846469036793,0,0,135,135,(281) 712-4980,https://www.walgreens.com/locator/walgreens-4010+fm+1463+road-katy-tx-77494/id=16065,,04/12/2021      ,19:41:24        ,-95.846469,29.733633
38,Komedix Medical Associates,Other,,,New Braunfels,Comal,955 Loop 337,78130,,,0,77,0,77,,,,04/12/2021      ,16:27:23        ,,
39,COSTCO PHARMACY 669,Federal Allocation,,2601 E. State Hwy 114,Southlake,Tarrant,2601 E STATE HIGHWAY 114 SOUTHLAKE 76092,76092,32.9417924784726,-97.1114111286175,0,180,0,180,,,,04/12/2021      ,18:07:16        ,-97.111411,32.941792
40,Woodhaven Pharmacy,Pharmacy,,1201 Woodhaven Blvd,Fort Worth,Tarrant,1201 Woodhaven Boulevard,76112,32.7620743,-97.2391498,0,0,60,60,,,,04/12/2021      ,17:34:52        ,-97.23915,32.762074
41,Marathon Health-Midland,Other,,W ILLINOIS AVE,Midland,Midland,600 W ILLINOIS AVE MIDLAND 79701,79701,32.0000020513536,-102.080313902965,0,0,5,5,(432) 221-0400,https://www.marathon-health.com/,,04/08/2021      ,17:10:32        ,-102.080314,32.000002
42,East Texas Family Medicine Pa,Other,,S Loop 256,Palestine,Anderson,4201 S Loop 256,75801,31.74351,-95.64845,0,0,3,3,(903) 723-8533,http://www.etfmed.com/,,04/12/2021      ,17:17:47        ,-95.64845,31.74351
43,East Texas Community Clinic Inc,Community Clinic,,,Mabank,Henderson,2415 West Main Street,75156,32.331084872996,-96.1499247137895,0,440,0,440,(903) 887-1011,https://www.easttexascc.org/,,04/08/2021      ,11:20:24        ,-96.149925,32.331085
44,Walgreens Pharmacy 10846,Pharmacy,,, Houston,,6400 Fannin St Ste 102, 77030,,,0,0,100,100,,,,04/12/2021      ,15:58:59        ,,
45,Northeast Family Practice,Other,,,El Paso,,4875 Maxwell Ave. ,El Paso,31.86732,-106.42879,0,100,50,150,,,,04/12/2021      ,16:57:46        ,-106.42879,31.86732
46,DFW Int'l Airport Fire/EMS,Federal Allocation,,3150 N Service Rd,Dallas,Tarrant,3150 N. service Rd. Dallas 75261,75261,32.876455281324,-97.038733188145,279,0,0,279,,,,04/13/2021      ,06:53:06        ,-97.038733,32.876455
47,Walgreens Pharmacy 06876,Pharmacy,,,,,"1116 W LAMAR BLVD Arlington, TX 76012",,32.7634935117948,-97.1218818360189,0,0,60,60,(817) 460-5719,https://www.walgreens.com/locator/walgreens-1116+w+lamar+blvd-arlington-tx-76012/id=6876,,04/12/2021      ,21:25:06        ,-97.121882,32.763494
48,COSTCO PHARMACY 693,Federal Allocation,,,,,1201 N LOOP 1604 E SAN ANTONIO 78232,,29.6126049352799,-98.4756458036667,0,0,202,202,210-403-4703,http://costco.com/,,04/12/2021      ,15:01:10        ,-98.475646,29.612605
49,GLEN ROSE MEDICAL CENTER,Hospital,E,1021 Holden St., Glen Rose,Somervell,"1021 Holden St., Glen Rose, TX, 76043",76043,32.242461,-97.746456,0,220,0,220,(254) 897-2215,http://www.glenrosemedicalcenter.com/,,04/12/2021      ,15:04:11        ,-97.746456,32.242461
50,Medical Arts Pharmacy - San Angelo,Pharmacy,,2102 Pecos St,San Angelo,Tom Green,2102 Pecos Ste 4,76901,31.4535462,-100.4651666,0,0,380,380,(325) 949-4636,,,04/12/2021      ,18:47:50        ,-100.465167,31.453546
51,COSTCO PHARMACY 641,Federal Allocation,,,,,4301 W. WILLIAM CANNON DR. AUSTIN 78749,,30.2193435998313,-97.843177464861,0,0,160,160,512-382-3020,http://www.costco.com/warehouse-locations/s-austin-south-austin-tx-641.html,,04/12/2021      ,16:54:19        ,-97.843177,30.219344
52,Liberty Dialysis South Lewisville,Other,,101 E Southwest Pkwy,Lewisville,Denton,101 East Southwest Parkway #110,75067,33.02013,-96.9916851,0,0,10,10,,,,04/12/2021      ,16:07:20        ,-96.991685,33.02013
53,City of Boerne,Vaccine Hub,,202 W Kronkosky St,Boerne,Kendall,"124 Old San Antonio Rd, Boerne, TX, USA",2611,29.7659511,-98.7125772,0,0,0,0,830-249-8645,,,04/09/2021      ,11:54:44        ,-98.712577,29.765951
54,Arlington Family Practice PA,Other,,2415 Matlock Rd,Arlington,,2415 Matlock Rd ,76015,32.7047,-97.11382,0,0,162,162,(817) 277-6444,arlingtonfp.com,,04/12/2021      ,15:37:02        ,-97.11382,32.7047
55,City of Brownsville Fire Department  /  EMS,Other,,62 E Alton Gloor Blvd,Brownsville,Cameron,"62 East Alton Gloor Boulevard, Brownsville, TX, USA",78526,25.9785036,-97.5166535,0,740,0,740,,,,04/12/2021      ,14:53:36        ,-97.516653,25.978504
56,Collingsworth Family Medicine,Community Clinic,,1011 15th St,Wellington,Collingsworth,1011 15th St,79095,34.849080217397,-100.212099733931,0,300,0,300,(806) 447-5311,https://culbersonhospital.org/clinic/,,04/09/2021      ,10:37:03        ,-100.2121,34.84908
57,Midwestern State University Vinson Student Health Center,Other,,3410 Taft Blvd,Wichita Falls,Wichita Falls,3410 Taft Blvd Wichita Falls 76308,76308,33.8717906116084,-98.5214991649914,0,0,1170,1170, (940) 397-4231,https://msutexas.edu/healthcenter/,,04/12/2021      ,14:02:06        ,-98.521499,33.871791
58,Family Care Clinic Of Bushland,Medical Practice,,1600 S Fm 2381,Amarillo,Potter,1600 S Fm 2381,79124,35.1963033178804,-102.063955097489,0,150,0,150,(806) 310-9855,http://www.familycarepanhandle.com/,,04/08/2021      ,07:38:22        ,-102.063955,35.196303
59,Providence Family Care,Medical Practice,,21 Alpine St,Coldspring,San Jacinto,21 Alpine St,77331,30.5912956039381,-95.1321990392786,0,200,82,282,(936) 647-2227,http://www.providencephysicians-sc.com/our-practices/providence-family-medicine/providence-family-medicine-in-lexington,,04/09/2021      ,13:55:48        ,-95.132199,30.591296
60,Providence Family Health Clinic Lacy Lakeview,Other,,,WACO,,1130 N LOOP 340,76705,31.605829886503,-97.1084111511258,0,0,5,5,,,,04/09/2021      ,16:57:24        ,-97.108411,31.60583
61,Montana Vista Community Partnership,Other,,14900 GREG DRIVE STE B ,EL PASO,EL PASO,14900 GREG DRIVE STE B EL PASO 79938,79938,31.798157,-106.162859,0,200,0,200,915-533-7057,,,04/06/2021      ,14:35:21        ,-106.162859,31.798157
62,Dept of Public Health - Bell County,Vaccine Hub,,820 N 31st St,Temple,Bell,"820 North 31st Street, Temple, TX, USA",76504,31.1096332,-97.3546731,0,0,0,0,(254) 778-4766,https://www.bellcountyhealth.org/,,04/12/2021      ,08:15:10        ,-97.354673,31.109633
63,Family Care Clinic of Panhandle,Medical Practice,A,102 Hwy 60,PANHANDLE,Carson,PO BOX 10,79068,35.3399643187129,-101.376587823674,0,800,0,800,(806) 532-2273,http://www.familycarepanhandle.com/,,04/08/2021      ,07:27:36        ,-101.376588,35.339964
64,Crockett Clinic,Community Clinic,,,Crockett ,,1122 E Loop 304 ,75835,31.322486154466,-95.4378921029865,0,20,0,20,,,,04/12/2021      ,14:28:49        ,-95.437892,31.322486
65,Glen Rose Healthcare Inc,Other,,409 Glenwood St,Glen Rose,Somervell,409 Glenwood St,76043,32.2427067903696,-97.7450588866327,0,70,0,70,+12548972202,http://www.glenrosehealthcare.com/,,04/12/2021      ,14:12:19        ,-97.745059,32.242707
66,"Vital Med Urgent Care, Llc",Other,,5711 Mcpherson Rd,Webb,Laredo,5711 MCPHERSON RD STE 103 LAREDO 78041,78041,27.552585182164,-99.4801069464705,0,100,0,100,956-602-8595,,,04/12/2021      ,13:14:50        ,-99.480107,27.552585
67,Walgreens Pharmacy 12569,Pharmacy,,,Georgetown ,,1220 W University Ave ,78628,,,0,0,100,100,,,,04/12/2021      ,13:17:13        ,,
68,Vital Med Urgent Care,Other,,3120 Pita Mangana Road,Laredo,Webb,3120 PITA MANGANA RD STE 100 Laredo 78046,78046,27.4524369592811,-99.4616688594038,0,100,0,100,956-568-1350,,,04/12/2021      ,13:05:28        ,-99.461669,27.452437
69,LPISD-VSHSI Community & School Based Clinic,Community Clinic,P,117 E Us Hwy 57,La Pryor,Zavala,117 E Us Hwy 57,78872,28.9438065089955,-99.8427382669611,0,110,0,110,(830) 365-4526,http://www.communityschools.org/,,04/12/2021      ,08:40:51        ,-99.842738,28.943807
70,Payne Family Pharmacy,Pharmacy,,200 S Main St,Floydada,Floyd,200 S Main St,79235,33.9842197690086,-101.334843179833,0,500,75,575,(806) 983-5111,https://www.mygnp.com/pharmacies/payne-family-pharmacy-floydada-tx-79235/?utm_source=google&utm_medium=local&utm_campaign=localmaps&utm_content=4590851,,04/12/2021      ,17:33:14        ,-101.334843,33.98422
71,Communicare Health Centers - Nw,Federal Allocation,,Callaghan Rd,San Antonio,Bexar,8210 Callaghan Rd,78230,29.5137920049366,-98.5491628282725,0,0,400,400,(210) 233-7000,https://communicaresa.org/,,04/12/2021      ,16:43:34        ,-98.549163,29.513792
72,North East ISD,Other,,,San Antonio,,10333 BROADWAY ST,78217,29.5351334474088,-98.4482464527131,0,360,0,360,,,,04/12/2021      ,11:59:03        ,-98.448246,29.535133
73,TERRELL STATE HOSPITAL,Hospital,E,1200 E Brin St,Terrell,Kaufman,1200 E Brin St,75160,32.7392173431534,-96.2629471143069,0,170,0,170,972-524-6452,https://hhs.texas.gov/services/mental-health-substance-use/state-hospitals/terrell-state-hospital,,04/12/2021      ,12:42:54        ,-96.262947,32.739217
74,Crawford Pharmacy Of Pleasanton LLC,Pharmacy,,145 W Hart Ave,San Antonio,Bexar,145 W Hart Ave,78214,29.3786524,-98.504035,0,0,95,95,(210) 932-1200,,,04/12/2021      ,17:31:04        ,-98.504035,29.378652
75,City of Dallas (The Potters House) ,Vaccine Hub,,650 S Griffin Street,Dallas,Dallas,650 S Griffin Street,75202,32.7747699817525,-96.7985150203102,0,0,0,0,214-670-3111,https://dallascityhall.com/Pages/Coronavirus-Vaccine-Information.aspx,,04/11/2021      ,15:21:34        ,-96.798515,32.77477
76,S & J PHARMACY SANGER,Federal Allocation,,,SANGER,Denton,801 W CHAPMAN DR STE 100,76266,33.367075,-97.17688,0,0,385,385,(940) 458-4448,,,04/13/2021      ,07:39:23        ,-97.17688,33.367075
77,Northeast Texas Public Health District,Vaccine Hub,,815 N Broadway,Tyler,Smith,815 N Broadway,75702,32.3586265520932,-95.3008364771029,8847,0,915,9762,(903) 535-0020,https://www.nethealthcovid19.org/,,04/13/2021      ,07:23:03        ,-95.300836,32.358627
78,COSTCO PHARMACY 668,Federal Allocation,,600 West Arbrook Blvd,Arlington,Tarrant,600 W ARBROOK BLVD ARLINGTON 76014,76014,32.684841890365,-97.1129687746573,0,0,205,205,,,,04/12/2021      ,11:42:01        ,-97.112969,32.684842
79,Shadow Creek Medical Clinic,Medical Practice,,11021 Shadow Creek Pkwy,Pearland,Brazoria,11021 Shadow Creek Pkwy,77584,29.5830220121811,-95.3877950345109,0,0,190,190,(713) 340-1977,http://shadowcreekmedicalclinic.com/,,04/12/2021      ,10:56:45        ,-95.387795,29.583022
80,TRS Health Inc,Other,,12805 CAPRICORN ST Stafford 77477,Stafford,Fort Bend,12805 CAPRICORN ST Stafford 77477,77477,29.6347227795168,-95.5673657177667,0,0,300,300,(281) 385-8554,,,04/11/2021      ,15:11:09        ,-95.567366,29.634723
81,Brazos Family Clinic,Other,,,Graham,Young,618 Oak St,76450,33.1053104612493,-98.5910654470019,0,90,0,90,(940) 549-6953,,,04/12/2021      ,11:38:28        ,-98.591065,33.10531
82,Dow Family Health  Center,Other,,270 Abner Jackson Pkwy,Lake Jackson,Brazoria,270 Abner Jackson Pkwy Lake Jackson 77566,77566,29.0365305926349,-95.4543813728689,0,0,35,35,,,,04/09/2021      ,16:28:19        ,-95.454381,29.036531
83,COSTCO PHARMACY 664,Federal Allocation,,3800 Cenral Expressway,East Plano,Collin,3800 Cenral Expressway,75074,33.046679753275,-96.6990540785712,0,0,400,400,,,,04/12/2021      ,11:28:16        ,-96.699054,33.04668
84,Red's Pharmacy,Federal Allocation,,3102 Garrett Drive,Perryton,Ochiltree,3102 Garrett Drive,79070,36.3697318147705,-100.800193674364,0,300,0,300,,,,04/09/2021      ,09:48:35        ,-100.800194,36.369732
85,CK Pharmacy,Federal Allocation,,KINGWOOD DR # 108 ,Kingwood ,Harris,1110 KINGWOOD DR # 108 ,77339,30.0491710582397,-95.2396892313064,0,0,65,65,,,,04/12/2021      ,10:59:29        ,-95.239689,30.049171
86,Doctors Hospital at Renaissance,Vaccine Hub,V,5501 South Mccoll Road,Edinburg,Hidalgo,5501 South Mccoll Road,78539,26.2526528286993,-98.2040896910264,1032,0,0,1032,956-362-8800,https://www.dhrhealth.com/patients-and-visitors/coronavirus-advisory,,04/12/2021      ,18:00:05        ,-98.20409,26.252653
87,Blanco Pharmacy & Wellness,Other,,Pecan St,blanco,Blanco,316 Pecan St,78606,30.0974343693708,-98.4209605466473,0,0,120,120,(830) 833-4815,https://www.blancopharmacy.com/,,04/12/2021      ,16:15:13        ,-98.420961,30.097434
88,LAMPASAS DRUG COMPANY,Pharmacy,,202 N Key Ave,Lampasas,Lampasas,"202 North Key Avenue, Lampasas, TX, USA",76550,31.0682465,-98.1844164,0,0,165,165,,,,04/12/2021      ,11:17:31        ,-98.184416,31.068247
89,Gatesville Drug Company,Other,,,Gatesville,Coryell,2513 S State Hwy 36,76528,31.431812335547,-97.727497861363,0,0,650,650,,,,04/10/2021      ,15:21:16        ,-97.727498,31.431812
90,Family Care Clinic Shamrock,Other,,1010 S Main St,Shamrock,Wheeler,1010 S Main St,79079,35.1987134389477,-100.248335352858,0,40,0,40,(806) 256-5148,,,04/12/2021      ,11:01:55        ,-100.248335,35.198713
91,STEPHENS MEMORIAL HOSPITAL,Hospital,D,200 S Geneva St, Breckenridge,Stephens,"200 S Geneva St, Breckenridge, TX, 76424",76424,32.754707,-98.887727,0,410,150,560,(254) 559-2241,http://www.smhtx.com/,,04/12/2021      ,08:44:51        ,-98.887727,32.754707
92,Adonis Zuniga Goldwater MD,Other,,2412 Jacaman Rd,Laredo,Webb,2412 JACAMAN RD STE 103 Laredo 78041,78041,27.5623413181861,-99.4507402305658,0,35,0,35,19567260647,,,04/12/2021      ,10:55:55        ,-99.45074,27.562341
93,TTUHSC Family Medicine Amarillo,Other,,1400 S Coulter St # 5100,Amarillo,Potter,1400 S Coulter St # 5100,79106,35.200656,-101.92423,0,0,130,130,(806) 743-1000,,,04/12/2021      ,08:14:52        ,-101.92423,35.200656
94,Tarrant County Public Health District,Vaccine Hub,,1101 S Main St Ste 1350,Fort Worth,Tarrant,1101 S Main St Suite. 1350,76104,32.730265,-97.32002,300,30730,0,31030,817-248-6299 Option 7,www.tarrantcounty.com/COVIDshot,,04/12/2021      ,20:42:38        ,-97.32002,32.730265
95,Abilene-Taylor County Public Health District,Other,,850 N 6th St,Abilene,Taylor,850 N 6th St,79601,32.4545373173685,-99.73081898863,2032,0,800,2832,(325) 692-5600,,,04/11/2021      ,16:48:35        ,-99.730819,32.454537
96,Collin County Healthcare Services,Vaccine Hub,E,825 N. McDonald St.,McKinney,Collin,"825 N. McDonald St., Suite 145",75069,33.2055924489892,-96.6119218355515,0,0,0,0,214-491-4838,https://www.collincountytx.gov/healthcare_services/Pages/COVID19vaccines.aspx,,04/12/2021      ,06:16:07        ,-96.611922,33.205592
97,Lake Hills Pharmacy,Pharmacy,,12005 Bee Cave Rd Suite 1a,Austin,Travis,12005 Bee Cave Rd Suite 1a,78738,30.3081842059391,-97.9260639578281,0,0,440,440,512-608-9355,https://lakehillsrx.com/,,04/09/2021      ,21:25:42        ,-97.926064,30.308184
98,Kelsey-Seybold Clinic - West Grand Parkway,Other,,2510 W GRAND PKWY N,Katy,,2510 W GRAND PKWY N,77449,29.81105,-95.77316,0,0,241,241,,,,04/09/2021      ,15:43:17        ,-95.77316,29.81105
99,Old Corner Drug,Pharmacy,,200 N MAIN ST,West,McLennan,200 N MAIN ST,76691,31.8026207,-97.0917817,0,370,0,370,,,,04/12/2021      ,15:17:34        ,-97.091782,31.802621
100,HCA HOUSTON HEALTHCARE TOMBALL,Hospital,Q,605 Holderreith Blvd,Tomball,Harris,605 Holderreith Blvd,77375,30.0873949891363,-95.6207209991388,0,45,0,45,(281) 401-7500,https://hcahoustonhealthcare.com/locations/tomball?utm_campaign=corp_listings_mgmt&utm_source=google&utm_medium=business_listing,,04/12/2021      ,11:37:59        ,-95.620721,30.087395
101,Highland Drug,Federal Allocation,,504 E AVENUE E, ALPINE,Brewster,"504 E AVENUE E,  Alpine, Texas 79830",79830,30.359685,-103.6575257,0,0,170,170,432-837-3931,,,04/12/2021      ,18:51:45        ,-103.657526,30.359685
102,Walgreens Pharmacy 10817,Pharmacy,,451 Fm 548,Forney,Kaufman,451 Fm 548,75126,32.7319873991861,-96.4561504756571,0,0,305,305,(972) 552-1633,Walgreens.com/covid19vac,,04/12/2021      ,07:44:27        ,-96.45615,32.731987
103,United Pharmacy 539,Pharmacy,,1414 West Wilson,Borger,Hutchinson,1414 West Wilson,79007,35.6583760565421,-101.410498154075,0,200,554,754,,,,04/12/2021      ,09:28:28        ,-101.410498,35.658376
104,HCA HOUSTON HEALTHCARE PEARLAND,Hospital,R,11100 Shadow Creek Parkway,Pearland,Brazoria,11100 Shadow Creek Parkway,77584,29.5777469871462,-95.3903189931951,0,0,200,200,(713) 770-7000,https://hcahoustonhealthcare.com/locations/pearland?utm_campaign=corp_listings_mgmt&utm_source=google&utm_medium=business_listing,,04/12/2021      ,08:41:49        ,-95.390319,29.577747
105,COSTCO PHARMACY 1330,Federal Allocation,,1310 Jasmine Ave,Webster,Harris,1310 Jasmine Ave,77598,29.5342089643442,-95.1391637291882,0,0,54,54,,,,04/12/2021      ,19:20:10        ,-95.139164,29.534209
106,UT Southwestern Medical Center - ZALE LIPSHY,Vaccine Hub,E,5151 Harry Hines Blvd,Dallas,Dallas,5151 Harry Hines Blvd,75390,32.8109097155001,-96.8362900117144,0,0,0,0,214-633-2021,https://utswmed.org/covid-19/covid-19-vaccination/,,04/07/2021      ,10:41:29        ,-96.83629,32.81091
107,Forney Isd Hq,Vaccine Hub,,600 S Bois D Arc St,Forney,Kaufman,600 South Bois D Arc Street,75126,32.7440688,-96.4768212,0,0,0,0,,,,04/12/2021      ,10:30:01        ,-96.476821,32.744069
108,Purple Hearts Primary Care Services Pllc,Other,,688 W Pioneer Pkwy,Grand Prairie,Dallas,688 W Pioneer Pkwy ste 120,75051,32.709687479171,-97.0141519685342,900,0,0,900,817-969-4651,https://purpleheartspc.com/,,04/12/2021      ,10:28:56        ,-97.014152,32.709687
109,Modern Health & Wellness,Other,,Republic Dr,Plano,Collin,555 Republic Dr,75074,33.0314583603744,-96.705194415455,0,140,0,140,,,,04/12/2021      ,07:28:25        ,-96.705194,33.031458
110,Collegiate Academy Teen Health Center,Other,,7100 Stewart Rd Rm 177b,Galveston,Galveston,7100 STEWART RD RM 177B GALVESTON 77551,77551,29.265245609728,-94.8389001612275,0,80,0,80,,,,04/12/2021      ,10:15:31        ,-94.8389,29.265246
111,Save Mart Pharmacy,Federal Allocation,,733 East Quinlan Parkway,Quinlan,Hunt,733 E QUINLAN PKWY QUINLAN 75474,75474,32.9033149155423,-96.1221047881445,0,0,285,285,,,,04/12/2021      ,10:04:09        ,-96.122105,32.903315
112,City of Garland Health Department,Vaccine Hub,,206 Carver Dr,Garland,Dallas,206 Carver Dr,75040,32.9070227945808,-96.6281891053061,0,0,0,0,972-205-3900,http://garlandtx.gov/,,04/12/2021      ,08:00:16        ,-96.628189,32.907023
113,Su Clinica - Raymondville,Other,,131 Fm 3168,Raymondville,Willacy,131 Fm 3168,78580,26.4670317797091,-97.7842837427096,0,100,0,100,,,,04/07/2021      ,14:12:32        ,-97.784284,26.467032
114,DSHS - Gainesville,Other,,1714 Justice Center Blvd Ste A,Gainesville,Cooke,1714 Justice Center Blvd Ste A,76240,33.64318,-97.1685,0,70,80,150,,,,04/12/2021      ,16:17:44        ,-97.1685,33.64318
115,La Porte RapidCare ER LLC,Other,,,La Porte ,,1220 W FAIRMONT PKWY ,77571,29.652989181246,-95.0312475870931,0,90,0,90,,,,04/06/2021      ,09:00:26        ,-95.031248,29.652989
116,Overton Pharmacy,Other,,104 Overton St,Overton,Rusk,104 W Henderson St,75684,32.2753126109498,-94.9793498955194,0,300,0,300,(903)834-0154,,,04/12/2021      ,15:10:53        ,-94.97935,32.275313
117,Kk Pharmacy,Pharmacy,,1411 West American Blvd,Muleshoe,Bailey,1411 West American Blvd,79347,34.2336625579604,-102.737287738701,1080,0,0,1080,(806) 272-7511,https://www.mygnp.com/pharmacies/kks-pharmacy-51-dallas-tx-75233/?utm_source=google&utm_medium=local&utm_campaign=localmaps&utm_content=5904493,,04/08/2021      ,09:30:43        ,-102.737288,34.233663
118,"Martin-Tipton Pharmacy, LLC",Federal Allocation,,1501 S Tyler St,Amarillo,Potter,1501 South Tyler Street,79101,35.1983161,-101.8398604,0,0,250,250,(806) 373-2812,,,04/12/2021      ,14:08:27        ,-101.83986,35.198316
119,Edinburg Cisd Health Services Department,Local Health Department,,411 N 8th ave,EDINBURG,hildago,411 N 8TH AVE  ,78541,26.3056793837464,-98.1655701313303,0,350,0,350,,,,04/12/2021      ,09:44:56        ,-98.16557,26.305679
120,Angelina County And Cities Health District,Vaccine Hub,,503 Hill Street,Lufkin,Angelina,503 Hill Street,75904,31.3380349992486,-94.7475458750258,0,0,0,0,(936) 632-1139,http://www.acchd.us/,,04/12/2021      ,12:27:48        ,-94.747546,31.338035
121,Hereford Health Clinic,Community Clinic,,540 W 15th,Hereford,Deaf Smith,540 W 15th,79045,34.8389580169874,-102.413711968071,0,200,65,265,(806) 364-7512,https://dschd.org/clinic/,,04/12/2021      ,09:49:26        ,-102.413712,34.838958
122,Health Plus Pharmacy,Federal Allocation,,,Mission,Hidalgo,3401 West Mile 5 Road Suite 2,78574,26.2927109475273,-98.3565826578856,0,0,60,60,(956) 424-3535,,,04/12/2021      ,20:32:18        ,-98.356583,26.292711
123,COSTCO PHARMACY 689,Federal Allocation,,,,,5611 UTSA BLVD SAN ANTONIO 78249,,29.5767232008612,-98.59740458819,0,0,100,100,210-200-2022,http://www.costco.com/,,04/12/2021      ,09:40:46        ,-98.597405,29.576723
124,"Ricky A. Siewert, DO",Other,,3006 Garrett Dr,Perryton,Ochiltree,3006 Garrett Dr,79070,36.3700599,-100.8009338,0,20,0,20,,,,04/12/2021      ,14:05:00        ,-100.800934,36.37006
125,Clearsky Rehabilitation Hospital Of Flowers mound,Hospital,E,3100 Peters Colony Road,Flower Mound,Denton,3100 Peters Colony Road,75022,33.0347365527577,-97.0771740735868,0,10,0,10,469-933-2855,,,04/08/2021      ,15:35:44        ,-97.077174,33.034737
126,AMERICO M BACA MD PA,Other,,,SAN JUAN,,722 S NEBRASKA AVE SAN JUAN 78589,78589,26.1870536495734,-98.156283251539,0,0,10,10,,,,04/12/2021      ,08:13:56        ,-98.156283,26.187054
127,"Hewitt Drug, LLC",Other,,N HEWITT DR STE 1 ,Hewitt ,,511 N HEWITT DR STE 1 ,76643,31.4735972155926,-97.202791560183,0,150,200,350,,,,04/12/2021      ,06:52:43        ,-97.202792,31.473597
128,Ellis County Medical Associates,Other,,, Ennis ,,802 W Lampasas St Ste 100 ,75119,32.3204716946486,-96.6321998079239,130,1020,0,1150,,,,04/12/2021      ,13:34:33        ,-96.6322,32.320472
129,"Maxhealth Family, Internal And Sports Medicine",Medical Practice,,5207 Heritage Ave,Colleyville,Tarrant,"5207 Heritage Ave, Colleyville, TX, USA",76034,32.88489,-97.1043186,0,868,1395,2263,,,,04/12/2021      ,08:17:59        ,-97.104319,32.88489
130,Guardian Pharmacy,Pharmacy,,, Arlington ,,610 MAGIC MILE ST,76011,32.7496825428837,-97.0757226286212,0,200,200,400,,,,04/12/2021      ,14:18:33        ,-97.075723,32.749683
131,NOCONA GENERAL HOSPITAL,Community Clinic,C,100 Park Rd,Nocona,Montague,100 Park Rd,76255,33.7782878949615,-97.7316229864926,0,10,0,10,(940) 825-3235,http://www.noconageneral.com/,,04/12/2021      ,07:45:11        ,-97.731623,33.778288
132,UNIVERSITY OF TEXAS MEDICAL BRANCH,Vaccine Hub,R,301 University Blvd,Galveston,Galveston,301 University Blvd,77555,29.3108899888168,-94.7787080308323,0,0,0,0,800-917-8906,https://www.utmb.edu/covid-19/vaccine/patient-info,,04/12/2021      ,09:42:31        ,-94.778708,29.31089
133,MEMORIAL MEDICAL CENTER,Hospital,P,815 N Virginia St,Port Lavaca,Calhoun,815 N Virginia St,77979,28.620970341666,-96.6315819586775,0,1000,200,1200,361-552-0397,https://www.memorialmedical.com/,,04/12/2021      ,09:04:06        ,-96.631582,28.62097
134,CHRISTUS ST. MICHAEL HOSPITAL,Hospital,F,2600 Saint Michael Dr,Texarkana,Bowie,2600 Saint Michael Dr,75503,33.462346803147,-94.0750877438464,2340,1000,2150,5490,(903) 614-1000,https://www.christushealth.org/St-Michael?utm_source=organic&utm_medium=GMB&utm_campaign=website&y_source=1_MTUzNzY1OTMtNzE1LWxvY2F0aW9uLmdvb2dsZV93ZWJzaXRlX292ZXJyaWRl,,04/12/2021      ,09:16:36        ,-94.075088,33.462347
135,Brazos County Vaccination Hub - CHI St Joseph Health College Station Hospital,Vaccine Hub,N,Franciscan Drive,Bryan,Brazos,"2801 Franciscan Drive, Bryan TX 77802",77802,30.6555690852254,-96.3466102426622,0,0,0,0,979-776-3777,https://st-joseph.org/covidvaccine,,04/12/2021      ,10:09:22        ,-96.34661,30.655569
136,S Tx Rhs Inc,Other,,606 W Leona St,Dilley,FRIO,606 W Leona St,78017,28.669024,-99.177716,0,190,0,190,,,,04/12/2021      ,09:12:52        ,-99.177716,28.669024
137,Parkland Employee Physicians Office,Community Clinic,,7920 Elmbrook Dr Ste 120,Dallas,Dallas,7920 Elmbrook Dr Ste 120,75247,32.8195436235607,-96.8635491759283,0,360,0,360,(214) 590-2800,http://www.parklandhospital.com/,,04/12/2021      ,09:28:39        ,-96.863549,32.819544
138,Walgreens Pharmacy 03956,Pharmacy,,,Dallas,,1104 S WESTMORELAND RD,75211,32.7350690197637,-96.8512265037989,11,0,0,11,(214) 467-3540,https://www.walgreens.com/locator/walgreens-1104+s+westmoreland+rd-dallas-tx-75211/id=3956,,04/11/2021      ,18:31:54        ,-96.851227,32.735069
139,Walgreens Pharmacy 01970,Pharmacy,,3407 Wells Branch Pkwy,Austin,Travis,3407 Wells Branch Pkwy,78728,30.4398786604589,-97.6963787049504,0,0,75,75,512-388-1539,https://www.walgreens.comocator/walgreens-29+new+derby+st-salem-ma-01970/id=2063,,04/12/2021      ,14:16:18        ,-97.696379,30.439879
140,St. Hope Foundation -  Conroe,Other,,1414 S Frazier St Ste 105,Conroe,MONTGOMERY,1414 S Frazier St Ste 105,77301,30.285417,-95.456282,0,140,0,140,(936) 441-2440,http://offeringhope.org/,,04/07/2021      ,16:25:51        ,-95.456282,30.285417
141,Harris County Public Health,Vaccine Hub,,2223 W Loop S,Houston,Harris,2223 W Loop South,77027,29.744195700504,-95.4569182430658,0,0,0,0,832-927-8787,https://vacstrac.hctx.net,,04/12/2021      ,08:25:53        ,-95.456918,29.744196
142,Wilson County ESD #3,Other,,West Wheeler St,Stockdale,Wilson,656 West Wheeler St,78160,29.1407,-97.5818,0,350,2000,2350,,,,04/07/2021      ,09:11:49        ,-97.5818,29.1407
143,Burleson Pharmacy,Pharmacy,,Sw Wilshire Blvd,Burleson,Johnson,344 Sw Wilshire Blvd Ste P,76028,32.5409876708749,-97.332674830806,0,90,70,160,,,,04/12/2021      ,00:15:07        ,-97.332675,32.540988
144,Emergency Operations Center,Community Clinic,,West 10th,Del Rio,Val Verde,1051 West 10th,78840,29.3701092789369,-100.916992588528,5680,0,970,6650,,,,04/12/2021      ,13:53:02        ,-100.916993,29.370109
145,Hyland's Pharmacy - Shamrock,Pharmacy,,Bill Mack Rd,Shamrock,Wheeler,1814 Bill Mack Rd,79079,35.2334549,-100.2473072,0,200,210,410,,,,04/12/2021      ,15:24:58        ,-100.247307,35.233455
146,Colleyville Fire Department,Other,,Colleyville Blvd,Colleyville,Tarrant,5209 Colleyville Blvd,76034,32.8854861579315,-97.1512931029197,620,0,0,620,,,,04/12/2021      ,17:39:53        ,-97.151293,32.885486
147,EVERETTS PHARMACY,Federal Allocation,,,SAN SABA,,401 W WALLACE ST , 76877,31.1957522186294,-98.7240171443211,0,0,25,25,(325) 372-3033,RXEVERETTE@GMAIL.COM,,04/11/2021      ,09:06:55        ,-98.724017,31.195752
148,Kickapoo Tribe - Eagle Pass,Federal Allocation,,,Eagle Pass,Maverick,2212 Rosita Valley Road,78852,28.6176254102918,-100.43353503863,0,1460,0,1460,,,,04/12/2021      ,16:51:01        ,-100.433535,28.617625
149,Walgreens Pharmacy 00553,Pharmacy,,,Houston ,,5300 N Braeswood Blvd ,77096,29.6798832468983,-95.458437264334,0,0,70,70,713-721-1516,https://www.walgreens.com/locator/walgreens-5300+n+braeswood+blvd-houston-tx-77096/id=553,,04/12/2021      ,23:14:46        ,-95.458437,29.679883
150,Walgreens Pharmacy 04662,Pharmacy,,,Garland,,3045 BROADWAY BLVD,75041,32.881516778547,-96.6054692183438,0,0,5,5,(972) 864-1608,https://www.walgreens.com/locator/walgreens-3045+broadway+blvd-garland-tx-75041/id=4662,,04/12/2021      ,22:00:31        ,-96.605469,32.881517
151,Walgreens Pharmacy 05390,Pharmacy,,, Houston ,,8300 Wilcrest Dr,77072,30.0606886,-97.1600286,0,0,45,45,,,,04/12/2021      ,15:57:49        ,-97.160029,30.060689
152,Walgreens Pharmacy 07492,Pharmacy,,,,,"6402 CYPRESS CREEK PKWY Houston, TX 77069",,29.9730579695084,-95.5254166084715,0,0,60,60,(281) 631-9736,https://www.walgreens.com/locator/walgreens-6402+cypress+creek+pkwy-houston-tx-77069/id=7492,,04/12/2021      ,12:34:04        ,-95.525417,29.973058
153,Walgreens Pharmacy 06758,Pharmacy,,,,,"2420 W ARKANSAS LN Arlington, TX 76013",,32.7059496459492,-97.1489915058102,0,0,100,100,(817) 795-8166,https://www.walgreens.com/locator/walgreens-2420+w+arkansas+ln-arlington-tx-76013/id=6758,,04/11/2021      ,15:48:18        ,-97.148992,32.70595
154,Health One Pharmacy,Federal Allocation,,Main St,The Colony,,3800 Main St Suite# 102,75056,33.0697964017479,-96.8905631023369,0,0,105,105,,,,04/10/2021      ,17:29:56        ,-96.890563,33.069796
155,CASH SAVER PHARMACY #6,Federal Allocation,,655 LAVACA ST ,BEAUMONT ,,655 LAVACA ST BEAUMONT 77705,77705,30.0466559944656,-94.0875097111191,0,0,200,200,,,,04/10/2021      ,17:35:00        ,-94.08751,30.046656
156,Walgreens Pharmacy 04823,Pharmacy,,,Round Rock,,901 E PALM VALLEY BLVD,78664,30.5174327725694,-97.6467322705016,0,0,60,60,(512) 248-8742,https://www.walgreens.com/locator/walgreens-901+e+palm+valley+blvd-round+rock-tx-78664/id=4823,,04/12/2021      ,21:08:54        ,-97.646732,30.517433
157,Walgreens Pharmacy 05100,Pharmacy,,,,,"22202 WESTHEIMER PKWY Katy, TX 77450",,29.7365421357244,-95.7557754367654,0,0,75,75,(281) 693-6808,https://www.walgreens.com/locator/walgreens-22202+westheimer+pkwy-katy-tx-77450/id=5100,,04/11/2021      ,15:51:10        ,-95.755775,29.736542
158,Walgreens Pharmacy 03407,Other,,, Houston,,12550 Westheimer Rd, 77077,,,0,0,65,65,,,,04/12/2021      ,20:11:19        ,,
159,Zikam Drive Thru Pharmacy,Other,,,Schertz,,17323 Ih 35n,78154,29.5987414427177,-98.281977288683,0,0,361,361,,,,04/12/2021      ,18:30:37        ,-98.281977,29.598741
160,Walgreens Pharmacy 05476,Pharmacy,,,,,"1470 KELLER PKWY Keller, TX 76248",,32.935274206284,-97.1980817666599,24,0,255,279,(817) 431-5305,https://www.walgreens.com/locator/walgreens-1470+keller+pkwy-keller-tx-76248/id=5476,,04/12/2021      ,14:53:40        ,-97.198082,32.935274
161,Fort Duncan Regional Medical Center,Vaccine Hub,P,3333 North Foster Maldonado Blvd,Eagle Pass,Maverick,3333 North Foster Maldonado Blvd,78852,28.713219572822,-100.455679001844,0,0,45,45,830-421-5151; 830-421-5122,www.eaglepasstx.us/formcenter/covid19-7/covid19-vaccine-priority-groups-registra-52,,04/05/2021      ,09:37:28        ,-100.455679,28.71322
162,Walgreens Pharmacy 03236,Pharmacy,,,El Paso,,800 N ZARAGOZA RD,79907,31.7059477028373,-106.304238967932,0,0,65,65,(915) 860-1670,https://www.walgreens.com/locator/walgreens-800+n+zaragoza+rd-el+paso-tx-79907/id=3236,,04/12/2021      ,08:49:51        ,-106.304239,31.705948
163,Walgreens Pharmacy 04679,Pharmacy,,,,,"2879 MONTANA AVE El Paso, TX 79903",,31.7836823328503,-106.461237639252,174,0,100,274,(915) 566-4464,https://www.walgreens.com/locator/walgreens-2879+montana+ave-el+paso-tx-79903/id=4679,,04/12/2021      ,08:39:20        ,-106.461238,31.783682
164,Walgreens Pharmacy 03878,Pharmacy,,,Fort Worth,,3425 SYCAMORE SCHOOL RD,76123,32.6378056571875,-97.3544976068901,0,0,95,95,(817) 370-0505,https://www.walgreens.com/locator/walgreens-3425+sycamore+school+rd-fort+worth-tx-76123/id=3878,,04/12/2021      ,08:49:21        ,-97.354498,32.637806
165,Internal Medicine Associates Of Plano,Medical Practice,,6124 W Parker Rd Ste 234,Plano,Collin,6124 W Parker Rd Ste 234,75093,33.045061071266,-96.8335574635417,0,600,0,600,(972) 468-9999,http://www.planointernist.com/,,03/25/2021      ,08:22:55        ,-96.833557,33.045061
166,Dept of Public Health - Lamar County / Paris,Vaccine Hub,,400 W Sherman St,Paris,Lamar,400 W Sherman St,75460,33.6572812689099,-95.5602262210132,0,1000,650,1650,(903) 785-4561,http://www.parislamarhealth.com/,,04/09/2021      ,23:34:50        ,-95.560226,33.657281
167,PharmaVida Rx,Federal Allocation,,,Palmview,Hidalgo,1337 E Palma Vista Dr Ste B,78572,26.224949,-98.357161,0,0,50,50,,,,04/09/2021      ,23:07:58        ,-98.357161,26.224949
168,Liberty Drugs LLC,Federal Allocation,,,Georgetown,Williamson,2411 Williams Dr,78628,,,0,0,35,35,,,,04/12/2021      ,21:24:01        ,,
169,Walgreens Pharmacy 05214,Pharmacy,,,,,"8955 N TARRANT PKWY North Richland Hills, TX 76182",,32.9042488285356,-97.1918846322399,54,0,70,124,(817) 428-2585,https://www.walgreens.com/locator/walgreens-8955+n+tarrant+pkwy-north+richland+hills-tx-76182/id=5214,,04/12/2021      ,15:06:24        ,-97.191885,32.904249
170,Rite Away Pharmacy,Federal Allocation,,,San Antonio,Bexar,2235 Thousand Oaks Dr,78232,29.5871357551572,-98.4513690049354,0,0,315,315,,,,04/13/2021      ,07:25:40        ,-98.451369,29.587136
171,Walgreens Pharmacy 21238,Pharmacy,,1501 W Church St,Livingston,,1501 W Church St Ste 500 Livingston 77351,77351,30.7104684903108,-94.9509182013756,6,0,110,116,,,,04/12/2021      ,17:27:46        ,-94.950918,30.710468
172,Walgreens Pharmacy 10392,Pharmacy,,,,,"100 LAKE RD Belton, TX 76513",,31.084159322835,-97.4585068640072,0,0,100,100,(254) 939-5628,https://www.walgreens.com/locator/walgreens-100+lake+rd-belton-tx-76513/id=10392,,04/12/2021      ,15:47:44        ,-97.458507,31.084159
173,Walgreens Pharmacy 05671,Pharmacy,,,,,"4445 KINGWOOD DR Kingwood, TX 77339",,30.0526042821985,-95.1859118061731,0,0,155,155,(281) 360-4694,https://www.walgreens.com/locator/walgreens-4445+kingwood+dr-kingwood-tx-77339/id=5671,,04/11/2021      ,13:14:18        ,-95.185912,30.052604
174,Walgreens Pharmacy 13988,Pharmacy,,,Houston ,,11445 Compaq Center West Dr ,77070,29.9906035169152,-95.5820029806356,0,0,140,140,(281) 251-2384,https://www.walgreens.com/locator/walgreens-11445+compaq+center+west+dr-houston-tx-77070/id=13988,,04/12/2021      ,10:38:26        ,-95.582003,29.990604
175,Walgreens Pharmacy 07774,Pharmacy,,,,,"12225 HIGHWAY 6 Fresno, TX 77545",,29.5187560241628,-95.4802743424193,0,0,130,130,(281) 431-4248,https://www.walgreens.com/locator/walgreens-12225+highway+6-fresno-tx-77545/id=7774,,04/12/2021      ,22:33:57        ,-95.480274,29.518756
176,Walgreens Pharmacy 07328,Pharmacy,,,,,"9428 DYER ST El Paso, TX 79924",,31.8778789434991,-106.42153315954,0,0,155,155,(915) 751-4415,https://www.walgreens.com/locator/walgreens-9428+dyer+st-el+paso-tx-79924/id=7328,,04/12/2021      ,09:01:47        ,-106.421533,31.877879
177,Industrial Health Works,Medical Practice,,6201 South Cage Blvd,Pharr,Hidalgo,"6201 South Cage Blvd, Pharr, Texas 78577",78577,26.1341456042847,-98.1941647794836,0,0,60,60,(956) 609-8230,http://www.industrialfamilyclinic.com/,,04/12/2021      ,09:14:23        ,-98.194165,26.134146
178,Walgreens Pharmacy 11926,Pharmacy,,200 W Commerce St,Brownwood,Brown,200 W Commerce St,76801,31.7283526117578,-98.9811730845743,0,0,195,195,(325) 646-8923,Walgreens.com/covid19vac,,04/12/2021      ,09:07:57        ,-98.981173,31.728353
179,Walgreens Pharmacy 09504,Pharmacy,,FM 1464 RD ,Richmond ,,7102 FM 1464 RD ,77407,29.7006133900952,-95.6886005601505,0,60,100,160,,,,04/12/2021      ,20:29:56        ,-95.688601,29.700613
180,Walgreens Pharmacy 07019,Pharmacy,,,,,"3120 N FRY RD Katy, TX 77449",,29.8157244320569,-95.7203808802686,0,40,100,140,(281) 829-5080,https://www.walgreens.com/locator/walgreens-3120+n+fry+rd-katy-tx-77449/id=7019,,04/12/2021      ,20:51:20        ,-95.720381,29.815724
181,Hope Community Medicine - San Augustine,Community Clinic,,109 E Main St,San Augustine,San Augustine,"109 E Main St, San Augustine, Texas 75972",75972,31.5293677810251,-94.1092439154672,0,250,70,320,(936) 275-4420,http://www.hcmtx.org/,,04/12/2021      ,07:48:08        ,-94.109244,31.529368
182,15rx Pharmacy2,Pharmacy,,11212 State Hwy 151 Plaza2,San Antonio,Bexar,11212 State Hwy 151 Plaza2,78251,29.4674739565082,-98.6946397361789,0,80,180,260,(210) 543-1579,http://www.15rx.com/,,04/12/2021      ,10:04:23        ,-98.69464,29.467474
183,Hometown Pharmacy Fairfield,Federal Allocation,,201 East Commerce,Fairfield,Freestone,"201 East Commerce, Faifield, Texas 75840",75840,31.725142,-96.161712,0,170,0,170,(903) 389-2541,,,04/09/2021      ,17:24:02        ,-96.161712,31.725142
184,Kroger Pharmacy 587,Pharmacy,,3939 Frankford Rd,Dallas,Denton,3939 Frankford Rd,75287,32.9970674836067,-96.8458219789182,72,0,0,72,(972) 662-1011,http://www.kroger.com/stores/details/035/00587?cid=loc_03500587PP_gmb,,04/07/2021      ,08:05:00        ,-96.845822,32.997067
185,Kroger Pharmacy 308,Pharmacy,,,Pearland ,Brazoria,11003 Shadow Creek PWY,77584,29.5832555865591,-95.3898827453678,0,0,80,80,281-669-1250,,,04/07/2021      ,08:05:00        ,-95.389883,29.583256
186,Kroger Pharmacy 310,Pharmacy,,3410 Northpark Dr,Kingwood,Harris,3410 Northpark Dr,77345,30.067865058659,-95.1874054406629,60,40,100,200,(281) 361-7404,http://www.kroger.com/stores/details/034/00310?cid=loc_03400310PP_gmb,,04/07/2021      ,08:05:00        ,-95.187405,30.067865
187,Hometown Healthcare Pearsall,Community Clinic,,404 E San Marcos St,Pearsall,Texas,"404 E San Marcos St, Pearsall, Texas 78061",78061,28.89057,-99.0940682,0,40,0,40,(830) 334-3336,HTHCPEARSALL@gmail.com,,04/10/2021      ,16:00:47        ,-99.094068,28.89057
188,COSTCO PHARMACY 636,Federal Allocation,,250 West Highway 67,Duncanville,Dallas,250 West Highway 67,75137,32.6207795302893,-96.9094916232902,0,165,0,165,,,,04/12/2021      ,20:25:05        ,-96.909492,32.62078
189,Hometown Healthcare Orange Grove,Other,U,101 S Eugenia St,Orange Grove,Jim Wells,101 S Eugenia St Orange Grove 78372,78372,27.957496,-97.938573,60,60,0,120,,,,04/12/2021      ,15:37:42        ,-97.938573,27.957496
190,Walgreens Pharmacy 07354,Pharmacy,,,,,"1330 N BELT LINE RD Irving, TX 75061",,32.8283714922874,-96.992607057045,0,0,200,200,(469) 417-0358,https://www.walgreens.com/locator/walgreens-1330+n+belt+line+rd-irving-tx-75061/id=7354,,04/08/2021      ,10:14:34        ,-96.992607,32.828371
191,Walgreens Pharmacy 09721,Pharmacy,,1481 E Main St,Midlothian,Ellis,1481 E Main St,76065,32.4738038761886,-96.9763364256249,0,0,165,165,(972) 723-8408,Walgreens.com/covid19vac,,04/12/2021      ,09:05:09        ,-96.976336,32.473804
192,Walgreens Pharmacy 06865,Pharmacy,,,,,"12097 VETERANS MEMORIAL DR Houston, TX 77067",,29.9605466225012,-95.4790104994382,0,0,130,130,281-444-6304,https://www.walgreens.com/locator/walgreens-12097+veterans+memorial+dr-houston-tx-77067/id=6865,,04/12/2021      ,21:30:49        ,-95.47901,29.960547
193,Walgreens Pharmacy 11910,Pharmacy,,1130 S Broadway St,Sulphur Springs,Hopkins,1130 S Broadway St,75482,33.1191876638304,-95.5962691435571,0,0,175,175,(903) 438-2435,Walgreens.com/covid19vac,,04/11/2021      ,11:17:01        ,-95.596269,33.119188
194,Walgreens Pharmacy 21249,Other,,S Jackson St,Jacksonville,Cherokee,1329 S Jackson St,75766,31.9511254359953,-95.2635111434264,0,0,270,270,,,,04/12/2021      ,18:58:05        ,-95.263511,31.951125
195,Valu Rite Pharmacy,Pharmacy,,709 Woodrow Wilson Ray Cir,Bridgeport,Wise,709 Woodrow Wilson Ray Circle,76426,33.2221782,-97.760303,0,0,150,150,(940) 683-2950,valurite_pharmacy@yahoo.com,,04/10/2021      ,11:06:53        ,-97.760303,33.222178
196,Canadian Pharmacy Management,Federal Allocation,,,Canadian ,Hemphill,200 Cheyenne Ave,79014,35.9081062561117,-100.387806786793,0,0,180,180,18063238882,,,04/09/2021      ,16:36:55        ,-100.387807,35.908106
197,Laredo Isd,Other,,,Laredo ,Webb,2001 Cedar St ,78040,,,0,40,0,40,,,,04/12/2021      ,16:10:44        ,,
198,Gator Hope Clinic,Other,,3800 Baker Dr,Dickinson,Galveston,3800 Baker Dr Dickinson 77539,77539,29.4679888628305,-95.0316179170427,0,120,0,120,(281) 229-6455,,,04/09/2021      ,16:17:52        ,-95.031618,29.467989
199,United pharmacy 547,Pharmacy,,920 N Willis St,Abilene,Taylor,"920 North Willis Street, Abilene, TX, USA",79603,32.4601449,-99.7652547,0,0,220,220,(325) 677-1362,https://local.pharmacy.unitedsupermarkets.com/tx/abilene/920-n-willis-st.html,,04/12/2021      ,09:00:34        ,-99.765255,32.460145
200,United Pharmacy 501,Pharmacy,,2523 48th Street,Lubbock,Lubbock,2523 48th Street,79413,33.550615074835,-101.872081012406,0,0,295,295,,,,04/12/2021      ,10:43:57        ,-101.872081,33.550615
201,Walgreens Pharmacy 00489,Pharmacy,,,,,"5560 WESLAYAN ST Houston, TX 77005",,29.7224063674036,-95.4424535598234,42,0,0,42,(713) 667-9349,https://www.walgreens.com/locator/walgreens-5560+weslayan+st-houston-tx-77005/id=489,,04/04/2021      ,16:30:32        ,-95.442454,29.722406
202,KIMBLE HOSPITAL,Hospital,K,349 Reid Rd, Junction,Kimble,"349 Reid Rd, Junction, TX, 76849",76849,30.494191,-99.77824,0,390,0,390,(325) 446-3321,https://www.kimblehospital.org/,,04/12/2021      ,15:31:59        ,-99.77824,30.494191
203,BAYLOR SCOTT WHITE MC - WAXAHACHIE,Vaccine Hub,E,2400 N I35e,Waxahachie,Ellis,2400 N I35e,75165,32.4294643811447,-96.8598110689073,0,0,0,0,(972) 579-8100,https://www.bswhealth.com/locations/irving/?y_source=1_MTM0MTE3MDAtNzE1LWxvY2F0aW9uLndlYnNpdGU=,,04/13/2021      ,07:27:18        ,-96.859811,32.429464
204,Express ER Abilene,Hospital,,4157 Buffalo Gap Rd,Abilene,Taylor,"4157 Buffalo Gap Rd, Abilene, TX, USA",79605,32.4026383,-99.7571953,33,0,0,33,,,,04/12/2021      ,16:05:27        ,-99.757195,32.402638
205,Kleberg County Sheriff's Office,Vaccine Hub,,1500 East King Avenue,Kingsville,Kleberg,1500 East King,78363,27.515847504845,-97.8474849731882,0,0,0,0,361-595-8500,https://www.klebergcoso.org/,,04/11/2021      ,11:36:41        ,-97.847485,27.515848
206,Walgreens Pharmacy 11130,Pharmacy,,,,,"3802 E ELMS RD Killeen, TX 76542",,31.0740205747297,-97.705932977694,0,0,45,45,(254) 680-4009,https://www.walgreens.com/locator/walgreens-3802+e+elms+rd-killeen-tx-76542/id=11130,,04/12/2021      ,20:45:09        ,-97.705933,31.074021
207,OTTO KAISER MEMORIAL - KENEDY,Hospital,P,3349 US-181,Kenedy,Karnes,"3349 US-181, Kenedy, TX 78119",78119,28.8511619108883,-97.8785406310243,2106,0,0,2106,(830) 583-3401,http://www.okmh.org/,,04/12/2021      ,08:06:59        ,-97.878541,28.851162
208,Alemu Medical Home,Federal Allocation,,,Luling,Caldwell,702 S Hackberry Ave,78648,29.674224682722,-97.6561356313526,0,270,0,270,(830) 445-4131,,,04/12/2021      ,16:29:14        ,-97.656136,29.674225
209,San Patricio County Health Dept,Other,,313 N Rachal,Sinton,San Patricio,313 N Rachal,78387,28.0336821632653,-97.5103819795918,0,490,195,685,,,,04/10/2021      ,11:01:08        ,-97.510382,28.033682
210,Kelsey-Seybold Downtown @ The Shops Clinic,Medical Practice,,1200 McKinney st ste 473,Houston,Harris,1200 McKinney St Ste 473,77010,29.7550031,-95.3622655,0,93,0,93,(713) 442-4771,,,04/09/2021      ,21:47:05        ,-95.362265,29.755003
211,Wylie Isd - Wylie,Other,,951 S Ballard Ave,Wylie,Collin,951 S Ballard Ave Wylie 75098,75098,33.0045025186817,-96.5393544016338,0,1000,0,1000,,,,04/12/2021      ,08:31:41        ,-96.539354,33.004503
212,Platinum Rx North ,Federal Allocation,, Aldine Bender Rd,Harris,Harris,5627 Aldine Bender Rd #7,77071,29.9313381627618,-95.3039912741607,0,0,450,450,281 227 1010,,,04/12/2021      ,17:20:24        ,-95.303991,29.931338
213,Logistics Health Incorporated,Vaccine Hub,,3500 Camp Bowie Blvd,Fort Worth,Tarrant,3500 Camp Bowie Boulevard,76107,32.7487917,-97.3695333,164,4600,0,4764,(877)534-0319,,,04/12/2021      ,21:47:47        ,-97.369533,32.748792
214,Zikam Nieghborhood Pharmacy,Federal Allocation,,,San Antonio,Bexar,21920 Bulverde Rd 102/103,78259,29.644102,-98.424489,0,0,235,235,,,,04/12/2021      ,10:11:06        ,-98.424489,29.644102
215,Yoakum Discount Pharmacy,Federal Allocation,,,Yoakum,,210 NELSON ST STE E YOAKUM 77995,77995,29.29144,-97.15073,0,0,75,75,,,,04/12/2021      ,09:00:57        ,-97.15073,29.29144
216,Women Specialists of Katy,Federal Allocation,,Kingsland Blvd ,Katy,TEXAS,"21700 Kingsland Blvd, 203",77450,29.7762593662477,-95.7463064590596,911,0,0,911,281-398-2140 ,,,04/12/2021      ,16:58:39        ,-95.746306,29.776259
217,WESTEX PHARMACY LLC,Federal Allocation,,,Odessa,Ector,601 East 7th Street,79761,31.853469,-102.365377,0,0,80,80,,,,04/12/2021      ,10:23:34        ,-102.365377,31.853469
218,Walgreens Pharmacy 21320,Federal Allocation,,,,,"909 VETERANS BLVD. Del Rio, TX 78840",,29.3737040728789,-100.90103116838,0,70,195,265,830-290-6015,https://www.walgreens.com/locator/walgreens-909+veterans+blvd.-del+rio-tx-78840/id=21320,,04/12/2021      ,17:10:51        ,-100.901031,29.373704
219,Walgreens Pharmacy 07611,Federal Allocation,,,,,"511 E MARSHALL AVE Longview, TX 75601",,32.5010230729577,-94.7333633116214,1686,0,95,1781,(903) 234-9509,https://www.walgreens.com/locator/walgreens-511+e+marshall+ave-longview-tx-75601/id=7611,,04/12/2021      ,18:32:19        ,-94.733363,32.501023
220,VALMED PHARMACY SOLUTIONS INC.,Federal Allocation,,,AMARILLO,POTTER,3 CARE CIRCLE,79194,35.189658,-101.927689,0,0,120,120,806-350-6337,,,04/12/2021      ,18:21:09        ,-101.927689,35.189658
221,Triumph Pharmacy,Federal Allocation,,,Magnolia,Montgomery,7030 Fm 1488 110,77354,,,0,0,15,15,,,,04/12/2021      ,10:14:01        ,,
222,Tower Medic Pharmacy,Federal Allocation,,607 West Magnolia,Fort Worth,Tarrant,607 West Magnolia,76104,,,0,0,426,426,,,,04/13/2021      ,07:34:54        ,,
223,The Well Health Center,Federal Allocation,,200 Palo Duro Drive,Cactus,TX,200 Palo Duro Drive,79013,36.0474441,-102.0002444,0,170,0,170,,,,04/12/2021      ,08:56:47        ,-102.000244,36.047444
224,The Other Guys Pharmacy ,Federal Allocation,,,Weslaco,,"1116 E 8th St #1, Weslaco, TX 78596",78596,26.1519113,-97.9804673,0,0,100,100,(956) 405-3232,https://pharmacyweslaco.com/,,04/12/2021      ,19:37:01        ,-97.980467,26.151911
225,The Friendly Pharmacy ,Federal Allocation,,3302 Boca Chica Blvd STE 107,Brownsville,Cameron,"3302 Boca Chica Blvd STE 107, Brownsville, TX 78521",78521,25.9208268757284,-97.4690303750826,0,0,5,5,(956) 544-1200,https://www.unitedfriendlypharmacy.com/,,04/12/2021      ,16:46:08        ,-97.46903,25.920827
226,TEXAS RX SOLUTIONS and COMPONDING P,Federal Allocation,,,Houston,Harris,"7505 Fannin St, Suite 140",77054,29.692195,-95.400803,0,0,650,650,713-790-1228,,,04/12/2021      ,08:58:20        ,-95.400803,29.692195
227,Moore County Internal Medicine,Other,,1405 E 1st St Ste 101,Dumas,Moore,1405 E 1st St Ste 101,79029,35.8652177120634,-101.955212574384,0,0,40,40,(806) 935-9194,http://www.moorecountyinternalmed.com/,,04/07/2021      ,14:47:00        ,-101.955213,35.865218
228,Schulz And Wroten Pharmacy,Federal Allocation,,,Beeville,Bee,122 North Washington St,78102,28.402287,-97.749147,0,0,50,50,(361) 358-1150,,,04/09/2021      ,14:31:49        ,-97.749147,28.402287
229,Walgreens Pharmacy 05965,Other,,, Houston ,,9350 Highway 6 S,77083,29.6777174041934,-95.6443984030023,0,0,60,60,,,,04/12/2021      ,19:08:09        ,-95.644398,29.677717
230,"Saenz Medical Pharmacy of Penitas, Inc.",Federal Allocation,,East Expressway 83,La Joya,Hidalgo,1000 East Expressway 83 Suite 1,78560,26.2420023,-98.4373059,0,0,20,20,,,,04/12/2021      ,19:29:05        ,-98.437306,26.242002
231,"SAENZ MEDICAL PHARMACY OF MCALLEN, INC",Federal Allocation,,Lindberg,McAllen,Hidalgo,212 Lindberg,78501,26.1924669248943,-98.2237062866828,0,0,180,180,9566306465,,,04/12/2021      ,17:29:41        ,-98.223706,26.192467
232,"SAENZ MEDICAL PHARMACY LONESTAR, INC.",Federal Allocation,,Griffin Parkway,Mission,Hidalgo,2121 E. Griffin Parkway Ste 18,78572,26.2250619,-98.2877461,0,0,200,200,956-519-6500,,,04/12/2021      ,17:45:36        ,-98.287746,26.225062
233,Mid Valley Pharmacy,Federal Allocation,,,Mercedes,Hidalgo,400 E Expressway 83,78570,26.1561618756005,-97.9118701578874,0,0,50,50,,,,04/12/2021      ,18:28:48        ,-97.91187,26.156162
234,Sachse Discount Pharmacy,Federal Allocation,,5624 Highway 78,Sachse,Dallas,5624 Highway 78,75048,32.9739952,-96.5982347,0,0,15,15,,,,04/12/2021      ,17:36:29        ,-96.598235,32.973995
235,Fort Bend Family Health Center Access Health - Brookshire,Community Clinic,,,Brookshire,Waller,533 Farm to Market 359 S.,77423,29.7743459,-95.9510651,0,443,0,443,281-822-4235,,,04/02/2021      ,11:19:03        ,-95.951065,29.774346
236,Lockhart Family Medicine ,Medical Practice,,1009 W San Antonio St,Lockhart,Caldwell,1009 West San Antonio Street,78644,29.8836895,-97.6848263,0,90,0,90,(512) 376-5247,LOCKHARTFAMILY2@GMAIL.COM,,04/12/2021      ,16:42:38        ,-97.684826,29.88369
237,Rodger's Pharmacy,Federal Allocation,,,Liberty,Liberty,1909 Grand Avenue,77575,30.0633854817349,-94.7969249666429,0,0,189,189,,,,04/12/2021      ,18:12:41        ,-94.796925,30.063385
238,RGV Hometown Pharmacy PLLC,Federal Allocation,,608 E Harrison Ave ,Harlingen,Cameron,"608 E Harrison Ave, Harlingen, Texas 78550",78550,26.1905991,-97.689917,0,100,0,100,,,,04/12/2021      ,09:30:02        ,-97.689917,26.190599
239,Presbyterian Pan American,Other,,223 N Fm 772,Kingsville,Kleberg,223 N FM 772 KINGSVILLE 78363,78363,27.3908721855471,-97.8224169305685,0,50,0,50,,,,04/12/2021      ,18:30:14        ,-97.822417,27.390872
240,The Pediatric Care Center - Rio Grande City,Community Clinic,,,Rio Grande ,Starr,1673 E San Benito St,78582,26.3780489368399,-98.8031958938447,0,0,200,200,(956) 263-1830,,,04/09/2021      ,19:33:38        ,-98.803196,26.378049
241,Still Living LLC DBA Compass Pharmacy,Pharmacy,,N Tarrant Pkwy,Fort Worth,Tarrant,5344A N Tarrant Parkway,76244,32.8940057,-97.2686967,0,0,220,220,817-576-4728,,,04/12/2021      ,10:16:23        ,-97.268697,32.894006
242,Christ Clinic,Other,,25722 Kingsland Blvd,Katy,Fort Bend,25722 Kingsland Boulevard,77494,29.7717307,-95.8215804,0,0,15,15,(281) 713-5477,,,04/12/2021      ,20:48:05        ,-95.82158,29.771731
243,University Of North Texas Student Health And Wellness Ctr,Other,,,Denton ,,1800 Chestnut ,76201,,,0,0,323,323,,,,04/09/2021      ,13:59:31        ,,
244,Powerhouse Pharmacy Rx LLc,Federal Allocation,,W Mockingbird Ln,Dallas,Dallas,"4740 West Mockingbird Lane, Dallas, TX, USA",75209,32.8362466,-96.8278417,426,0,0,426,,,,04/11/2021      ,22:33:47        ,-96.827842,32.836247
245,Phoenix Drugstore and Medical Supplies,Federal Allocation,,"17320 Red Oak Dr. Suite 106 Houston, TX. 77090",Houston,Texas,"17320 Red Oak Drive, Houston, TX 77090, USA",77090,30.0235079,-95.44696,1023,0,30,1053,,,,04/13/2021      ,05:34:34        ,-95.44696,30.023508
246,Pharmerica Weslaco,Federal Allocation,,2202 Sugar Sweet Ave,Weslaco,Hidalgo,"2202 Sugar Sweet Avenue, Weslaco, TX, USA",78599,26.1806073,-97.9692479,0,0,115,115,,,,04/08/2021      ,13:10:12        ,-97.969248,26.180607
247,Southwest Surgical Associates LLP,Other,,13811 MURPHY RD Stafford 77477,Stafford,Fort Bend,13811 MURPHY RD Stafford 77477,77477,29.6225784834901,-95.5640445447532,0,0,100,100,(713) 772-1200,,,04/02/2021      ,10:54:06        ,-95.564045,29.622578
248,Pharm House Drug- TRINITY LLC,Federal Allocation,,485 S. Robb St,Trinity,Trinity,485 S. Robb St,75862,,,0,0,230,230,,,,04/12/2021      ,18:41:15        ,,
249,P&S REXALL PHARMACY INC,Federal Allocation,,,CORSICANA,NAVARRO,829 N. MAIN ST.,75110,32.100744,-96.46969,0,0,60,60,(903) 874-5691,,,04/12/2021      ,20:27:11        ,-96.46969,32.100744
250,OK Pharmacy Inc,Federal Allocation,,,DONNA,,"122 S Main St, Donna, TX 78537",78537,26.1701200798469,-98.0539923554357,0,0,135,135,(956) 464-2200,http://www.okpharmacydonna.com/,,04/12/2021      ,18:22:52        ,-98.053992,26.17012
251,New Dimension Pharmacy,Federal Allocation,,1102 Pinemont Dr,Houston,Harris,"1102 Pinemont Drive, Houston, TX, USA",77018,29.8413834,-95.4239229,36,10,0,46,,,,04/12/2021      ,17:26:40        ,-95.423923,29.841383
252,Muecke Prescription Shoppe,Federal Allocation,,2808 7th St,Bay City,Matagorda,"2808 7th Street, Bay City, TX, USA",77414,28.9830806,-95.9562676,0,0,100,100,,,,04/12/2021      ,17:28:17        ,-95.956268,28.983081
253,Merkel Drug Company,Federal Allocation,,121 Edwards Street,Merkel,Taylor,121 Edwards Street,79536,32.4710062505074,-100.011634918336,0,0,220,220,,,,04/12/2021      ,10:23:19        ,-100.011635,32.471006
254,"MEDICINE CHEST PLUS PHARMACY, PLLC",Federal Allocation,,,Houston,Harris,256 N Sam Houston Pky E 203,77060,29.939875,-95.404681,0,0,125,125,,,,04/12/2021      ,19:18:45        ,-95.404681,29.939875
255,"Med Time Pharmacy, Inc",Federal Allocation,,Resler,El Paso,El Paso,641 N Resler Suite 306 And 307,79912,31.8507994,-106.5551565,0,0,90,90,915-584-6337,todd@medtimepharmacy.com,,04/12/2021      ,18:10:00        ,-106.555156,31.850799
256,Matthewson Drug Co,Federal Allocation,,,Marshall,Harrison,717 S Washington Ave,75670,32.5381195,-94.367877,0,0,262,262,,,,04/12/2021      ,14:17:28        ,-94.367877,32.53812
257,Longview Drugs,Federal Allocation,,,Longview,,1751 West Loop 281,75604,32.5257495653892,-94.7835044259036,0,0,285,285,(903) 291-1730,,,04/12/2021      ,17:21:06        ,-94.783504,32.52575
258,La Rx ,Federal Allocation,,,Houston,Harris,3744 BROADWAY ST STE C,77017,29.6883567,-95.2776333,0,0,140,140,,,,04/12/2021      ,17:06:49        ,-95.277633,29.688357
259,KROGER PHARMACY 585,Federal Allocation,,,Flower Mound ,,1101 Flower Mound Rd,75028,33.0098743959091,-97.0469232299177,54,0,0,54,,,,04/07/2021      ,08:05:00        ,-97.046923,33.009874
260,KROGER PHARMACY 581,Federal Allocation,,,Plano,,2925 Custer Rd ,75075,33.0389877610022,-96.7347840912897,54,0,0,54,,,,04/07/2021      ,08:05:00        ,-96.734784,33.038988
261,KROGER PHARMACY 563,Federal Allocation,,,Plano,,4017 14th St,75074,33.0152206537026,-96.6540820533997,108,0,0,108,,,,04/07/2021      ,08:05:00        ,-96.654082,33.015221
262,Kroger Pharmacy 561,Federal Allocation,,,Frisco ,,12221 Custer Rd ,75035,33.1774756975184,-96.7355114740913,6,0,100,106,,,,04/07/2021      ,08:05:00        ,-96.735511,33.177476
263,Kroger Pharmacy 509,Federal Allocation,,,Dallas ,,4901 Maple Ave ,75235,32.8140016680626,-96.8292192452673,157,0,0,157,,,,04/07/2021      ,08:05:00        ,-96.829219,32.814002
264,"Healthier Way Family Care, PLLC",Medical Practice,,110 N Walnut St,Jefferson,Marion,"110 North Walnut Street, Jefferson, TX, USA",1934,32.7576284,-94.343604,214,0,0,214,903-916-9560,,,04/11/2021      ,20:52:29        ,-94.343604,32.757628
265,KROGER PHARMACY 009,Federal Allocation,,,FRESNO,,10250 STATE HIGHWAY 6,77545,29.529845996266,-95.5110288453694,0,100,200,300,,,,04/07/2021      ,08:05:00        ,-95.511029,29.529846
266,HEALTHCO PHARMACY #2,Federal Allocation,,,Houston,77033,8604 Martin Luther King Jr Blvd,Harris,,,0,0,620,620,,,,04/12/2021      ,22:59:44        ,,
267,Hamarsyl Pharmacy LLc,Federal Allocation,,,McAllen,,"2528 Buddy Owens Blvd, McAllen, TX 78504",78504,26.2484411019521,-98.2420732748317,0,0,65,65,(956) 627-4358,https://www.hamarsylpharmacy.com/,,04/12/2021      ,22:01:08        ,-98.242073,26.248441
268,Greenville Family Dentistry Pllc,Federal Allocation,,,Greenville,Hunt,3900 Joe Ramsey Blvd,75401,33.1157997,-96.0991771,0,140,0,140,,,,04/12/2021      ,14:04:49        ,-96.099177,33.1158
269,Gibson Prescription Pharmacy - Athens,Federal Allocation,,Henderson,Henderson ,Athens,600 South Palestine Street,75751,32.196132,-95.853945,0,0,70,70,(903) 675-7069,https://www.mygnp.com/pharmacies/gibson-prescription-pharmacy-athens-tx-75751/,,04/12/2021      ,15:03:01        ,-95.853945,32.196132
270,Dyer Drug Store fed,Federal Allocation,,Mckinney Street,Farmersville,Collin,133 Mckinney Street,75442,33.2657349992143,-96.3818399120816,0,226,0,226,,,,04/12/2021      ,22:39:14        ,-96.38184,33.265735
271,Walgreens Pharmacy 04538,Pharmacy,,,,,"1180 CLEAR LAKE CITY BLVD Houston, TX 77062",,29.5808335214013,-95.1556571860489,0,0,15,15,(281) 218-0184,https://www.walgreens.com/locator/walgreens-1180+clear+lake+city+blvd-houston-tx-77062/id=4538,,04/11/2021      ,17:40:57        ,-95.155657,29.580834
272,Cooper Clinic,Other,E,12200 Preston Rd,Dallas,Dallas,12200 Preston Rd,75230,32.914858,-96.803548,0,10,0,10,,,,04/12/2021      ,15:00:41        ,-96.803548,32.914858
273,Costco Wholesale 1208,Federal Allocation,,26960 Nw Freeway,Cypress,Harris,26960 Nw Freeway,77433,29.9793505902087,-95.7121984024279,0,0,6,6,,,,04/12/2021      ,18:19:51        ,-95.712198,29.979351
274,COSTCO PHARMACY 684,Federal Allocation,,Dallas Parkway,Plano,Collin,1701 Dallas Parkway,75093,33.0239618019555,-96.8313687654631,0,0,400,400,,,,04/12/2021      ,08:56:30        ,-96.831369,33.023962
275,COSTCO PHARMACY 1228,Federal Allocation,,21802 Townsen Blvd W,Humble,Harris,21802 Townsen Blvd W,77338,30.0217572539155,-95.2666643302812,0,0,12,12,,,,04/12/2021      ,17:32:34        ,-95.266664,30.021757
276,COSTCO PHARMACY 1221,Federal Allocation,,,Pearland,,3500 Business Center Drive,77584,29.5442255223944,-95.39039907482,0,0,170,170,(281) 707-7011,,,04/12/2021      ,10:24:32        ,-95.390399,29.544226
277,COSTCO PHARMACY 1167,Federal Allocation,,,Katy,,23645 katy freeway,77494,29.7827448517317,-95.7810557177295,0,0,200,200,(281) 347-9910,,,04/12/2021      ,09:25:25        ,-95.781056,29.782745
278,Costco Pharmacy 1163,Federal Allocation,,,Lubbock,,6020 34th Street,79407,,,0,0,165,165,,,,04/12/2021      ,16:29:35        ,,
279,COSTCO PHARMACY 1049,Federal Allocation,,1225 State Hwy 276,Rockwall,Rockwall,1225 State Hwy 276,75032,32.9084619855242,-96.4448516938094,0,200,5,205,,,,04/08/2021      ,18:17:12        ,-96.444852,32.908462
280,College Park Pharmacy,Federal Allocation,,3115 College Park Drive Suite 103a,Conroe,Montgomery,3115 College Park Drive Suite 103a,,30.2063551349607,-95.4669852001584,0,0,220,220,,,,04/12/2021      ,15:23:08        ,-95.466985,30.206355
281,CLEBURNE DRUG,Federal Allocation,,,Cleburne ,Johnson,310 N RIDGEWAY DR,76033,32.34481,-97.41042,0,0,205,205,,,,04/10/2021      ,14:11:53        ,-97.41042,32.34481
282,Cedra Pharmacy,Federal Allocation,,,Houston,,1607 South Post Oak Lane,77056,29.7512595,-95.4626579,0,0,57,57,,,,04/12/2021      ,08:37:24        ,-95.462658,29.75126
283,CAREONE Medical Clinic,Federal Allocation,,360 Stonebrook Pkwy Ste 112a,Frisco,Denton,360 Stonebrook Pkwy Ste 112a,75036,33.1455699934236,-96.8892844291068,0,0,100,100,,,,04/09/2021      ,08:43:57        ,-96.889284,33.14557
284,BotW Health Inc,Federal Allocation,,Josey Lane,Farmers Branch,Texas,"12879 Josey Ln, Ste 115",75234,32.9216513,-96.8827695,0,60,0,60,,,,04/12/2021      ,17:23:42        ,-96.882769,32.921651
285,benzer Tx3 Llc,Federal Allocation,,North Galloway Ave,Mesquite,Dallas,1320 North Galloway Ave Suite 102,75149,32.7815313452213,-96.600182318264,0,0,250,250,,,,04/10/2021      ,13:56:12        ,-96.600182,32.781531
286,Apteek Pharmacy,Federal Allocation,,2900 Weslayan St Ste B,Houston,,2900 Weslayan St Ste B,77027,29.7396,-95.446,0,0,120,120,,,,04/12/2021      ,11:48:58        ,-95.446,29.7396
287,Apple Pharmacy #7,Federal Allocation,,,Brownsville,,95 E Price Rd Bldg F,78521,25.9323303,-97.4723902,0,0,155,155,,,,04/12/2021      ,09:32:48        ,-97.47239,25.93233
288,Shepherd Pharmacy,Other,,,Shepherd,San Jacinto,11011 Hwy 150,77371,30.497,-94.994986,0,0,145,145,(936) 628-2099,http://www.localpharmacyrx.com/,,04/12/2021      ,08:25:26        ,-94.994986,30.497
289,Apogee Pharmacy,Federal Allocation,,,SAGINAW,,608 E BAILEY BOSWELL RD STE 140 ,76131,32.8847858943597,-97.3577187593418,0,0,60,60,,,,04/12/2021      ,18:01:36        ,-97.357719,32.884786
290,Amarillo Diagnostic Clinic Rx,Federal Allocation,,6700 SW 9th Ave,Amarillo,Potter,"6700 SW 9th Ave, Amarillo, TX, USA",79106,35.2070599,-101.9111294,0,285,0,285,,,,04/12/2021      ,10:43:39        ,-101.911129,35.20706
291,Alvin Care Pharmacy,Federal Allocation,,,Alvin,,204 E House St,77511,29.4186013,-95.2406608,0,0,40,40,,,,04/07/2021      ,21:37:08        ,-95.240661,29.418601
292,Lowe's Marketplace Pharmacy,Federal Allocation,,1201 S STOCKTON AVE,Monahans,,"1201 S STOCKTON AVE, Monahans, TX 79756",79756,31.5824920223212,-102.892292711644,0,0,50,50,,,,04/12/2021      ,18:05:01        ,-102.892293,31.582492
293,AHF Pharmacy,Federal Allocation,,,Houston,Harris,1435 Westheimer Rd,77006,29.74255,-95.3973,0,0,100,100,,,,04/07/2021      ,15:34:17        ,-95.3973,29.74255
294,"Agp Pharmacy, Llc Dba Hometown Phar",Federal Allocation,,,Plainview,Hale ,3200 Olton Road Ste B,79072,34.185713,-101.743106,0,0,170,170,806-296-9000,,,04/09/2021      ,09:35:04        ,-101.743106,34.185713
295,AGP Pharmacy LLC dba Hometown Pharmacy,Federal Allocation,,,Post,Garza,132 W Main Street,79356,33.1913262,-101.3793671,0,0,195,195,,,,04/12/2021      ,15:17:57        ,-101.379367,33.191326
296,Kelsey Seybold Ft Bend Diagnostic Ctr,Medical Practice,,11555 University Blvd,Sugar Land,Fort Bend,11555 University Blvd,77478,29.6106819154744,-95.6417237015634,372,0,80,452,(713) 442-9100,https://www.kelsey-seybold.com/find-a-location/fort-bend-medical-and-diagnostic-center,,04/11/2021      ,23:02:38        ,-95.641724,29.610682
297,A-class Pharmacy Llc,Federal Allocation,,,Mcallen,hildalgo,3600 N 23rd St Suite #102,78501,26.238372,-98.239679,0,0,460,460,,,,04/09/2021      ,13:18:08        ,-98.239679,26.238372
298,PERRYTON HEALTH CENTER,Community Clinic,, GARRETT DR,PERRYTON,OCHILTREE,3101 GARRETT DR,79070,36.3700259,-100.7987427,0,160,0,160,+18064357224,http://www.ochiltreehospital.com/perryton-health-center,,04/12/2021      ,09:00:02        ,-100.798743,36.370026
299,Northwest Texas Hospital Pharmacy,Hospital,,1501 S Coulter St,Amarillo,Potter,1501 S Coulter St,79106,35.1997580869122,-101.921855687127,242,0,0,242,(806) 354-1000,https://www.nwths.com/?utm_source=google-business&utm_medium=organic&utm_campaign=homepage,,04/12/2021      ,16:22:22        ,-101.921856,35.199758
300,Walgreens Pharmacy 16061,Pharmacy,,,,,14021 STUEBNER AIRLINE RD Houston 77069,,29.9884928671339,-95.5000114759908,30,0,50,80,281-440-1604,https://www.walgreens.com/locator/walgreens-14021+stuebner+airline+rd-houston-tx-77069/id=16061,,04/12/2021      ,16:36:23        ,-95.500011,29.988493
301,Walgreens Pharmacy 11233,Pharmacy,,,,,"602 AVENUE Q Lubbock, TX 79401",,33.5919750003468,-101.855082690858,3966,0,100,4066,(806) 747-3834,https://www.walgreens.com/locator/walgreens-602+avenue+q-lubbock-tx-79401/id=11233,,04/11/2021      ,17:40:42        ,-101.855083,33.591975
302,Walgreens Pharmacy 09679,Pharmacy,,,,,"12601 TECH RIDGE BLVD Austin, TX 78753",,30.4013251147336,-97.6576151041014,0,0,100,100,(512) 491-6051,https://www.walgreens.com/locator/walgreens-12601+tech+ridge+blvd-austin-tx-78753/id=9679,,04/12/2021      ,08:16:02        ,-97.657615,30.401325
303,Walgreens Pharmacy 09323,Pharmacy,,610 E Malloy Bridge Rd,Seagoville,Dallas,"610 East Malloy Bridge Road, Seagoville, TX, USA",75159,32.6482573,-96.5319549,12,0,100,112,,,,04/09/2021      ,15:08:41        ,-96.531955,32.648257
304,Walgreens Pharmacy 09165,Pharmacy,,,,,"1832 FM 646 RD W Dickinson, TX 7753",,29.4641799452103,-95.0957122892509,0,0,70,70,(281) 614-5785,https://www.walgreens.com/locator/walgreens-1832+fm+646+rd+w-dickinson-tx-77539/id=9165,,04/12/2021      ,15:08:57        ,-95.095712,29.46418
305,Walgreens Pharmacy 09121,Pharmacy,,,Allen,,500 E STACY RD ,75002,33.12927,-96.64427,0,0,69,69,,,,04/12/2021      ,14:48:14        ,-96.64427,33.12927
306,Walgreens Pharmacy 07542,Pharmacy,,,,,"1700 S LOOP 288 Denton, TX 76205",,33.1934492383947,-97.097002670257,0,0,302,302,(940) 220-0574,https://www.walgreens.com/locator/walgreens-1700+s+loop+288-denton-tx-76205/id=7542,,04/12/2021      ,08:18:55        ,-97.097003,33.193449
307,Walgreens Pharmacy 06822,Pharmacy,,,,,"2322 TEXAS AVE S College Station, TX 77840",,30.6090977394987,-96.3117108922026,1038,0,100,1138,(979) 696-5908,https://www.walgreens.com/locator/walgreens-2322+texas+ave+s-college+station-tx-77840/id=6822,,04/12/2021      ,15:57:36        ,-96.311711,30.609098
308,Walgreens Pharmacy 06606,Pharmacy,,,,,"390 EDGEBROOK DR Houston, TX 77034",,29.6468793552243,-95.2220294616959,309,0,407,716,(713) 943-1810,https://www.walgreens.com/locator/walgreens-390+edgebrook+dr-houston-tx-77034/id=6606,,04/09/2021      ,21:35:13        ,-95.222029,29.646879
309,Walgreens Pharmacy 06566,Pharmacy,,,,,"1088 W MAIN ST League City, TX 77573",,29.505904350162,-95.104319996898,6,0,165,171,(281) 332-3445,https://www.walgreens.com/locator/walgreens-1088+w+main+st-league+city-tx-77573/id=6566,,04/12/2021      ,09:45:16        ,-95.10432,29.505904
310,United Pharmacy 674,Pharmacy,,4706 N Midkiff Road,Midland,Midland,4706 N Midkiff Road,79705,32.035895116644,-102.1300903252,90,0,340,430,(432) 699-7578,https://local.pharmacy.marketstreetunited.com/tx/midland/4706-n-midkiff-rd.html,,04/12/2021      ,15:16:50        ,-102.13009,32.035895
311,Walgreens Pharmacy 06120,Pharmacy,,,,,"9937 GARLAND RD Dallas, TX 75218",,32.837831371462,-96.6985185477533,0,0,70,70,(214) 328-4971,https://www.walgreens.com/locator/walgreens-9937+garland+rd-dallas-tx-75218/id=6120,,04/12/2021      ,18:55:40        ,-96.698519,32.837831
312,Clinicas Mi Doctor 19 Bissonnet,Medical Practice,,5835 Bissonnet St,Bellaire,Harris,5835 Bissonnet St,77401,29.6996595476285,-95.4834336393901,0,0,100,100,(713) 715-4440,http://www.clinicasmidoctor.com/,,04/12/2021      ,09:55:29        ,-95.483434,29.69966
313,Freedom Urgent Care Harker Heights,Medical Practice,,300 W Central Texas Expy Ste115,Harker Heights,Bell,"300 West Central Texas Expressway Suite 115, Harker Heights, TX, USA",76548,31.0711687,-97.6756253,0,280,0,280,(254) 833-8456,http://www.freedomurgentcare.com,,04/09/2021      ,09:09:25        ,-97.675625,31.071169
314,United Care Pharmacy,Federal Allocation,,1755 West Price Road Ste C,Brownsville,Cameron,1755 W PRICE RD STE C BROWNSVILLE 78520,78520,25.936612478483,-97.5018309036087,0,0,205,205,,,,04/12/2021      ,13:50:17        ,-97.501831,25.936612
315,Walgreens Pharmacy 04605,Pharmacy,,,Houston,,9200 CULLEN BLVD,77051,29.658508981836,-95.3195316275345,0,0,100,100,(713) 733-2406,https://www.walgreens.com/locator/walgreens-9200+cullen+blvd-houston-tx-77051/id=4605,,04/12/2021      ,14:14:34        ,-95.319532,29.658509
316,Walgreens Pharmacy 04578,Pharmacy,,,Flower Mound,,1101 CROSS TIMBERS RD,75028,33.042222828016,-97.0740190620056,0,0,60,60,(972) 355-5149,https://www.walgreens.com/locator/walgreens-1101+cross+timbers+rd-flower+mound-tx-75028/id=4578,,04/12/2021      ,18:12:02        ,-97.074019,33.042223
317,Walgreens Pharmacy 04458,Pharmacy,,,Austin,,3601 W WILLIAM CANNON DR,78749,30.2169645686666,-97.8109699600909,1314,0,100,1414,(512) 892-0930,https://www.walgreens.com/locator/walgreens-3601+w+william+cannon+dr-austin-tx-78749/id=4458,,04/12/2021      ,21:03:15        ,-97.81097,30.216965
318,Cody Drug,Federal Allocation,,1505 S Broadway St,Sulphur Springs,Hopkins,1505 S BROADWAY ST SULPHUR SPRINGS 75482,75482,33.2271725571978,-95.6257893930139,0,0,149,149,,,,04/12/2021      ,09:11:01        ,-95.625789,33.227173
319,Walgreens Pharmacy 04267,Pharmacy,,1902 N Jupiter Rd,Garland,Dallas,"1902 North Jupiter Road, Garland, TX, USA",4744,32.9302061,-96.6823156,0,0,215,215,(972) 487-6450,https://www.walgreens.com/findcare/vaccination/covid-19,,04/12/2021      ,20:59:21        ,-96.682316,32.930206
320,Walgreens Pharmacy 04054,Pharmacy,,,Irving,,1050 W SHADY GROVE RD,75060,32.8035329952791,-96.9402096522182,0,0,100,100,(972) 254-0305,https://www.walgreens.com/locator/walgreens-1050+w+shady+grove+rd-irving-tx-75060/id=4054,,04/12/2021      ,14:09:35        ,-96.94021,32.803533
321,"ASKE Solutions, LLC",Other,,N. US Hwy 183,Loockhart,,4001 N US HIGHWAY 183 Lockhart 78644,78644,29.9311433,-97.6734823,0,230,0,230,512-481-2753,,,04/09/2021      ,08:12:57        ,-97.673482,29.931143
322,Walgreens Pharmacy 03328,Pharmacy,,,Houston,,12850 MEMORIAL DR,77024,29.7750120491185,-95.5455597714501,12,0,65,77,(713) 722-7247,https://www.walgreens.com/locator/walgreens-12850+memorial+dr-houston-tx-77024/id=3328,,04/12/2021      ,20:28:25        ,-95.54556,29.775012
323,C-Trilogy Comprehensive Clinical Care,Other,,618 N High St Suite 4,Longview,Gregg,618 N High St Suite 4,75601,32.50248,-94.73982,0,300,0,300,,,,04/09/2021      ,10:10:50        ,-94.73982,32.50248
324,Clinicas Mi Doctor 24 Airline,Medical Practice,,5402 Airline Dr,Houston,Harris,5402 Airline Dr,77076,29.8458271566061,-95.3844216537588,0,0,40,40,(888) 776-5252,http://www.clinicasmidoctor.com/,,04/13/2021      ,07:17:11        ,-95.384422,29.845827
325,Alice Pediatric Clinic,Other,,305 E 3rd St,Alice,Jim Wells,"305 E 3rd St, Alice, TX 78332",78332,27.7536164553361,-98.0737731949708,0,50,0,50,+13616649353,http://alicepediatric.com/,,04/09/2021      ,14:36:54        ,-98.073773,27.753616
326,Infinity Pharmacy Solutions llc,Federal Allocation,,3313 Essex Dr ,Richardson,Collin,3313 Essex Dr #200,75082,33.0010581222309,-96.6609127293913,0,0,80,80,,,,04/12/2021      ,09:30:53        ,-96.660913,33.001058
327,Walgreens Pharmacy 07334,Pharmacy,,,,,"5001 ROSS AVE Dallas, TX 75206",,32.8079647648493,-96.7750794575938,0,0,75,75,(214) 370-8747,https://www.walgreens.com/locator/walgreens-5001+ross+ave-dallas-tx-75206/id=7334,,04/12/2021      ,08:59:38        ,-96.775079,32.807965
328,NEO TEXAS LLC,Other,,360 Stonebrook Pkwy,Frisco,,"360 Stonebrook Pkwy Frisco, TX 75034",75034,33.14561,-96.88934,0,0,100,100,,,,04/09/2021      ,08:48:30        ,-96.88934,33.14561
329,EAGLE LAKE DRUGSTORE,Pharmacy,,702 S MCCARTY AVE,Eagle Lake,Colorado,702 S MCCARTY AVE EAGLE LAKE 77434,77434,29.5842097340765,-96.3397843860478,0,60,30,90,,,,04/10/2021      ,16:03:19        ,-96.339784,29.58421
330,Tlc Pharmacy And Medical Equipment - Beeville,Federal Allocation,,200 S Hillside Dr,Beeville,,"200 S Hillside Dr, Beeville, TX 78102",78102,28.4075309541134,-97.7329697515127,0,0,110,110,,,,04/12/2021      ,10:12:12        ,-97.73297,28.407531
331,Kroger Pharmacy 522,Pharmacy,,7100 Independence Pkwy,Plano,Collin,7100 Independence Pkwy,75025,33.0724629137209,-96.7500884113458,42,0,0,42,(972) 491-2596,http://www.kroger.com/stores/details/035/00522?cid=loc_03500522PP_gmb,,04/07/2021      ,08:05:00        ,-96.750088,33.072463
332,Kroger Pharmacy 879,Pharmacy,,6805 N Main,The Colony,Denton,6805 N Main,75056,33.0981285511973,-96.8927226666794,66,0,0,66,(972) 370-1006,http://www.kroger.com/stores/details/016/00879?cid=loc_01600879PP_gmb,,04/07/2021      ,08:05:00        ,-96.892723,33.098129
333,Kroger Pharmacy 535,Pharmacy,,9150 N Tarrant Pkwy,North Richland Hills,Tarrant,9150 N Tarrant Pkwy,76182,32.903737715866,-97.1886891765467,18,0,0,18,(817) 918-3387,http://www.kroger.com/stores/details/035/00535?cid=loc_03500535PP_gmb,,04/07/2021      ,08:05:00        ,-97.188689,32.903738
334,Kroger Pharmacy 572,Pharmacy,,3400 Fm 407 E,Argyle,Denton,3400 Fm 407 E,76226,33.0761631033735,-97.1291159731939,72,0,0,72,(940) 294-8332,http://www.kroger.com/stores/details/035/00572?cid=loc_03500572PP_gmb,,04/07/2021      ,08:05:00        ,-97.129116,33.076163
335,Kroger Pharmacy 450,Pharmacy,,3600 Gus Thomasson Road,Mesquite,Dallas,3600 Gus Thomasson Road,75150,32.8136274790456,-96.6348935648027,48,0,0,48,(972) 270-2401,http://www.kroger.com/stores/details/035/00450?cid=loc_03500450PP_gmb,,04/07/2021      ,08:05:00        ,-96.634894,32.813627
336,Kroger Pharmacy 115,Pharmacy,,9703 Barker Cypress Rd,Cypress,Harris,9703 Barker Cypress Rd,77433,29.9189569986979,-95.6896039823487,162,0,0,162,(281) 746-3645,http://www.kroger.com/stores/details/034/00115?cid=loc_03400115PP_gmb,,04/06/2021      ,08:05:00        ,-95.689604,29.918957
337,Kroger Pharmacy 312,Pharmacy,,1035 N Shepherd Dr,Houston,Harris,1035 N Shepherd Dr,77008,29.7893450315061,-95.409885288873,0,0,5,5,(713) 880-4661,,,04/12/2021      ,18:57:45        ,-95.409885,29.789345
338,Kroger Pharmacy 732,Pharmacy,,,The Woodlands,Montgomery,8000 Research Forest Dr Ste 3,77382,30.20901,-95.52816,120,10,110,240,,,,04/12/2021      ,20:21:00        ,-95.52816,30.20901
339,Kroger Pharmacy 325,Pharmacy,,,Beaumont ,,3965 Dowlen Rd,77706,30.1172473151145,-94.1698468309289,0,0,100,100,,,,04/07/2021      ,08:05:00        ,-94.169847,30.117247
340,Kroger Pharmacy 439,Pharmacy,,9114 Camp Bowie West Blvd,Fort Worth,Tarrant,9114 Camp Bowie West Blvd,76116,32.724607476371,-97.4773719801928,114,0,0,114,(817) 560-4233,http://www.kroger.com/stores/details/035/00439?cid=loc_03500439PP_gmb,,04/07/2021      ,08:05:00        ,-97.477372,32.724607
341,Kroger Pharmacy 224,Pharmacy,,3510 Altamesa Blvd,Fort Worth,Tarrant,3510 Altamesa Blvd,76133,32.6498780318772,-97.3666256653921,108,0,0,108,(817) 292-3777,http://www.kroger.com/stores/details/035/00224?cid=loc_03500224PP_gmb,,04/07/2021      ,08:05:00        ,-97.366626,32.649878
342,Kroger Pharmacy 737,Pharmacy,,12400 Fm 1960 Rd W,Houston,Harris,12400 Fm 1960 Rd W,77065,29.9224241310373,-95.6036239283178,0,0,10,10,(832) 237-4890,https://www.kroger.com/stores/details/034/00737?cid=loc_03400737_gmb,,04/06/2021      ,08:05:00        ,-95.603624,29.922424
343,Kroger Pharmacy 488,Pharmacy,,1707 W University Dr,Mckinney,Collin,1707 W University Dr,75069,33.216502607435,-96.6326020362939,120,0,0,120,(972) 548-9633,http://www.kroger.com/stores/details/011/00488?cid=loc_01100488PP_gmb,,04/07/2021      ,08:05:00        ,-96.632602,33.216503
344,Kroger Pharmacy 131,Pharmacy,,,Sugar Land ,,18861 University Blvd ,77479,29.5515970445571,-95.5842350453687,126,100,0,226,(832) 342-9649,,,04/07/2021      ,08:05:00        ,-95.584235,29.551597
345,Walgreens Pharmacy 05614,Pharmacy,,"1600 S WESTERN ST Amarillo, TX 79106",Amirillo,Potter,"1600 S WESTERN ST Amarillo, TX 79106",79106,35.2003720159841,-101.855040380558,40,0,0,40,(806) 463-3067,https://www.walgreens.com/locator/walgreens-1600+s+western+st-amarillo-tx-79106/id=5614,,04/10/2021      ,18:22:44        ,-101.85504,35.200372
346,Fry's Prescription Pharmacy,Other,,311 N Sam Houston Blvd,San Benito,,"311 N Sam Houston Blvd San Benito, TX 78586",78586,26.133239,-97.63057,0,100,180,280,,,,04/09/2021      ,16:11:12        ,-97.63057,26.133239
347,United Pharmacy 525,Pharmacy,,2802 Hwy 83 South,Perryton,Ochiltree,2802 Hwy 83 South,79070,36.3337421895735,-100.802513337756,0,90,590,680,(806) 435-7160,https://local.pharmacy.unitedsupermarkets.com/tx/perryton/2806-s-main-st.html,,04/12/2021      ,11:19:53        ,-100.802513,36.333742
348,Texas Scripts Pharmacy,Other,,720 E Dove Ave,Mcallen,Hidalgo,720 E Dove Ave,78504,26.2510350280481,-98.2029879311089,0,90,340,430,,,,04/12/2021      ,08:54:47        ,-98.202988,26.251035
349,United Pharmacy 529,Pharmacy,,5807 Sw 45th Ave Ste 100,Amarillo,Randall,5807 Sw 45th Ave Ste 100,79109,35.1614999684316,-101.900361787355,0,0,250,250,(806) 353-7201,https://local.pharmacy.unitedsupermarkets.com/tx/amarillo/5807-sw-45th-ave.html,,04/12/2021      ,07:32:33        ,-101.900362,35.1615
350,United Pharmacy 672,Pharmacy,,1002 Andrews Hwy,Midland,Midland,"1002 Andrews Highway, Midland, TX, USA",79701,32.0012924,-102.1116467,0,0,400,400,,,,04/11/2021      ,15:54:33        ,-102.111647,32.001292
351,United Pharmacy 551,Pharmacy,,8010 Frankford Ave,Lubbock,Lubbock,8010 Frankford Ave,79424,33.520578776263,-101.939719953547,0,0,329,329,(806) 783-0241,,,04/12/2021      ,08:57:25        ,-101.93972,33.520579
352,United Pharmacy 506,Pharmacy,,1701 50th St,Lubbock,Lubbock,1701 50th St,79412,33.5487334213912,-101.855480904624,0,0,231,231,(806) 744-2879,https://local.unitedsupermarkets.com/tx/lubbock/1701-50th-st.html,,04/12/2021      ,08:18:32        ,-101.855481,33.548733
353,United pharmacy 528,Pharmacy,,1420 N Hobart St,Pampa,Gray,"1420 North Hobart Street, Pampa, TX, USA",79065,35.5501299,-100.971949,0,0,200,200,,,,04/12/2021      ,08:30:18        ,-100.971949,35.55013
354,Amigos Pharmacy 508,Pharmacy,,2403 N Columbia St,Plainview,Hale,2403 N Columbia St,79072,34.2057793281068,-101.70742321839,0,0,100,100,(806) 293-3820,https://local.pharmacy.amigosunited.com/tx/plainview/2403-n-columbia-ave.html,,04/12/2021      ,09:24:12        ,-101.707423,34.205779
355,United Pharmacy 550,Pharmacy,,104 W 9th St,Muleshoe,Bailey,104 W 9th St,79347,34.2311645876202,-102.732154394011,0,0,260,260,,,,04/12/2021      ,17:03:30        ,-102.732154,34.231165
356,Amigos Pharmacy 503,Pharmacy,,112 North University Avenue,Lubbock,Lubbock,112 North University Avenue,79415,33.5991123894225,-101.870360962055,0,0,380,380,(806) 763-5908,https://local.pharmacy.amigosunited.com/tx/lubbock/112-n-university-ave.html,,04/12/2021      ,09:20:10        ,-101.870361,33.599112
357,Amigos Pharmacy 524,Pharmacy,,3300 I40 East,Amarillo,Potter,3300 I40 East,79103,35.1929648058456,-101.798957708198,0,0,330,330,(806) 373-8722,https://local.pharmacy.amigosunited.com/tx/amarillo/3300-i-40-e.html,,04/12/2021      ,09:06:45        ,-101.798958,35.192965
358,United pharmacy 663,Pharmacy,,2783 S Cedar St,Pecos,Reeves,"2783 South Cedar Street, Pecos, TX, USA",79772,31.4092724,-103.4866089,0,80,235,315,,,,04/12/2021      ,10:07:46        ,-103.486609,31.409272
359,United Pharmacy 536,Pharmacy,,1401 Tahoka Rd,Brownfield,Terry,1401 Tahoka Rd,79316,33.1810774575833,-102.255849969693,0,70,300,370,(806) 637-7597,https://local.pharmacy.unitedsupermarkets.com/tx/brownfield/1401-tahoka-rd.html,,04/12/2021      ,13:01:01        ,-102.25585,33.181077
360,Albertsons Phamracy 2994,Pharmacy,,5630 North Desert Blvd,El Paso,El Paso,5630 North Desert Blvd,79912,31.8641215059275,-106.576782076888,348,0,0,348,(915) 845-1422,https://local.pharmacy.albertsons.com/tx/el-paso/5630-n-desert-blvd.html,,04/12/2021      ,19:50:30        ,-106.576782,31.864122
361,Walgreens Pharmacy 07645,Pharmacy,,3030 Main St,Frisco,Denton,3030 Main St,75033,33.1532874671526,-96.8646394353661,0,0,100,100,(214) 387-8743,https://Walgreens.com/covid19vac,,04/12/2021      ,15:49:51        ,-96.864639,33.153287
362,Market Street Pharmacy 553,Pharmacy,,4425 19th St,Lubbock,Lubbock,4425 19th St,79407,33.5777780989079,-101.906857863957,0,0,366,366,(806) 788-2015,https://local.pharmacy.marketstreetunited.com/tx/lubbock/4425-19th-st.html,,04/12/2021      ,08:14:52        ,-101.906858,33.577778
363,United pharmacy 521,Pharmacy,,2522 Old Iowa Park Rd,Wichita Falls,Wichita,"2522 Old Iowa Park Road, Wichita Falls, TX, USA",76306,33.9289141,-98.5177807,0,0,200,200,(940) 322-1114,https://local.pharmacy.unitedsupermarkets.com/tx/wichita-falls/2522-iowa-park-rd.html,,04/09/2021      ,18:08:05        ,-98.517781,33.928914
364,Kroger Pharmacy 545,Pharmacy,,1001 N Beckley Ste 500,Desoto,Dallas,1001 N Beckley Ste 500,75115,32.6057527545048,-96.8234571807083,108,0,0,108,(972) 224-3225,http://www.kroger.com/stores/details/026/00545?cid=loc_02600545PP_gmb,,04/07/2021      ,08:05:00        ,-96.823457,32.605753
365,Market Street Pharmacy 566,Pharmacy,,1929 Preston Rd,Plano,Collin,1929 Preston Rd,75093,33.0263794486553,-96.7952133965562,0,0,251,251,(972) 713-5515,https://local.pharmacy.marketstreetunited.com/tx/plano/1929-preston-rd.html,,04/12/2021      ,08:30:33        ,-96.795213,33.026379
366,Kroger Pharmacy 542,Pharmacy,,3300 Texas Sage Trl,Fort Worth,Tarrant,3300 Texas Sage Trl,76177,32.9119824911057,-97.3093589941549,42,0,0,42,(817) 750-2041,http://www.kroger.com/stores/details/035/00542?cid=loc_03500542PP_gmb,,04/07/2021      ,08:05:00        ,-97.309359,32.911982
367,Kroger Pharmacy 532,Pharmacy,,5241 North Tarrant Pkwy,Fort Worth,Tarrant,5241 North Tarrant Pkwy,76244,32.8951074569,-97.2710329933423,27,0,0,27,(817) 380-6181,http://www.kroger.com/stores/details/035/00532?cid=loc_03500532PP_gmb,,04/07/2021      ,08:05:00        ,-97.271033,32.895107
368,Kroger Pharmacy 359,Pharmacy,,,Kingwood ,,25651 Highway 59 N ,77339,30.0721816766656,-95.2431616174374,96,60,100,256,,,,04/07/2021      ,08:05:00        ,-95.243162,30.072182
369,Kroger Pharmacy 562,Pharmacy,,12600 N Beach St,Fort Worth,Tarrant,12600 N Beach St,76244,32.9557919748854,-97.2813043451312,18,0,0,18,(817) 562-3901,http://www.kroger.com/stores/details/035/00562?cid=loc_03500562PP_gmb,,04/07/2021      ,08:05:00        ,-97.281304,32.955792
370,Kroger Pharmacy 121,Pharmacy,,,Katy,Fort Bend,9806 Gaston Rd,77494,29.736539,-95.810186,126,0,0,126,(346) 307-3055,,,04/06/2021      ,08:05:00        ,-95.810186,29.736539
371,Kroger Pharmacy 893,Pharmacy,,1919 Faithon P Lucas Blvd,Mesquite,Dallas,1919 Faithon P Lucas Blvd,75181,32.7438584787229,-96.5524886277029,126,0,0,126,(469) 726-0013,http://www.kroger.com/stores/details/035/00893?cid=loc_03500893PP_gmb,,04/07/2021      ,08:05:00        ,-96.552489,32.743858
372,Kroger Pharmacy 390,Pharmacy,,14060 Fm 2920 Rd,Tomball,Harris,14060 Fm 2920 Rd,77377,30.092152012555,-95.6342649812038,192,0,0,192,(281) 516-2486,http://www.kroger.com/stores/details/011/00390?cid=loc_01100390PP_gmb,,04/12/2021      ,20:47:43        ,-95.634265,30.092152
373,Pattison First Family Clinic,Other,,3603 Front Street,Brookshire,Waller,"3603 S Front St #103, Brookshire, TX 77423",77423,29.7859915103912,-95.947917543398,0,0,50,50,+12819344444,http://www.pffclinic.com/,,04/12/2021      ,17:20:08        ,-95.947918,29.785992
374,Walgreens Pharmacy 21228,Pharmacy,,,,,"2500 W PARMER LN Austin, TX 78727",,30.4222415607711,-97.7017013969216,0,0,20,20,(737) 346-3067,https://www.walgreens.com/locator/walgreens-2500+w+parmer+ln-austin-tx-78727/id=21228,,04/12/2021      ,16:01:05        ,-97.701701,30.422242
375,United pharmacy 537,Pharmacy,,2703 82nd St,Lubbock,Lubbock,"2703 82nd Street, Unit A",79423,33.5194622,-101.8755835,0,0,80,80,(806) 745-3907,,,04/12/2021      ,19:06:39        ,-101.875583,33.519462
376,Kroger Pharmacy 599,Pharmacy,,4620 State Highway 121,Lewisville,Denton,4620 State Highway 121,75056,33.0637339563405,-96.8921995521021,102,0,0,102,(469) 535-2480,http://www.kroger.com/stores/details/035/00599?cid=loc_03500599PP_gmb,,04/07/2021      ,08:05:00        ,-96.8922,33.063734
377,Walgreens Pharmacy 15513,Pharmacy,,,Beaumont,,3080 College St, 77701,,,0,0,100,100,,,,04/12/2021      ,16:01:21        ,,
378,PAMPA REGIONAL MEDICAL CENTER,Pharmacy,A,One Medical Plaza,Pampa,Gray,One Medical Plaza,79065,35.5724685059732,-100.96419408031,0,0,100,100,(806) 665-3721,https://www.prmctx.com/,,04/11/2021      ,22:52:05        ,-100.964194,35.572469
379,Kroger Pharmacy 870,Pharmacy,,3770 Belt Line Rd,Addison,Dallas,3770 Belt Line Rd,75001,32.9505169917599,-96.8530190162608,27,0,0,27,(972) 620-0349,http://www.kroger.com/stores/details/035/00870?cid=loc_03500870PP_gmb,,04/07/2021      ,08:05:00        ,-96.853019,32.950517
380,Kroger Pharmacy 744,Pharmacy,,3135 Fm 528,Friendswood,Galveston,3135 Fm 528,77546,29.4645456622281,-95.2271091417117,180,100,40,320,(281) 557-4894,http://www.kroger.com/stores/details/034/00744?cid=loc_03400744PP_gmb,,04/07/2021      ,08:05:00        ,-95.227109,29.464546
381,Kroger Pharmacy 596,Pharmacy,,2200 Fm 663,Midlothian,Ellis,2200 Fm 663,76065,32.4602088483329,-96.9948020097773,120,0,200,320,(469) 336-2041,http://www.kroger.com/stores/details/035/00596?cid=loc_03500596PP_gmb,,04/07/2021      ,08:05:00        ,-96.994802,32.460209
382,Kroger Pharmacy 547,Pharmacy,,3205 Main St,Frisco,Collin,3205 Main St,75034,33.152982491605,-96.8623302210412,54,0,0,54,(972) 731-0615,http://www.kroger.com/stores/details/035/00547?cid=loc_03500547PP_gmb,,04/07/2021      ,08:05:00        ,-96.86233,33.152982
383,Kroger Pharmacy 528,Pharmacy,,4142 Cedar Springs Rd,Dallas,Dallas,4142 Cedar Springs Rd,75219,32.8125188466222,-96.813119983679,48,0,0,48,(214)599-9861,http://www.kroger.com/stores/details/034/00744?cid=loc_03400744PP_gmb,,04/07/2021      ,08:05:00        ,-96.81312,32.812519
384,Kroger Pharmacy 356,Pharmacy,,,Houston,,1352 W 43rd St ,77018,29.8288181,-95.4320766,144,0,0,144,,,,04/06/2021      ,08:05:00        ,-95.432077,29.828818
385,Kroger Pharmacy 038,Pharmacy,,,Richmond ,Fort Bend,25050 FM 1093 ,77406,29.7006825561223,-95.8115514308513,0,0,20,20,832-586-7376,,,04/06/2021      ,08:05:00        ,-95.811551,29.700683
386,Kroger Pharmacy 318,Pharmacy,,19250 West Lake Houston Pkwy,Humble,Harris,19250 West Lake Houston Pkwy,77346,30.0010900106286,-95.1608610410061,84,0,100,184,(281) 812-4499,http://www.kroger.com/stores/details/034/00318?cid=loc_03400318PP_gmb,,04/07/2021      ,08:05:00        ,-95.160861,30.00109
387,United Pharmacy 527,Pharmacy,,1501 E Amarillo Blvd,Amarillo,Potter,1501 E Amarillo Blvd,79107,35.2219775064021,-101.815481037747,0,0,265,265,,,,04/12/2021      ,18:51:37        ,-101.815481,35.221978
388,Kroger Pharmacy 576,Pharmacy,,4750 W Bailey Boswell Rd,Fort Worth,Tarrant,4750 W Bailey Boswell Rd,76179,32.8809734690063,-97.3955165764222,78,0,0,78,(682) 316-7508,http://www.kroger.com/stores/details/026/00576?cid=loc_02600576PP_gmb,,04/07/2021      ,08:05:00        ,-97.395517,32.880973
389,United Pharmacy 676,Pharmacy,,2751 N County Rd W,Odessa,Ector,2751 N County Rd W,79764,31.866066191283,-102.397402460872,24,0,220,244,,,,04/12/2021      ,09:18:02        ,-102.397402,31.866066
390,Kroger Pharmacy 461,Pharmacy,,5190 Highway 78,Sachse,Dallas,5190 Highway 78,75048,32.9701932580069,-96.6046804080737,96,0,0,96,(972) 675-1066,http://www.kroger.com/stores/details/011/00461?cid=loc_01100461PP_gmb,,04/07/2021      ,08:05:00        ,-96.60468,32.970193
391,Kroger Pharmacy 374,Pharmacy,,8550 Highway 6 N,Houston,Harris,8550 Highway 6 N,77095,29.9014360131237,-95.6315950097663,144,0,0,144,(281) 463-2409,http://www.kroger.com/stores/details/034/00374?cid=loc_03400374PP_gmb,,04/06/2021      ,08:05:00        ,-95.631595,29.901436
392,Market Street Pharmacy 675,Pharmacy,,4950 E 42nd St,Odessa,Ector,4950 E 42nd St,79762,31.8933441731579,-102.334782435715,48,0,180,228,(432) 367-4612,https://local.pharmacy.marketstreetunited.com/tx/odessa/4950-e-42nd-st.html,,04/12/2021      ,21:48:07        ,-102.334782,31.893344
393,Kroger Pharmacy 740,Pharmacy,,7747 Kirby Dr,Houston,Harris,7747 Kirby Dr,77030,29.6953467231689,-95.4155875814219,12,100,20,132,(713) 661-7440,http://www.kroger.com/stores/details/034/00740?cid=loc_03400740PP_gmb,,04/07/2021      ,08:05:00        ,-95.415588,29.695347
394,Kroger Pharmacy 543,Pharmacy,,945 W Lamar Blvd,Arlington,Tarrant,945 W Lamar Blvd,76012,32.7618374595243,-97.1188887102149,162,0,0,162,(817) 277-2144,http://www.kroger.com/stores/details/035/00543?cid=loc_03500543PP_gmb,,04/07/2021      ,08:05:00        ,-97.118889,32.761837
395,ST. JOSEPH MEDICAL CENTER,Hospital,Q,1401 St Joseph Pkwy,Houston,Harris,1401 St Joseph Pkwy,77002,29.7481423448244,-95.3667231414588,17,600,2045,2662,713-757-1000,https://www.sjmctx.org/,,04/12/2021      ,11:36:23        ,-95.366723,29.748142
396,Kroger Pharmacy 735,Pharmacy,,12555 Briar Forest Dr,Houston,Harris,12555 Briar Forest Dr,77077,29.7538125094739,-95.6053060086469,0,0,145,145,(281) 496-1092,http://www.kroger.com/stores/details/021/00735?cid=loc_02100735PP_gmb,,04/06/2021      ,08:05:00        ,-95.605306,29.753813
397,Kroger Pharmacy 017,Pharmacy,,1440 Studemont St,Houston,Harris,1440 Studemont St,77007,29.77325517208,-95.3905712046615,144,0,30,174,(832) 708-2287,http://www.kroger.com/stores/details/034/00017?cid=loc_03400017PP_gmb,,04/06/2021      ,08:05:00        ,-95.390571,29.773255
398,United Pharmacy 533,Pharmacy,,3400 River Rd,Amarillo,Potter,3400 River Rd,79107,35.248210013494,-101.831332557756,0,0,214,214,(806) 383-3345,https://local.pharmacy.unitedsupermarkets.com/tx/amarillo/3400-river-rd.html,,04/12/2021      ,18:45:30        ,-101.831333,35.24821
399,Kroger Pharmacy 688,Pharmacy,,301 S Bowen Rd,Arlington,Tarrant,301 S Bowen Rd,76013,32.7328723681778,-97.1491019507631,90,0,100,190,(817) 277-0072,http://www.kroger.com/stores/details/029/00688?cid=loc_02900688PP_gmb,,04/07/2021      ,08:05:00        ,-97.149102,32.732872
400,Kroger Pharmacy 529,Pharmacy,,4241 Capitol Ave,Dallas,Dallas,4241 Capitol Ave,75204,32.8071281621449,-96.7873040511898,174,0,0,174,(972)338-3101,http://www.kroger.com/stores/details/034/00352?cid=loc_03400352PP_gmb,,04/07/2021      ,08:05:00        ,-96.787304,32.807128
401,Kroger Pharmacy 817,Pharmacy,,2525 W Interstate 20,Grand Prairie,Dallas,2525 W Interstate 20,75052,32.6749246253977,-97.0432194867371,120,0,0,120,(972) 988-1366,http://www.kroger.com/stores/details/035/00542?cid=loc_03500542PP_gmb,,04/07/2021      ,08:05:00        ,-97.043219,32.674925
402,Kroger Pharmacy 448,Pharmacy,,950 E Sandy Lake Rd,Coppell,Dallas,950 E Sandy Lake Rd,75019,32.9695325544896,-96.9610008117561,90,0,0,90,(972) 304-0823,http://www.kroger.com/stores/details/035/00448?cid=loc_03500448PP_gmb,,04/07/2021      ,08:05:00        ,-96.961001,32.969533
403,Woody Weaver Pharmacy Inc,Other,,2726 West Gentry,Tyler,Smith,2726 W GENTRY PKWY Tyler 75702,75702,32.370446398592,-95.3326319709558,0,150,0,150,,,,04/12/2021      ,17:40:58        ,-95.332632,32.370446
404,Amarillo Family Physicians CLINIC,Medical Practice,,"1215 S Coulter, Ste 100",Amarillo,,1215 Coulter Street South,79106,35.2017103,-101.9212431,0,160,0,160,(806) 359-4701,,,04/12/2021      ,07:41:25        ,-101.921243,35.20171
405,Market Street St Pharmacy 564,Pharmacy,,700 N Denton Tap Rd,Coppell,Dallas,700 N Denton Tap Rd,75019,32.987961509725,-96.9932004795374,0,0,400,400,(469) 322-6815,https://local.pharmacy.marketstreetunited.com/tx/lubbock/4205-98th-st.html,,04/12/2021      ,16:08:43        ,-96.9932,32.987962
406,Kroger Pharmacy 589,Pharmacy,,4650 W University Dr,Prosper,Collin,4650 W University Dr,75078,33.2191206529829,-96.8772940136852,36,0,0,36,(972) 346-5244,http://www.kroger.com/stores/details/035/00589?cid=loc_03500589PP_gmb,,04/07/2021      ,08:05:00        ,-96.877294,33.219121
407,United Pharmacy 505,Pharmacy,,401 Slide Rd,Lubbock,Lubbock,401 Slide Rd,79416,33.591700314354,-101.922404701785,0,0,300,300,(806) 796-1895,https://local.pharmacy.unitedsupermarkets.com/tx/lubbock/401-slide-rd.html,,04/12/2021      ,10:31:49        ,-101.922405,33.5917
408,United Pharmacy 677,Pharmacy,,1350 E 8th St,Odessa,Ector,1350 E 8th St,79761,31.8587674814548,-102.355946657414,46,0,400,446,,,,04/12/2021      ,13:46:32        ,-102.355947,31.858767
409,Kroger Pharmacy 573,Pharmacy,,1250 N Preston Road,Prosper,Collin,1250 N Preston Road,75078,33.2498681979486,-96.784771213673,84,0,0,84,(972) 346-5210,http://www.kroger.com/stores/details/035/00573?cid=loc_03500573PP_gmb,,04/07/2021      ,08:05:00        ,-96.784771,33.249868
410,Kroger Pharmacy 851,Pharmacy,,2210 S Fielder Rd,Arlington,Tarrant,2210 S Fielder Rd,76013,32.7078450111243,-97.1320074783325,198,0,100,298,(817) 277-3533,http://www.kroger.com/stores/details/026/00851?cid=loc_02600851PP_gmb,,04/07/2021      ,08:05:00        ,-97.132007,32.707845
411,Kroger Pharmacy 128,Pharmacy,,,HOUSTON,,14221 E SAM HOUSTON PKWY N ,77044,29.9246834608474,-95.2040293885192,72,0,0,72,,,,03/15/2021      ,08:05:00        ,-95.204029,29.924683
412,Kroger Pharmacy 445,Pharmacy,,5330 S Cooper St,Arlington,Tarrant,5330 S Cooper St,76017,32.6607374579929,-97.1344508869272,138,0,0,138,(817) 472-9576,http://www.kroger.com/stores/details/035/00445?cid=loc_03500445PP_gmb,,04/07/2021      ,08:05:00        ,-97.134451,32.660737
413,Kroger Pharmacy 538,Pharmacy,,2350 Se Green Oaks Blvd,Arlington,Tarrant,2350 Se Green Oaks Blvd,76018,32.6603115315828,-97.0664221034694,120,0,0,120,(817) 419-0312,http://www.kroger.com/stores/details/035/00538?cid=loc_03500538PP_gmb,,04/07/2021      ,08:05:00        ,-97.066422,32.660312
