OBJECTID,NAME,TYPE,TSA,STREET,CITY,COUNTY,ADDRESS,ZIP,LATITUDE,LONGITUDE,PFIZER_AVAILABLE,PFIZER_AVAILABLE2,MODERNA_AVAILABLE,MODERNA_AVAILABLE2,VACCINES_AVAILABLE,VACCINES_AVAILABLE2,Total_Available,Total_Shipped,PublicPhone,WEBSITE,RemoveRecord,LAST_UPDATE_VAC,LAST_UPDATE_TIME_VAC,x,y
1,Lone Star Circle Of Care Ben White,Other,,,Austin,Travis,1221 W Ben White Blvd B100,78704,30.22374,-97.76396,0,0,0,0,0,0,0,100,(877) 800-5722,www.lonestarcares.org,,01/29/2021      ,06:24:51        ,-97.76396,30.22374
2,North Blanco County Ems,Other,,105 Bill Watson Dr,Johnson City,Blanco,105 Bill Watson Dr,78636,30.2714954038486,-98.3975421722968,0,0,0,0,0,0,0,300,(830) 868-7834,http://www.northblancocountyems.org/,,01/28/2021      ,17:11:02        ,-98.397542,30.271495
3,THE WOMAN'S HOSPITAL OF TEXAS*,Hospital,Q,7600 Fannin St, Houston,Harris,"7600 Fannin St, Houston, TX, 77054",77054,29.692916,-95.401129,0,0,500,0,500,0,500,0,(713) 790-1234,,,01/28/2021      ,08:01:21        ,-95.401129,29.692916
4,The University of Texas at El Paso,Other,,500 W University Ave,El Paso,El Paso,"500 West University Avenue, El Paso, TX, USA",79968,31.7678712,-106.5058212,0,0,0,0,0,0,0,1950,,,,01/28/2021      ,19:34:58        ,-106.505821,31.767871
5,CHRISTUS GOOD SHEPHERD - LONGVIEW,Vaccine Hub,G,700 E Marshall Ave, Longview,Gregg,"700 E Marshall Ave, Longview, TX, 75601",75601,32.501452,-94.73146,865,975,80,200,945,1175,2120,8600,877-335-5746,https://www.christushealth.org/vaccine,,01/28/2021      ,16:17:54        ,-94.73146,32.501452
6,DALLAS MEDICAL CENTER,Hospital,E,7 Medical Pkwy, Farmers Branch,Dallas,"7 Medical Pkwy, Farmers Branch, TX, 75234",75234,32.915203,-96.872744,0,0,407,0,407,0,407,800,(972) 888-7000,,,01/28/2021      ,09:40:44        ,-96.872744,32.915203
7,Legacy Community Health Services,Medical Practice,,4301 Garth Rd,Baytown,Harris,4301 Garth Rd,77521,29.7686417754447,-94.9776098289514,0,0,0,0,0,0,0,100,(713) 666-6700,https://www.legacycommunityhealth.org/,,01/28/2021      ,19:03:02        ,-94.97761,29.768642
8,UT HEALTH - PITTSBURG,Hospital,G,2701  US Highway 271 North,Pittsburg,Camp,"2701  US Highway 271 North, Pittsburg, TX, 75686",75686,33.016008,-94.965949,0,0,0,0,0,0,0,100,(903) 946-5000,,,01/26/2021      ,09:30:52        ,-94.965949,33.016008
9,TEXAS SCOTTISH RITE HOSPITAL,Hospital,E,2222 Welborn St,Dallas,Dallas,2222 Welborn St,75219,32.8019906733194,-96.8148304786602,0,168,0,200,0,368,368,2350,(214) 559-5000,https://scottishriteforchildren.org/,,01/28/2021      ,08:06:47        ,-96.81483,32.801991
10,United Pharmacy 578,Pharmacy,,505 S Access Rd W,Clyde,Callahan,505 S Access Rd W,79510,32.4137971069005,-99.5025473226955,0,0,50,180,50,180,230,500,(325) 893-4297,https://local.pharmacy.unitedsupermarkets.com/tx/clyde/521-s-access-rd-w.html,,01/28/2021      ,09:07:54        ,-99.502547,32.413797
11,TMC Bonham Hospital,Vaccine Hub,E,504 Lipscomb St,Bonham,Fannin,504 Lipscomb St,75418,33.5783374056146,-96.1673962066452,0,0,0,403,0,403,403,2950,(903) 583-8585,https://tmcbonham.com/,,01/28/2021      ,07:48:21        ,-96.167396,33.578337
12,United Pharmacy 574,Pharmacy,,2160 Pine St,Abilene,Taylor,2160 Pine St,79601,32.4738280160696,-99.7311574498804,0,0,0,0,0,0,0,100,(325) 673-4737,https://local.pharmacy.unitedsupermarkets.com/tx/abilene/2160-pine-st.html,,01/28/2021      ,10:21:15        ,-99.731157,32.473828
13,United Pharmacy 555,Pharmacy,,12815 Indiana Ave,Lubbock,Lubbock,12815 Indiana Ave,79423,33.4771028084108,-101.887590299308,0,0,0,330,0,330,330,800,(806) 776-8915,https://local.pharmacy.unitedsupermarkets.com/tx/lubbock/12815-indiana-ave.html,,01/28/2021      ,08:19:21        ,-101.88759,33.477103
14,United pharmacy 554,Pharmacy,,300 E Commerce St,Brownwood,Brown,"300 East Commerce Street, Brownwood, TX, USA",76801,31.7310461,-98.9764242,0,0,0,0,0,0,0,100,,,,01/28/2021      ,08:58:52        ,-98.976424,31.731046
15,United Pharmacy 552,Pharmacy,,6313 4th Street,Lubbock,Lubbock,6313 4th Street,79416,33.5922824794387,-101.955498970093,0,0,0,0,0,0,0,100,(806) 784-1515,https://local.pharmacy.unitedsupermarkets.com/tx/lubbock/6313-4th-st.html,,01/28/2021      ,12:17:57        ,-101.955499,33.592282
16,United Pharmacy 551,Pharmacy,,8010 Frankford Ave,Lubbock,Lubbock,8010 Frankford Ave,79424,33.520578776263,-101.939719953547,0,0,0,0,0,0,0,100,(806) 783-0241,,,01/28/2021      ,10:25:16        ,-101.93972,33.520579
17,THOP - TRANSMOUNTAIN CAMPUS,Hospital,I,2000 Transmountain Road,El Paso,El Paso,2000 Transmountain Road,79911,31.9066336883818,-106.564680407226,0,0,0,280,0,280,280,800,(915) 877-8136,https://www.thehospitalsofprovidence.com/locations/detail/transmountain-campus/?utm_campaign=gmb_listings_mgmt&utm_source=gmb-thop-transmountain-campus&utm_medium=google-local,,01/22/2021      ,13:52:34        ,-106.56468,31.906634
18,United Pharmacy 550,Pharmacy,,104 W 9th St,Muleshoe,Bailey,104 W 9th St,79347,34.2311645876202,-102.732154394011,0,0,0,0,0,0,0,100,,,,01/27/2021      ,18:31:36        ,-102.732154,34.231165
19,United Pharmacy 549,Pharmacy,,3500 College Ave,Snyder,Scurry,3500 College Ave,79549,32.7067800065068,-100.919112433176,0,0,0,10,0,10,10,100,(325) 574-1683,https://local.pharmacy.unitedsupermarkets.com/tx/snyder/3500-college-ave.html,,01/27/2021      ,18:15:21        ,-100.919112,32.70678
20,United Pharmacy 548,Pharmacy,,3301 South 14th Street,Abilene,Taylor,3301 South 14th Street,79605,32.432975,-99.77096,0,0,140,140,140,140,280,700,25288219,,,01/28/2021      ,08:16:15        ,-99.77096,32.432975
21,United pharmacy 547,Pharmacy,,920 N Willis St,Abilene,Taylor,"920 North Willis Street, Abilene, TX, USA",79603,32.4601449,-99.7652547,0,0,0,0,0,0,0,200,(325) 677-1362,https://local.pharmacy.unitedsupermarkets.com/tx/abilene/920-n-willis-st.html,,01/28/2021      ,17:10:56        ,-99.765255,32.460145
22,United Pharmacy 539,Pharmacy,,1414 West Wilson,Borger,Hutchinson,1414 West Wilson,79007,35.6583760565421,-101.410498154075,0,0,0,40,0,40,40,400,,,,01/28/2021      ,08:51:21        ,-101.410498,35.658376
23,United pharmacy 537,Pharmacy,,2703 82nd St,Lubbock,Lubbock,"2703 82nd Street, Unit A",79423,33.5194622,-101.8755835,0,0,0,0,0,0,0,100,(806) 745-3907,,,01/24/2021      ,17:31:41        ,-101.875583,33.519462
24,TEXAS ORTHOPEDIC HOSPITAL ,Pharmacy,Q,7401 South Main St,Houston,Harris,7401 South Main St,77030,29.700667597214,-95.4094262120357,0,0,0,0,0,0,0,600,(713) 799-8600,http://texasorthopedic.com/?utm_campaign=corp_listings_mgmt&utm_source=google&utm_medium=business_listing,,01/28/2021      ,05:52:16        ,-95.409426,29.700668
25,TEXAS NEUROREHAB CENTER,Hospital,O,1106 W Dittmar Rd,Austin,Travis,"11106 W Dittmar, austin, TX, 78745",78745,30.18937,-97.808171,0,0,0,0,0,0,0,100,(512) 444-4835,https://texasneurorehab.com/,,01/28/2021      ,12:40:38        ,-97.808171,30.18937
26,United Pharmacy 534,Pharmacy,,1601 Tennessee Ave,Dalhart,Dallam,1601 Tennessee Ave,79022,36.050406008051,-102.513532555901,0,0,0,0,0,0,0,400,(806) 249-4772,https://local.pharmacy.unitedsupermarkets.com/tx/dalhart/1601-tennessee-ave.html,,01/28/2021      ,12:18:35        ,-102.513533,36.050406
27,United Pharmacy 533,Pharmacy,,3400 River Rd,Amarillo,Potter,3400 River Rd,79107,35.248210013494,-101.831332557756,0,0,0,50,0,50,50,200,(806) 383-3345,https://local.pharmacy.unitedsupermarkets.com/tx/amarillo/3400-river-rd.html,,01/28/2021      ,19:18:41        ,-101.831333,35.24821
28,United Pharmacy 532,Pharmacy,,201 N 23rd St,Canyon,Randall,201 N 23rd St,79015,34.9845165549705,-101.919301553592,0,0,0,330,0,330,330,800,(806) 655-5757,https://local.pharmacy.unitedsupermarkets.com/tx/canyon/201-n-23rd-st.html,,01/28/2021      ,09:18:45        ,-101.919302,34.984517
29,United Pharmacy 530,Pharmacy,,3553 South Soncy,Amarillo,Randall,3553 South Soncy,79119,35.1715919281449,-101.938098308768,0,0,0,0,0,0,0,100,(806) 467-6815,https://local.pharmacy.unitedsupermarkets.com/tx/amarillo/3552-s-soncy-rd.html,,01/27/2021      ,09:19:46        ,-101.938098,35.171592
30,United Pharmacy 529,Pharmacy,,5807 Sw 45th Ave Ste 100,Amarillo,Randall,5807 Sw 45th Ave Ste 100,79109,35.1614999684316,-101.900361787355,0,0,0,340,0,340,340,1600,(806) 353-7201,https://local.pharmacy.unitedsupermarkets.com/tx/amarillo/5807-sw-45th-ave.html,,01/28/2021      ,07:22:08        ,-101.900362,35.1615
31,United pharmacy 528,Pharmacy,,1420 N Hobart St,Pampa,Gray,"1420 North Hobart Street, Pampa, TX, USA",79065,35.5501299,-100.971949,0,0,0,0,0,0,0,100,,,,01/28/2021      ,10:31:05        ,-100.971949,35.55013
32,United Pharmacy 527,Pharmacy,,1501 E Amarillo Blvd,Amarillo,Potter,1501 E Amarillo Blvd,79107,35.2219775064021,-101.815481037747,0,0,0,0,0,0,0,100,,,,01/28/2021      ,10:11:25        ,-101.815481,35.221978
33,United Pharmacy 526,Pharmacy,,2530 S Georgia St,Amarillo,Randall,2530 S Georgia St,79109,35.1862589899387,-101.866267492001,0,0,0,140,0,140,140,400,(806) 468-9911,https://local.pharmacy.marketstreetunited.com/tx/amarillo/2530-s-georgia-st.html,,01/28/2021      ,09:55:17        ,-101.866267,35.186259
34,United Pharmacy 525,Pharmacy,,2802 Hwy 83 South,Perryton,Ochiltree,2802 Hwy 83 South,79070,36.3337421895735,-100.802513337756,0,0,30,0,30,0,30,200,(806) 435-7160,https://local.pharmacy.unitedsupermarkets.com/tx/perryton/2806-s-main-st.html,,01/28/2021      ,10:22:52        ,-100.802513,36.333742
35,United Pharmacy 523,Pharmacy,,5601 W Amarillo Blvd,Amarillo,Potter,5601 W Amarillo Blvd,79106,35.2150644898484,-101.901045265561,0,0,0,0,0,0,0,600,(806) 352-6650,https://local.pharmacy.unitedsupermarkets.com/tx/amarillo/5601-amarillo-blvd-w.html,,01/28/2021      ,17:56:53        ,-101.901045,35.215064
36,United Pharmacy 522,Pharmacy,,4701 S Washington St,Amarillo,Randall,4701 S Washington St,79110,35.1618298074053,-101.848498024907,0,0,0,0,0,0,0,200,,,,01/27/2021      ,12:02:49        ,-101.848498,35.16183
37,United pharmacy 521,Pharmacy,,2522 Old Iowa Park Rd,Wichita Falls,Wichita,"2522 Old Iowa Park Road, Wichita Falls, TX, USA",76306,33.9289141,-98.5177807,0,0,0,0,0,0,0,100,(940) 322-1114,https://local.pharmacy.unitedsupermarkets.com/tx/wichita-falls/2522-iowa-park-rd.html,,01/26/2021      ,19:01:49        ,-98.517781,33.928914
38,United Pharmacy 520,Pharmacy,,1229 State Highway 16 S,Graham,Young,1229 State Highway 16 S,76450,33.0932039316247,-98.5891808097199,0,0,0,0,0,0,0,100,,,,01/28/2021      ,09:13:10        ,-98.589181,33.093204
39,United Pharmacy 518,Pharmacy,,2105 Avenue F Nw,Childress,Childress,2105 Avenue F Nw,79201,34.4349752200928,-100.227431915807,0,0,0,0,0,0,0,100,,,,01/28/2021      ,15:24:09        ,-100.227432,34.434975
40,Dept of Public Health -  Cherokee County / Jacksonville,Local Health Department,,803 College Ave,Jacksonville,Cherokee,803 College Ave,75766,31.9555132527414,-95.2765871756022,0,0,0,0,0,0,0,400,(770) 928-0133,https://www.nghd.org/locations/health-depts/cherokee-health.html,,01/28/2021      ,17:51:28        ,-95.276587,31.955513
41,United Pharmacy 516,Pharmacy,,4516 Old Jacksboro Hwy,Wichita Falls,Wichita,4516 Old Jacksboro Hwy,76302,33.8650860189763,-98.4944974903459,0,0,0,0,0,0,0,100,,,,01/28/2021      ,18:56:21        ,-98.494497,33.865086
42,United Pharmacy 515,Pharmacy,,311 South Ave D,Burkburnett,Wichita,311 South Ave D,76354,34.0902479943308,-98.5704449930091,0,0,0,0,0,0,0,100,(940) 569-3319,https://local.pharmacy.unitedsupermarkets.com/tx/burkburnett/311-s-ave-d.html,,01/20/2021      ,14:52:16        ,-98.570445,34.090248
43,United Pharmacy 514,Pharmacy,,1000 W 11th St,Quanah,Hardeman,1000 W 11th St,79252,34.2917297377974,-99.7523159030409,0,0,0,0,0,0,0,200,,,,01/28/2021      ,10:47:41        ,-99.752316,34.29173
44,United Pharmacy 513,Pharmacy,,3000 Wilbarger St,Vernon,Wilbarger,3000 Wilbarger St,76384,34.1526492949133,-99.2976499353955,0,0,0,100,0,100,100,200,,,,01/28/2021      ,12:24:12        ,-99.29765,34.152649
45,United Pharmacy 505,Pharmacy,,401 Slide Rd,Lubbock,Lubbock,401 Slide Rd,79416,33.591700314354,-101.922404701785,0,0,0,160,0,160,160,400,(806) 796-1895,https://local.pharmacy.unitedsupermarkets.com/tx/lubbock/401-slide-rd.html,,01/28/2021      ,15:25:10        ,-101.922405,33.5917
46,UNITED PHARMACY 509,Pharmacy,,,,,"511 College Ave  Levelland, Texas 79336",,33.5888115,-102.36679,0,0,0,0,0,0,0,100,,,,01/27/2021      ,10:49:06        ,-102.36679,33.588812
47,United Pharmacy 506,Pharmacy,,1701 50th St,Lubbock,Lubbock,1701 50th St,79412,33.5487334213912,-101.855480904624,0,0,0,240,0,240,240,600,(806) 744-2879,https://local.unitedsupermarkets.com/tx/lubbock/1701-50th-st.html,,01/28/2021      ,10:37:04        ,-101.855481,33.548733
48,United pharmacy 501,Pharmacy,,2523 48th Street,Lubbock,Lubbock,2523 48th Street,79413,33.550615074835,-101.872081012406,0,0,0,200,0,200,200,200,(877) 258-4825,https://www.vitalant.org/,,01/28/2021      ,09:38:53        ,-101.872081,33.550615
49,Texas Health Resources - HUGULEY HOSP - BURLESON,Vaccine Hub,E,11801 South Freeway,Burleson,Tarrant,"11801 South Freeway, Burleson, TX, 76028",76028,32.58651,-97.31905,1139,3250,120,200,1259,3450,4709,8500,817-248-6299 Option 7,www.tarrantcounty.com/COVIDshot,,01/28/2021      ,20:03:03        ,-97.31905,32.58651
50,United Market St Pharmacy 562,Pharmacy,,11999 Dallas Pkwy,Frisco,Denton,11999 Dallas Pkwy,75033,33.1769769886401,-96.8431309689037,0,0,0,0,0,0,0,1100,(214) 872-1515,https://local.pharmacy.marketstreetunited.com/tx/frisco/11999-dallas-pkwy.html,,01/28/2021      ,21:02:38        ,-96.843131,33.176977
51,MEDICAL CITY - WEATHERFORD,Hospital,E,713 E Anderson St,Weatherford,Parker,713 E Anderson St,76086,32.7474974481147,-97.7857886337609,0,0,0,480,0,480,480,1400,(682) 582-1000,https://medicalcityhealthcare.com/locations/medical-city-weatherford/?utm_campaign=corp_listings_mgmt&utm_source=google&utm_medium=business_listing,,01/28/2021      ,11:25:50        ,-97.785789,32.747497
52,University Of Texas Medical Branch Hospital,Vaccine Hub,R,301 University Blvd,Galveston,Galveston,301 University Blvd,77555,29.3108899888168,-94.7787080308323,700,3165,20,0,720,3165,3885,24025,800-917-8906,https://www.utmb.edu/covid-19/vaccine/patient-info,,01/17/2021      ,21:47:19        ,-94.778708,29.31089
53,CARROLLTON REGIONAL MEDICAL CENTER,Hospital,E,4343 Josey Ln , Carrollton,Denton,"4343 Josey Ln , Carrollton, TX, 75010",75010,33.028685,-96.885564,0,0,66,0,66,0,66,200,(972) 492-1010,https://www.crmc.health/,,01/26/2021      ,14:39:21        ,-96.885564,33.028685
54,MOORE COUNTY HOSPITAL DISTRICT,Hospital,A,224 E 2nd St, Dumas,Moore,"224 E 2nd St, Dumas, TX, 79029",79029,35.86417,-101.971831,0,0,0,300,0,300,300,600,(806) 935-7171,http://www.mchd.net/,,01/27/2021      ,08:59:40        ,-101.971831,35.86417
55,CHI ST LUKE'S HEALTH LAKESIDE HOSPITAL,Vaccine Hub,Q,17400 St Lukes Way,Conroe,Montgomery,17400 St Lukes Way,77384,30.2026862713771,-95.4593714576756,0,0,0,460,0,460,460,1000,(936) 266-9000,https://www.stlukeshealth.org/locations/lakeside-hospital?utm_source=LocalSearch&utm_medium=Facility&utm_campaign=CHITexas&utm_term=CHIStLukesHealthLakesideHospital&y_source=1_MTUxNjI2MTktNzE1LWxvY2F0aW9uLndlYnNpdGU%3D,,01/28/2021      ,06:45:15        ,-95.459371,30.202686
56,St Johns Physician Assoc,Medical Practice,Q,9180 Bellaire Blvd,Houston,Harris,9180 Bellaire Blvd,77036,29.7050597563879,-95.5446919405575,0,0,0,0,0,0,0,100,(918) 403-7200,https://www.stjohnhealthsystem.com/find-a-physician,,01/28/2021      ,19:43:22        ,-95.544692,29.70506
57,Promptu Immediate Care Saratoga,Medical Practice,,5638 Saratoga Blvd,Corpus Christi,Nueces,5638 Saratoga Blvd,78414,27.6843393909208,-97.3812365799123,0,0,0,0,0,0,0,100,(361) 444-5280,http://promptucare.com/,,01/28/2021      ,09:10:42        ,-97.381237,27.684339
58,MEDICAL CITY - PLANO,Hospital,E,3901 W 15th St,Plano,Collin,3901 W 15th St,75075,33.0192901720384,-96.766292805209,282,282,30,30,312,312,624,6350,(972) 596-6800,https://medicalcityhealthcare.com/locations/medical-city-plano/?utm_campaign=corp_listings_mgmt&utm_source=google&utm_medium=business_listing,,01/25/2021      ,20:50:38        ,-96.766293,33.01929
59,M And M Adult Clinic,Medical Practice,,4365 S Expressway 7783,Brownsville,Cameron,4365 S Expressway 7783,78520,25.9692784519722,-97.514114974772,0,0,0,0,0,0,0,100,(956) 350-4903,,,01/21/2021      ,14:57:27        ,-97.514115,25.969278
60,MEDICAL CITY - MCKINNEY,Hospital,E,4500 Medical Center Dr,Mckinney,Collin,4500 Medical Center Dr,75069,33.1584739792899,-96.6395440123228,0,0,0,412,0,412,412,2950,(972) 547-8000,https://medicalcityhealthcare.com/locations/medical-city-mckinney/?utm_campaign=corp_listings_mgmt&utm_source=google&utm_medium=business_listing,,01/28/2021      ,21:10:30        ,-96.639544,33.158474
61,Trinity Clinic Mineola,Community Clinic,,1302 N Pacific St,Mineola,Wood,1302 N Pacific St,75773,32.6785643411235,-95.4843280722779,0,0,0,100,0,100,100,300,(903) 569-5383,https://www.christushealth.org/trinity/clinic/locations-directions/mineola?utm_source=organic&utm_medium=GMB&utm_campaign=website&y_source=1_MTE3ODEyMDUtNzE1LWxvY2F0aW9uLmdvb2dsZV93ZWJzaXRlX292ZXJyaWRl,,01/28/2021      ,12:53:47        ,-95.484328,32.678564
62,Communicare Health Centers West,Medical Practice,,1102 Barclay St,San Antonio,Texas,1102 Barclay St,78207,29.40984,-98.54249,0,0,0,0,0,0,0,100,210-431-6142,,,01/15/2021      ,10:07:53        ,-98.54249,29.40984
63,MEDICAL CITY - NORTH HILLS,Hospital,E,4401 Booth Calloway Rd,North Richland Hills,Tarrant,4401 Booth Calloway Rd,76180,32.8291839979725,-97.2122374629662,0,0,340,1026,340,1026,1366,2400,(817) 255-1000,https://medicalcityhealthcare.com/locations/medical-city-north-hills/?utm_campaign=corp_listings_mgmt&utm_source=google&utm_medium=business_listing,,01/28/2021      ,08:34:53        ,-97.212237,32.829184
64,Ambulatory Strategies Physician Group,Other,,4046 Dowlen Road,Beaumont,Jefferson,4046 Dowlen Road,77706,30.1186610822416,-94.1676702964966,0,0,0,500,0,500,500,1000,,,,01/27/2021      ,08:38:08        ,-94.16767,30.118661
65,SE Texas ER and Hospital,Hospital,Q,19211 Mckay Dr,Humble,Harris,19211 Mckay Dr,77338,29.9983538640656,-95.2756527975555,0,0,0,0,0,0,0,300,(281) 883-5500,https://setexaser.com/,,01/28/2021      ,09:42:37        ,-95.275653,29.998354
66,SHANNON MEDICAL CENTER,Hospital,K,120 E Harris Ave,San Angelo,Tom Green,"120 E Harris Ave, San Angelo, TX, 76903",76903,31.464474,-100.435134,0,0,0,0,0,0,0,400,(325) 653-6741,http://www.shannonhealth.com/,,,,-100.435134,31.464474
67,Market Street Pharmacy 563,Pharmacy,,985 W Bethany Dr,Allen,Collin,985 W Bethany Dr,75013,33.0908124908295,-96.6846610310882,0,0,0,0,0,0,0,100,(972) 908-3840,https://local.pharmacy.marketstreetunited.com/tx/allen/985-w-bethany-dr.html,,01/28/2021      ,09:22:25        ,-96.684661,33.090812
68,Dept of State Health Services - HSR 6/5S - Houston,Local Health Department,,5425 Polk St,Houston,Harris,"5425 Polk Street, Houston, TX, USA",77023,29.7337646,-95.3184534,0,0,0,0,0,0,0,600,,,,01/28/2021      ,17:05:18        ,-95.318453,29.733765
69,MEDICAL CITY - FORT WORTH,Hospital,E,900 8th Ave,Fort Worth,Tarrant,900 8th Ave,76104,32.7359419887587,-97.3437375376674,0,0,0,510,0,510,510,1800,(817) 336-2100,https://medicalcityhealthcare.com/locations/medical-city-fort-worth/?utm_campaign=corp_listings_mgmt&utm_source=google&utm_medium=business_listing,,01/28/2021      ,12:55:07        ,-97.343738,32.735942
70,MEDICAL CITY - DENTON,Pharmacy,E,3535 South I35 East,Denton,Denton,3535 South I35 East,76210,33.1785120084782,-97.0922299833466,0,0,0,1010,0,1010,1010,3000,(940) 384-3535,https://medicalcityhealthcare.com/locations/medical-city-denton/?utm_campaign=corp_listings_mgmt&utm_source=google&utm_medium=business_listing,,01/28/2021      ,16:34:35        ,-97.09223,33.178512
71,Market Street St Pharmacy 564,Pharmacy,,700 N Denton Tap Rd,Coppell,Dallas,700 N Denton Tap Rd,75019,32.987961509725,-96.9932004795374,0,0,0,0,0,0,0,100,(469) 322-6815,https://local.pharmacy.marketstreetunited.com/tx/lubbock/4205-98th-st.html,,01/28/2021      ,10:15:41        ,-96.9932,32.987962
72,Market Street Pharmacy 679,Pharmacy,,4450 Buffalo Gap Rd,Abilene,Taylor,4450 Buffalo Gap Rd,79606,32.3957580478845,-99.7618102374312,0,0,0,0,0,0,0,100,(325) 695-4690,https://local.pharmacy.marketstreetunited.com/tx/abilene/4450-buffalo-gap-rd.html,,01/25/2021      ,13:27:18        ,-99.76181,32.395758
73,Market Street Pharmacy 685,Pharmacy,,4268 Legacy Dr,Frisco,Collin,4268 Legacy Dr,75034,33.1143067558829,-96.8394553367228,0,0,0,0,0,0,0,100,(214) 705-0362,https://local.pharmacy.marketstreetunited.com/tx/frisco/4268-legacy-dr.html,,01/28/2021      ,11:48:00        ,-96.839455,33.114307
74,Gateway Hlth Comm Ctr Inc,Community Clinic,,2007 South Zapata Hwy,Laredo,Webb,2007 South Zapata Hwy,78046,27.4793812502102,-99.4735740986765,0,0,0,0,0,0,0,100,(956) 523-3670,http://gatewaychc.com/,,01/28/2021      ,11:48:27        ,-99.473574,27.479381
75,Dept of Public Health - Tarrant County,Vaccine Hub,,1101 S Main St Ste 1350,Fort Worth,Tarrant,1101 S Main St Suite. 1350,76104,32.730265,-97.32002,0,2925,0,6700,0,9625,9625,73250,817-248-6299 Option 7,www.tarrantcounty.com/COVIDshot,,01/28/2021      ,07:54:16        ,-97.32002,32.730265
76,"ATASCOSA HEALTH CENTER, INC",Medical Practice,,310 West Oaklawn Pleasanton Texas,PLEASANTON,,310 WEST OAKLAWN RD 310 WEST OAKLAWN RD,78064,28.95714748,-98.48698999,0,0,0,0,0,0,0,100,(830) 569-2527,,,01/28/2021      ,08:09:30        ,-98.48699,28.957147
77,Market Street Pharmacy 675,Pharmacy,,4950 E 42nd St,Odessa,Ector,4950 E 42nd St,79762,31.8933441731579,-102.334782435715,0,0,0,0,0,0,0,100,(432) 367-4612,https://local.pharmacy.marketstreetunited.com/tx/odessa/4950-e-42nd-st.html,,01/28/2021      ,10:38:40        ,-102.334782,31.893344
78,Fort Davis Family Practice,Medical Practice,,1 Memorial Sq,Fort Davis,Jeff Davis,"1 Memorial Sq, Fort Davis, TX 79734",79734,30.5885,-103.89396,0,0,0,0,0,0,0,200,(432) 426-3217,https://fortdavis.com/listing/fort-davis-family-practice/,,01/28/2021      ,16:58:00        ,-103.89396,30.5885
79,Market Street Pharmacy 561,Pharmacy,,6100 Eldorado Pkwy,Mckinney,Collin,6100 Eldorado Pkwy,75070,33.1741615492733,-96.6961189250909,0,0,0,0,0,0,0,100,(214) 872-1515,https://local.pharmacy.marketstreetunited.com/tx/frisco/11999-dallas-pkwy.html,,01/28/2021      ,16:04:07        ,-96.696119,33.174162
80,Market Street Pharmacy 560,Pharmacy,,5605 Colleyville Blvd,Colleyville,Tarrant,5605 Colleyville Blvd,76034,32.8896660091773,-97.1468919781721,0,0,0,0,0,0,0,100,(817) 577-5030,https://local.pharmacy.marketstreetunited.com/tx/colleyville/5605-colleyville-blvd.html,,01/28/2021      ,19:55:14        ,-97.146892,32.889666
81,Gateway Community Health Center Inc. - Hebbronville,Community Clinic,,State Hwy 285,Hebbronville,Texas,473 State Highway 285,78361,27.29979,-98.67406,0,0,0,0,0,0,0,100,3615274053,,,01/28/2021      ,11:30:01        ,-98.67406,27.29979
82,Market Street Pharmacy 553,Pharmacy,,4425 19th St,Lubbock,Lubbock,4425 19th St,79407,33.5777780989079,-101.906857863957,0,0,0,0,0,0,0,1800,(806) 788-2015,https://local.pharmacy.marketstreetunited.com/tx/lubbock/4425-19th-st.html,,01/29/2021      ,05:09:35        ,-101.906858,33.577778
83,Cook Childrens Occupational Health Services,Other,,901 7th Ave Ste 4200,Fort Worth,Tarrant,901 7th Ave Ste 4200,76104,32.730265,-97.32002,0,0,0,0,0,0,0,3900,6828853142,,,,,-97.32002,32.730265
84,Healing Hands Ministries,Medical Practice,,Greenville Ave,Dallas,Dallas,8515 Greenville Ave N-112,75243,32.8939568311415,-96.7532917190127,0,0,0,60,0,60,60,200,214-221-0855,http://healinghandsdallas.org/,,01/28/2021      ,07:20:59        ,-96.753292,32.893957
85,Presidio County Medical Clinic,Community Clinic,,1501 N Erma,Presidio,Presidio,1501 N Erma,79845,29.5753444319771,-104.366889245128,0,0,0,0,0,0,0,100,(432) 229-3030,http://www.pchsmedclinic.org/,,01/28/2021      ,16:52:53        ,-104.366889,29.575344
86,Market Street Pharmacy 543,Pharmacy,,4205 98th St,Lubbock,Lubbock,4205 98th St,79423,33.5044490189775,-101.902729944281,0,0,0,0,0,0,0,100,(806) 788-2015,https://local.pharmacy.marketstreetunited.com/tx/lubbock/4425-19th-st.html,,01/27/2021      ,12:01:22        ,-101.90273,33.504449
87,Market Street Pharmacy 517,Pharmacy,,4590 Kell Blvd,Wichita Falls,Wichita,4590 Kell Blvd,76309,33.87586342817,-98.5592243906852,0,0,0,0,0,0,0,600,(940) 716-2515,https://local.pharmacy.marketstreetunited.com/tx/wichita-falls/4590-kell-blvd.html,,,,-98.559224,33.875863
88,Texas Tech Family Medicine,Other,,1400 S Coulter St # 5100,Amarillo,Potter,1400 S Coulter St # 5100,79106,35.200656,-101.92423,0,0,0,0,0,0,0,1400,(806) 743-1000,,,01/27/2021      ,19:31:22        ,-101.92423,35.200656
89,"Dr. Mario Sanchez, DO",Other,,106 N Main St,La Feria,,"106 N Main St, La Feria, TX 78559",78559,26.1582,-97.82401,0,0,0,0,0,0,0,100,956-797-2002,,,01/28/2021      ,16:49:41        ,-97.82401,26.1582
90,Throckmorton Rural Health Clinic,Community Clinic,,802 N Minter,Throckmorton,Throckmorton,802 N Minter,76483,33.1896790085312,-99.1773124687267,0,0,130,0,130,0,130,300,(940) 849-2471,,,01/28/2021      ,07:46:37        ,-99.177312,33.189679
91,Market Street Pharmacy 502,Pharmacy,,3405 50th St,Lubbock,Lubbock,3405 50th St,79413,33.5487524902206,-101.888187006995,0,0,0,0,0,0,0,100,,https://local.pharmacy.marketstreetunited.com/tx/lubbock/3405-50th-st.html,,01/28/2021      ,12:52:28        ,-101.888187,33.548752
92,Garza County Health Clinic,Medical Practice,,1104 N. Avenue S,Post,Texas,1104 N. Avenue S,79356,33.202634,-101.3900331,0,0,100,0,100,0,100,100,806-495-2853,,,01/28/2021      ,08:18:23        ,-101.390033,33.202634
93,Christus Spohn Medical Group Coastal Bend Family Medicine ,Medical Practice,,5802 Saratoga Blvd,Corpus Christi,Nueces,"5802 Saratoga Boulevard, Corpus Christi, TX, USA",78414,27.6850613,-97.3787261,0,0,0,0,0,0,0,100,,,,,,-97.378726,27.685061
94,LIMESTONE MEDICAL CENTER,Hospital,M,701 McClintic Dr, Groesbeck,Limestone,"701 McClintic Dr, Groesbeck, TX, 76642",76642,31.53188,-96.529655,0,0,0,400,0,400,400,800,(254) 729-3281,http://groesbeckhospital.com/,,01/27/2021      ,15:31:35        ,-96.529655,31.53188
95,Parkland Hospital,Vaccine Hub,E,5223 Tex Oak Avenue,Dallas,Dallas,5223 Tex Oak Avenue,75235,32.8143969796665,-96.8351078950032,13596,2299,1790,3260,15386,5559,20945,59225,(214) 590-8000,https://www.parklandhospital.com/,,01/28/2021      ,09:24:33        ,-96.835108,32.814397
96,METHODIST SPECIALTY AND TRANSPLANT HOSP,Hospital,,8026 Floyd Curl Dr,San Antonio,Bexar,8026 Floyd Curl Dr,78229,29.5128849705278,-98.5772039920915,0,0,0,0,0,0,0,3200,(210) 575-8110,https://sahealth.com/locations/methodist-hospital-specialty-and-transplant/?utm_campaign=corp_listings_mgmt&utm_source=google&utm_medium=business_listing,,01/28/2021      ,22:56:14        ,-98.577204,29.512885
97,Howard County Community Health Center,Community Clinic,,1300 S Gregg St,Big Spring,Howard,1300 S Gregg St,79720,32.242036505332,-101.474236682148,0,0,60,0,60,0,60,100,8068947842,https://www.sprhs.org/,,01/19/2021      ,09:10:49        ,-101.474237,32.242037
98,Dept of Public Health - Tarrant County / Bagsby,Local Health Department,,3212 Miller Ave,Fort Worth,Tarrant,3212 Miller Ave,76119,32.7133384796194,-97.2629872517841,0,0,100,0,100,0,100,100,(817) 531-6722,,,01/28/2021      ,16:24:41        ,-97.262987,32.713338
99,SWISHER MEMORIAL HOSPITAL,Community Clinic,A,539 Se 2nd St,Tulia,Swisher,539 Se 2nd St,79088,34.5356300587467,-101.756016631497,0,0,0,50,0,50,50,200,(806) 995-3581,http://www.swisherhospital.com/,,01/28/2021      ,10:24:31        ,-101.756017,34.53563
100,Dept of Public Health - Tarrant County / Southwest Public Health Center,Local Health Department,,6551 Granbury Rd,Fort Worth,Tarrant,6551 Granbury Rd,76133,32.6529170262043,-97.4072435664416,0,0,100,0,100,0,100,100,(817) 370-4530,https://access.tarrantcounty.com/content/main/en/public-health/public-health-locations/southwest-public-health-center.html,,01/28/2021      ,16:32:07        ,-97.407244,32.652917
101,GOODALL WITCHER HOSPITAL,Hospital,M,101 Posey Avenue, Clifton,Bosque,"101 Posey Avenue, Clifton, TX, 76634",76634,31.776972,-97.589102,0,0,0,0,0,0,0,100,(254) 675-8322,,,01/28/2021      ,09:04:19        ,-97.589102,31.776972
102,Dept of Public Health - Tarrant County / Northwest Public Health Center,Local Health Department,,3800 Adam Grubb,Fort Worth,Tarrant,3800 Adam Grubb,76135,32.8104364960918,-97.435982933777,0,0,100,0,100,0,100,100,(817) 238-4441,,,01/28/2021      ,16:27:04        ,-97.435983,32.810436
103,Su Clinica Women's Health Center- Harlingen,Other,,1706 Treasure Hills Blvd,Harlingen,Cameron,1706 Treasure Hills Blvd,78550,26.171616581301,-97.6679206593892,0,0,0,0,0,0,0,100,,,,01/27/2021      ,17:37:01        ,-97.667921,26.171617
104,Dept of Public Health - Tarrant County / Watauga,Local Health Department,,6601 Watauga Rd,Fort Worth,Tarrant,6601 Watauga Rd,76148,32.8604533583208,-97.2403722429836,0,0,0,0,0,0,0,1800,(817) 321-4740,,,01/28/2021      ,16:28:24        ,-97.240372,32.860453
105,Dept of Public Health - Tarrant County / La Gran Plaza Health Center,Local Health Department,,1101 S Main St,Fort Worth,Tarrant,1101 S Main St,76104,32.732359521432,-97.3258634644214,0,0,100,200,100,200,300,500,(817) 920-5752,http://access.tarrantcounty.com/en/public-health/public-health-locations/lagran-plaza-mall-public-health-center.html,,01/28/2021      ,16:11:59        ,-97.325863,32.73236
106,Wellness Pointe - Mount Pleasant,Medical Practice,,2015 Mulberry Ave Ste 250,Mount Pleasant,Texas,2015 Mulberry Ave Ste 250,75455,33.1758774,-94.973087,0,0,0,0,0,0,0,100,,,,01/28/2021      ,18:14:07        ,-94.973087,33.175877
107,Dept of Public Health - Tarrant County / Southeast Public Health Center,Local Health Department,,536 W Randol Mill Rd,Arlington,Tarrant,536 W Randol Mill Rd,76011,32.750031904074,-97.1124003236282,0,0,0,0,0,0,0,200,(817) 321-4716,http://tarrantcounty.com/,,01/28/2021      ,16:34:29        ,-97.1124,32.750032
108,Frontera Clinicmenard,Other,,119 S Ellis,Menard,Menard,119 S Ellis,76859,30.908626,-99.787372,0,0,0,0,0,0,0,100,,,,01/28/2021      ,16:38:37        ,-99.787372,30.908626
109,Evins Regional Juvenile Center/Utmb,Other,,,Edinburg,Hidalgo,3801 E Monte Cristo,78541,26.3324393,-98.1230482,0,0,0,0,0,0,0,100,,,,,,-98.123048,26.332439
110,Seguin Family Health Center,Community Clinic,,1104 Jefferson Ave,Seguin,Guadalupe,1104 Jefferson Ave,78155,29.5662974750467,-97.9828739995057,0,0,0,0,0,0,0,100,(830) 379-9797,https://www.chcsct.com/,,,,-97.982874,29.566297
111,San Marcos Family Medicine,Medical Practice,,2406 Hunter Rd,San Marcos,Hays,2406 Hunter Rd,78666,29.8594699613097,-97.9673357112182,0,0,0,0,0,0,0,1000,(512) 396-7686,http://www.smfm.net/,,01/28/2021      ,16:32:53        ,-97.967336,29.85947
112,Sheng Kun Yao Md,Medical Practice,,9440 Bellaire Blvd Ste 208,Houston,,9440 Bellaire Blvd Ste 208,77036,29.7050075,-95.54957004,0,0,0,0,0,0,0,100,(713) 779-3355,,,,,-95.54957,29.705008
113,Shannon Pharmacy,Vaccine Hub,,119 E Beauregard Ave,San Angelo,Tom Green,119 E Beauregard Ave,76903,31.463337997656,-100.4340459129,1180,0,10,2600,1190,2600,3790,14950,(325) 655-8191,https://www.shannonhealth.com/services/pharmacy/,,01/28/2021      ,06:38:50        ,-100.434046,31.463338
114,Shubha Llc Dba Auro Pharmacy,Pharmacy,,1139 W Braker Ln,Austin,Travis,1139 W Braker Ln,78758,30.3845520226212,-97.692492184086,0,0,0,0,0,0,0,100,(512) 206-3150,http://www.aurorx.com/,,01/27/2021      ,15:32:55        ,-97.692492,30.384552
115,LILLIAN M. HUDSPETH MEMORIAL HOSPITAL ,Hospital,K,308 Hudspeth St, Sonora,Sutton,"308 Hudspeth St, Sonora, TX, 76950",76950,30.564267,-100.634777,0,0,0,0,0,0,0,100,(325) 387-2521,http://www.sonora-hospital.org/,,,,-100.634777,30.564267
116,Franklin County Rural Health Clinic,Community Clinic,,506 Texas Highway 37,Mount Vernon,Franklin,506 Texas Highway 37,75457,33.1485250331121,-95.2383919356225,0,0,0,0,0,0,0,100,(903) 537-8222,http://www.fcrhc.com/,,01/28/2021      ,08:53:42        ,-95.238392,33.148525
117,UNIVERSITY MEDICAL CENTER OF EL PASO,Vaccine Hub,I,4815 Alameda Ave,El Paso,El Paso,"4815 Alameda Ave, El Paso, TX, 79905",79905,31.768758,-106.43047,0,0,0,0,0,0,0,30475,915-975-8901,http://umcelpaso.org,,01/29/2021      ,04:15:17        ,-106.43047,31.768758
118,Pecos County Memorial Hospital Dba Fami,Community Clinic,J,387 W IH 10,Fort Stockton,Pecos,387 W IH 10,79735,30.9082768285243,-102.87937652067,498,0,0,93,498,93,591,1000,(432) 336-2004,http://www.pcmhfs.com/,,01/28/2021      ,10:04:38        ,-102.879377,30.908277
119,Trinity Clinic Family Practice Henderson,Medical Practice,,105 Zeid Blvd 2,Henderson,Rusk,105 Zeid Blvd 2,75652,32.1666713009962,-94.7800378552444,0,0,0,0,0,0,0,100,(903) 657-7583,https://www.christushealth.org/good-shepherd/locations-and-directions/trinity-clinic-henderson?utm_source=organic&utm_medium=GMB&utm_campaign=website&y_source=1_MTUzNzY1OTktNzE1LWxvY2F0aW9uLmdvb2dsZV93ZWJzaXRlX292ZXJyaWRl,,01/28/2021      ,06:52:48        ,-94.780038,32.166671
120,Sandknop Health Group,Medical Practice,,1005 W Ralph Hall Pkwy Ste 221,Rockwall,Rockwall,1005 W Ralph Hall Pkwy Ste 221,75032,32.8867470114025,-96.4706376177164,0,0,0,500,0,500,500,1000,(972) 771-9000,http://www.sandknophealth.com/,,01/27/2021      ,11:30:47        ,-96.470638,32.886747
121,Dept of State Health Services - Gainesville,Other,,1714 Justice Center Blvd Ste A,Gainesville,Cooke,1714 Justice Center Blvd Ste A,76240,33.64318,-97.1685,0,0,0,0,0,0,0,100,,,,01/28/2021      ,08:27:21        ,-97.1685,33.64318
122,Fort Bend County Health Department,Vaccine Hub,,4520 Reading Rd,Rosenberg,Fort Bend,4520 Reading Rd,77471,29.5652494437827,-95.7799906543363,6581,0,0,1200,6581,1200,7781,14775,832-471-1373,https://fort-bend-covid-19-response-fbc-hhs.hub.arcgis.com/,,01/28/2021      ,07:35:02        ,-95.779991,29.565249
123,PARMER MEDICAL CENTER,Hospital,A,1307 Cleveland Ave,Friona,Parmer,1307 Cleveland Ave,79035,34.643989375161,-102.721153387205,0,0,0,60,0,60,60,400,(806) 250-2781,https://www.parmermedicalcenter.com/frionaruralhealthclinic.html,,01/28/2021      ,11:06:06        ,-102.721153,34.643989
124,Innate Medical Solution,Medical Practice,,749 Nwaldrip,Grand Saline,Van Zandt,749 Nwaldrip,75140,32.6804459307712,-95.7218185053504,0,0,0,0,0,0,0,200,(972) 938-7319,http://www.innatemedicalsolutions.com/,,01/28/2021      ,08:16:49        ,-95.721819,32.680446
125,SAN LUCAS FAMILY HEALTH CLINIC,Medical Practice,,1720 PECAN BLVD,McAllen,hidalgo,1720 Pecan Blvd,78501,26.2189978110693,-98.2357400088737,0,0,0,260,0,260,260,1000,(956) 702-7108,,,01/28/2021      ,08:54:47        ,-98.23574,26.218998
126,Seton Family Of Doctors Stone Hill,Other,,1512 Town Center Dr,Pflugerville,Travis,1512 Town Center Dr,78660,30.4661380315508,-97.5994756061581,0,0,0,0,0,0,0,300,(512) 324-4875,https://healthcare.ascension.org/Locations/Texas/TXAUS/Pflugerville-Seton-Family-of-Doctors-at-Stone-Hill,,01/27/2021      ,08:43:09        ,-97.599476,30.466138
127,Parker County Hospital District,Vaccine Hub,,1130 Pecan Dr,Weatherford,Parker,1130 Pecan Dr,76086,32.7472989091189,-97.7847971857341,1623,0,0,390,1623,390,2013,4700,(817) 341-2520,http://www.pchdtx.org/,,01/28/2021      ,05:33:53        ,-97.784797,32.747299
128,Seymour Hospital Rural Health Clinic,Community Clinic,,201 Stadium Dr,Seymour,Baylor,201 Stadium Dr,76380,33.5900091396598,-99.2478079624697,0,0,0,0,0,0,0,1375,(940) 889-5583,http://seymourhospital.com/,,01/28/2021      ,16:07:33        ,-99.247808,33.590009
129,Frontera Healthcare Networkjunction,Community Clinic,,509 College St,Junction,Kimble,509 College St,76849,30.4883024657556,-99.7658901288015,0,0,0,90,0,90,90,200,(325) 869-5500,https://fronterahcn.org/,,01/28/2021      ,08:11:22        ,-99.76589,30.488302
130,CHRISTUS ST. MICHAEL HOSPITAL,Hospital,F,2600 Saint Michael Dr,Texarkana,Bowie,2600 Saint Michael Dr,75503,33.462346803147,-94.0750877438464,0,633,0,600,0,1233,1233,5100,(903) 614-1000,https://www.christushealth.org/St-Michael?utm_source=organic&utm_medium=GMB&utm_campaign=website&y_source=1_MTUzNzY1OTMtNzE1LWxvY2F0aW9uLmdvb2dsZV93ZWJzaXRlX292ZXJyaWRl,,01/27/2021      ,12:23:24        ,-94.075088,33.462347
131,ResourceCare Albany,Medical Practice,,725 Pate St,Albany,Shackelford,"725 Pate Street, Albany, TX, USA",76430,32.7316832,-99.2883039,0,0,100,0,100,0,100,100,(254) 559-7215,,,01/27/2021      ,14:02:58        ,-99.288304,32.731683
132,ResourceCare Merkel,Medical Practice,,217 Edwards St,Merkel,Taylor,217 Edwards Street,79536,32.4722751,-100.011452,0,0,0,0,0,0,0,100,,,,01/27/2021      ,14:03:54        ,-100.011452,32.472275
133,Frisco Fire Department,Other,,8601 Gary Burns Dr,Frisco,Collin,8601 Gary Burns Dr,75034,33.1495515143275,-96.8090915359402,0,0,0,49,0,49,49,600,(972) 292-6306,http://www.friscofire.com/,,01/28/2021      ,07:26:34        ,-96.809092,33.149552
134,Christus Spohn Quick Care Clinic,Community Clinic,,2606 Hospital Blvd,Corpus Christi,Nueces,"2606 Hospital Boulevard, Suite F",78405,27.7800347,-97.4161098,0,0,0,0,0,0,0,100,(361) 902-6100,,,01/28/2021      ,09:28:36        ,-97.41611,27.780035
135,Teare Memorial Clinic,Medical Practice,,146 N Pioneer,Booker,Lipscomb,146 N Pioneer,79005,36.4601770699411,-100.536487717731,0,0,100,0,100,0,100,100,(806) 658-4531,,,01/28/2021      ,12:48:50        ,-100.536488,36.460177
136,Midland Community Healthcare Services-Midland 1,Community Clinic,,801 E Florida Ave,Midland,Midland,"801 East Florida Avenue, Midland, TX, USA",79701,31.9899071,-102.0649104,0,0,170,0,170,0,170,100,432-685-0450,,,01/28/2021      ,06:25:12        ,-102.06491,31.989907
137,CHRISTUS Spohn Family Health Center-Westside,Community Clinic,,4617 Greenwood Dr,Corpus Christi,Nueces,"4617 Greenwood Drive, Corpus Christi, TX, USA",78416,27.7506949,-97.4372075,0,0,0,0,0,0,0,100,,,,01/29/2021      ,04:17:06        ,-97.437207,27.750695
138,DSHS - Falfurrias,Other,,,Falfurrias,Brooks,1200 E HIGHWAY 285,78355,27.2284812,-98.1593032,0,0,0,0,0,0,0,200,(361) 325-5621,,,01/28/2021      ,16:03:12        ,-98.159303,27.228481
139,CHRISTUS SPOHN CC-SOUTH,Hospital,U,5950 Saratoga Blvd,Corpus Christi,Nueces,5950 Saratoga Blvd,78414,27.6826243278027,-97.3778571641899,0,0,0,300,0,300,300,1600,(361) 985-5000,https://www.christushealth.org/spohn/south?utm_source=organic&utm_medium=GMB&utm_campaign=website&y_source=1_MTUzNzY2MDQtNzE1LWxvY2F0aW9uLmdvb2dsZV93ZWJzaXRlX292ZXJyaWRl,,01/27/2021      ,09:11:11        ,-97.377857,27.682624
140,Uvalde Memorial Hospital,Vaccine Hub,P,1025 Garner Field Rd,Uvalde,Uvalde,1025 Garner Field Rd,78801,29.2150948086987,-99.7685500106039,0,0,0,0,0,0,0,2950,830-407-8022,http://www.umhtx.org/patient/covid-19-update/,,01/28/2021      ,10:42:22        ,-99.76855,29.215095
141,CHILDRESS REGIONAL MEDICAL CENTER,Hospital,A,901 Highway 83 North,Childress,Childress,901 Highway 83 North,79201,34.4390766948644,-100.225760815771,0,0,300,0,300,0,300,600,(940) 937-6371,http://childresshospital.com/,,01/28/2021      ,10:25:01        ,-100.225761,34.439077
142,Amigos Pharmacy 524,Pharmacy,,3300 I40 East,Amarillo,Potter,3300 I40 East,79103,35.1929648058456,-101.798957708198,0,0,0,0,0,0,0,100,(806) 373-8722,https://local.pharmacy.amigosunited.com/tx/amarillo/3300-i-40-e.html,,01/26/2021      ,18:46:02        ,-101.798958,35.192965
143,Trotts Call Field Drug,Pharmacy,,4122 Call Field Rd,Wichita Falls,Wichita,4122 Call Field Rd,76308,33.8718375162558,-98.5500890382333,0,0,0,40,0,40,40,200,(940) 692-1234,http://www.trottsdrug.com/,,01/27/2021      ,15:28:34        ,-98.550089,33.871838
144,Medina Clinic Mission,Other,,1924 E Griffin Pkwy,Mission,Hidalgo,1924 E Griffin Pkwy,78572,26.2252763604426,-98.2921122610829,0,0,0,20,0,20,20,200,(956) 581-5100,http://medina-javier-md.jany.io/,,01/28/2021      ,08:10:22        ,-98.292112,26.225276
145,Hatcher Station Health Center,Other,,4600 Scyene Rd,Dallas,,"4600 Scyene Rd., Dallas, TX 75210",75210,32.770501,-96.750436,0,0,100,100,100,100,200,200,,,,01/27/2021      ,10:42:13        ,-96.750436,32.770501
146,Memorial Hermann Medical Group Katy Occupational Medicine ,Medical Practice,,23920 Katy Fwy Ste 540,Katy,Fort Bend,23920 Katy Fwy Ste 540,77494,29.785977085455,-95.7858438674611,0,0,0,0,0,0,0,100,(281) 644-8750, https://www.memorialhermann.org/locations/occupational-medicine-katy  ,,01/14/2021      ,17:08:22        ,-95.785844,29.785977
147,Clinicas Mi Doctor - Gus Thomasson 14,Medical Practice,,,,,,,32.8349382195743,-96.6759192094653,0,0,100,0,100,0,100,0,(214) 466-7323,http://www.clinicasmidoctor.com/,,01/27/2021      ,10:09:42        ,-96.675919,32.834938
148,Seton Family Of Doctors Family Practice,Medical Practice,,201 University Oaks Ste 1260,Round Rock,Williamson,201 University Oaks Ste 1260,78665,30.5566918386876,-97.6882495161555,0,0,0,0,0,0,0,200,(512) 324-4780,www.healthcare.ascension.org,,01/28/2021      ,13:09:06        ,-97.68825,30.556692
149,St. Davids Surgical Hospital,Hospital,,1201 W Louis Henna Blvd,Round Rock,Williamson,1201 W Louis Henna Blvd,78681,30.4779094087321,-97.6904348459516,0,0,0,90,0,90,90,1100,(512) 248-7000,http://www.stdavids.com/?utm_campaign=corp_listings_mgmt&utm_source=google&utm_medium=business_listing,,01/28/2021      ,16:51:46        ,-97.690435,30.477909
150,Dept of Public Health - Brown County / Brownwood,Local Health Department,,510 E Lee,Brownwood,Brown,510 E Lee,76801,31.7187428016769,-98.97899194573,0,0,0,0,0,0,0,100,(325) 646-0554,https://www.brownwoodtexas.gov/199/Brownwood-Brown-County-Health-Department,,01/28/2021      ,09:55:35        ,-98.978992,31.718743
151,DSHS - Kingsville,Other,,,Kingsville,Kleberg,100 West King Avenue,78363,27.51557,-97.86904,0,0,0,0,0,0,0,100,361-221-3023,,,01/28/2021      ,13:18:45        ,-97.86904,27.51557
152,OAKCLIFF MEDICAL CLINIC,Medical Practice,,1401 W JEFFERSON BLVD,Dallas,Texas,1401 W JEFFERSON BLVD,75208,32.74440428,-96.84417269,0,0,0,0,0,0,0,200,,,,01/19/2021      ,10:19:12        ,-96.844173,32.744404
153,Irma Lerma Rangel College Of Pharmacy - College Station,Pharmacy,,Reynolds Medical Building Suite 159,College Station,Brazos,Reynolds Medical Building Suite 159,77843,30.6114869136336,-96.3523003213796,595,0,0,0,595,0,595,975,(361) 221-0604,https://pharmacy.tamu.edu/,,01/27/2021      ,09:57:31        ,-96.3523,30.611487
154,Warm Springs Rehabilitation Hospital of Victoria,Hospital,,101 James Coleman Dr,Victoria,,"101 James Coleman Dr, Victoria, TX 77904",77904,28.85621,-97.02281,0,0,0,0,0,0,0,100,,,,01/12/2021      ,13:43:12        ,-97.02281,28.85621
155,Orthopaedic Specialists Of Austin,Medical Practice,,4611 Guadalupe St,Austin,Travis,4611 Guadalupe St,78751,30.3134936421706,-97.7312028304353,0,0,0,0,0,0,0,100,(512) 476-2830,http://www.orthoaustin.com/,,01/28/2021      ,12:59:18        ,-97.731203,30.313494
156,Irma Lerma Rangel College of Pharmacy - Kingsville,Pharmacy,,,Kingsville,,1010 W Ave B,78363,27.5269110113199,-97.8817872729918,0,0,100,0,100,0,100,100,(361) 221-0604,https://pharmacy.tamu.edu/,,01/28/2021      ,07:24:04        ,-97.881787,27.526911
157,Fresenius Dickinson Dialysis,Community Clinic,,3800 HUGHES CT,Dickinson,Galveston,3800 HUGHES CT,77539,29.4463523249293,-95.0783562750334,0,0,0,0,0,0,0,975,,,,01/28/2021      ,12:43:20        ,-95.078356,29.446352
158,Community Action Health Center - Beeville,Community Clinic,,301 South Hillside Drive,Beeville,Bee,301 South Hillside Drive Ste 5,78102,28.406623871255,-97.7320905578006,163,0,0,0,163,0,163,1950,,,,01/29/2021      ,05:42:23        ,-97.732091,28.406624
159,Magnolia Pharmacy,Pharmacy,,18230 Fm 1488 Rd Ste 100,Magnolia,Montgomery,18230 Fm 1488 Rd Ste 100,77354,30.2162282732753,-95.7481135776875,0,0,0,0,0,0,0,1000,(281) 356-9089,https://www.mygnp.com/pharmacies/magnolia-pharmacy-magnolia-tx-77354/?utm_source=google&utm_medium=local&utm_campaign=localmaps&utm_content=4525448,,01/29/2021      ,06:19:13        ,-95.748114,30.216228
160,Salinas Pharmacy,Pharmacy,,1022 S F St,Harlingen,Cameron,1022 S F St,78550,26.1825820040808,-97.7021674987405,0,0,0,0,0,0,0,100,(956) 399-5501,,,01/28/2021      ,12:05:49        ,-97.702167,26.182582
161,STEPHENS MEMORIAL HOSPITAL,Hospital,D,200 S Geneva St, Breckenridge,Stephens,"200 S Geneva St, Breckenridge, TX, 76424",76424,32.754707,-98.887727,0,0,0,0,0,0,0,100,(254) 559-2241,http://www.smhtx.com/,,01/29/2021      ,01:50:27        ,-98.887727,32.754707
162,Dept of State Health Services - Arlington,Other,,1301 S Bowen Rd Suite 200,Arlington,Tarrant,"1301 South Bowen Road, Arlington, TX, USA Suite 200",76013,32.7227889,-97.1479693,0,0,0,0,0,0,0,100,,,,01/28/2021      ,07:40:56        ,-97.147969,32.722789
163,AccelHealth Stephenville,Community Clinic,,135 River N Blvd,Stephenville,Erath,"135 River North Boulevard, Stephenville, TX, USA",76401,32.2275781,-98.23168,0,0,90,0,90,0,90,100,,,,01/28/2021      ,07:59:50        ,-98.23168,32.227578
164,FIRST BAPTIST MEDICAL CENTER,Hospital,E,8111 Meadow Road,Dallas,Dallas,8111 Meadow Road,75231,32.8874974850975,-96.7665929611617,0,0,0,80,0,80,80,200,(469) 329-3700,https://www.fbmcdallas.com/,,01/28/2021      ,07:41:41        ,-96.766593,32.887497
165,Park Cities Surgery Center,Other,,6901 Snider Plz,Dallas,Dallas,6901 Snider Plz,75205,32.8496087681733,-96.7879304367994,0,0,0,30,0,30,30,400,(214) 706-6901,http://www.parkcitiessurgery.com/?y_source=1_MTM0MTE1ODgtNzE1LWxvY2F0aW9uLndlYnNpdGU=,,01/28/2021      ,08:49:18        ,-96.78793,32.849609
166,Northwest Texas Hospital Pharmacy,Hospital,,1501 S Coulter St,Amarillo,Potter,1501 S Coulter St,79106,35.1997580869122,-101.921855687127,2114,0,0,0,2114,0,2114,5100,(806) 354-1000,https://www.nwths.com/?utm_source=google-business&utm_medium=organic&utm_campaign=homepage,,01/28/2021      ,16:17:30        ,-101.921856,35.199758
167,Uhs Kenwood Clinic,Community Clinic,,302 Dora,San Antonio,Bexar,302 Dora,78212,29.4743524815301,-98.4960919797868,0,0,0,0,0,0,0,100,(210) 358-8255,http://www.universityhealthsystem.com/locations/kenwood-clinic,,01/22/2021      ,07:54:44        ,-98.496092,29.474352
168,Md Family Clinic,Medical Practice,,9709 Bruton Rd,Dallas,Dallas,9709 Bruton Rd,75217,32.7488075395809,-96.6551520380448,0,0,0,0,0,0,0,1000,(972) 579-7979,http://www.mdfamilyclinic.com/,,01/28/2021      ,17:35:55        ,-96.655152,32.748808
169,The Center For Cancer And Blood Disord,Medical Practice,,800 W Magnolia Ave,Fort Worth,Tarrant,800 W Magnolia Ave,76104,32.730647475799,-97.3328370402254,0,0,0,60,0,60,60,200,(817) 759-7000,https://thecentertx.com/,,01/28/2021      ,12:25:10        ,-97.332837,32.730647
170,Community Clinic At Mcc,Other,,4601 North 19th Street,Waco,McLennan,4601 North 19th Street,76708,31.5877849692987,-97.1796889371292,0,0,0,0,0,0,0,100,,,,01/25/2021      ,08:28:42        ,-97.179689,31.587785
171,Community Clinic At Santa Fe,Community Clinic,L,600 S 25th St, Temple,Bell,"600 S 25th St, Temple, TX, 76504",76504,31.094264,-97.356444,0,0,0,0,0,0,0,100,(469) 764-1000,,,01/28/2021      ,13:04:16        ,-97.356444,31.094264
172,Airline Doctors Family And Pediatric Cl,Medical Practice,,5990 Airline Drive,Houston,Harris,5990 Airline Drive,77076,29.8527110041365,-95.3845325463378,0,0,0,0,0,0,0,100,(713) 695-9947,https://www.airlinechildrensclinic.org/,,01/28/2021      ,12:13:51        ,-95.384533,29.852711
173,Lhd Nethealth Re,Vaccine Hub,,815 N Broadway,Tyler,Smith,815 N Broadway,75702,32.3586265520932,-95.3008364771029,0,0,1640,390,1640,390,2030,9000,(903) 535-0020,https://www.nethealthcovid19.org/,,01/28/2021      ,07:29:00        ,-95.300836,32.358627
174,STAT SPECIALTY HOSPITAL OF LAREDO,Hospital,T,2502 NE Bob Bullock Loop,Laredo,Webb,2502 Ne Bob Bullock Loop,78045,27.6129293477224,-99.4693166015062,0,750,0,1100,0,1850,1850,6100,(830) 498-3000,http://www.statspecialtyhospital.com/,,01/27/2021      ,11:03:42        ,-99.469317,27.612929
175,Alvin R Gebert Md Pa,Medical Practice,,6130 W Parker Rd,Plano,Collin,6130 W Parker Rd,75093,33.045063023724,-96.8336443868095,0,0,0,0,0,0,0,200,(972) 608-8889,http://www.drgebert.net/,,01/28/2021      ,20:22:01        ,-96.833644,33.045063
176,Gateway Community Health Center Inc. - Laredo,Community Clinic,,1515 Pappas St.,Laredo,Tx,1515 Pappas St.,78041,27.535661,-99.4766015,0,0,40,0,40,0,40,100,,,,01/28/2021      ,11:50:57        ,-99.476601,27.535661
177,Gateway Community Health Center -Zapata,Community Clinic,,N. Rathmell ,Zapata,Zapata,210 N Rathmell Ave,78076,26.9016278,-99.2690737,0,0,40,0,40,0,40,100,956-523-3645,,,01/28/2021      ,11:31:33        ,-99.269074,26.901628
178,Project Vida Health Center,Other,,561 S Knox,Fort Hancock,Hudspeth,561 S Knox,79839,31.2949658138598,-105.849109938386,0,0,0,0,0,0,0,100,915-769-1079,,,01/28/2021      ,15:14:49        ,-105.84911,31.294966
179,CHRISTUS Promptu Urgent Care - Carmel Canyon,Medical Practice,,11823 Culebra Rd,San Antonio,Bexar,11823 Culebra Rd,78253,29.5023323220679,-98.7261482322244,0,0,0,0,0,0,0,2000,210-598-1517,http://promptucare.com/,,01/28/2021      ,18:28:50        ,-98.726148,29.502332
180,Tyler County Hospital Family Medical C,Community Clinic,,104 N Beech St,Woodville,Tyler,104 N Beech St,75979,30.7752857547138,-94.4294754482943,0,0,0,0,0,0,0,300,(409) 283-2822,http://www.tchospital.us/services/tchfmc/,,01/28/2021      ,11:06:09        ,-94.429475,30.775286
181,Los Alamos Family Medical Center,Medical Practice,,427 E Duranta Ave,Alamo,Hidalgo,427 E Duranta Ave,78516,26.1872248200423,-98.1110876868979,0,0,0,280,0,280,280,1200,(505) 662-4201,http://www.losalamosmedicalcenter.com/,,01/26/2021      ,17:35:32        ,-98.111088,26.187225
182,Family Medical And Specialty Clinic,Medical Practice,,2790 Pharmacy Rd Ste B,Rio Grande City,Starr,2790 Pharmacy Rd Ste B,78582,26.3752767995218,-98.8602281442548,0,0,0,0,0,0,0,200,(956) 487-7561,,,01/26/2021      ,12:16:49        ,-98.860228,26.375277
183,Claude Family Medical Clinic,Community Clinic,,Parks,Claude,Armstrong,201 Parks St.,79019,35.1092640846545,-101.361042578407,0,0,0,0,0,0,0,200,,,,01/27/2021      ,21:15:27        ,-101.361043,35.109264
184,Christus Spohn Health System - Alice,Vaccine Hub,U,2500 E Main St,Alice,Jim Wells,2500 E Main St,78332,27.7645552490032,-98.0449535405211,975,0,0,40,975,40,1015,2350,877-335-5746,https://www.christushealth.org/vaccine,,01/28/2021      ,19:32:57        ,-98.044954,27.764555
185,Heavenly Hands Family Medical Clinic PLLC,Medical Practice,,Great Trinity Forest Way,Dallas,TX,7602 Great Trinity Forest Way,75217,32.7126624261552,-96.6908110849051,0,0,0,0,0,0,0,100,,,,01/23/2021      ,15:32:53        ,-96.690811,32.712662
186,Christus Spohn Health System -  Kleberg,Vaccine Hub,U,1311 East General Cavazos Boulevard,Kingsville,Kleberg,"1311 East General Cavazos Boulevard, Kingsville, TX, 78363",78363,27.491449,-97.847583,975,0,0,120,975,120,1095,2350,877-335-5746,https://www.christushealth.org/vaccine,,01/28/2021      ,10:23:11        ,-97.847583,27.491449
187,Houston County Family Medical Clinic,Medical Practice,,1501 E. Loop 304,Crockett,TX,"1501 E Loop 304, Suite #50",75835,31.3011379967917,-95.4722647526335,0,0,0,0,0,0,0,100,(936) 544-7223,,,01/28/2021      ,09:09:41        ,-95.472265,31.301138
188,"MADISON ST. JOSEPH, MADISONVILLE",Hospital,N,100 W Cross St, Madisonville,Madison,"100 W Cross St, Madisonville, TX, 77864",77864,30.94248,-95.9105,0,0,0,80,0,80,80,200,(936) 348-2631,https://stjoseph.stlukeshealth.org/locations/chi-st-joseph-health-madison-hospital?utm_source=LocalSearch&utm_medium=Facility&utm_campaign=CHITexas&utm_term=CHIStJosephHealthMadisonHospital&y_source=1_MTUxNjI3MjctNzE1LWxvY2F0aW9uLndlYnNpdGU%3D,,01/28/2021      ,11:10:05        ,-95.9105,30.94248
189,Convenient Care Family Medicine,Community Clinic,,2216 WEST WASHINGTON,Stephenville,Erath,2216 WEST WASHINGTON,76401,32.2086456156989,-98.227785044604,0,0,224,0,224,0,224,300,,,,01/28/2021      ,08:20:29        ,-98.227785,32.208646
190,Holy Savior Hospice And Palliative Care,Other,,3201 Cherry Ridge,San Antonio,Bexar,3201 Cherry Ridge,78230,29.50816,-98.54741,0,0,90,0,90,0,90,100,,,,01/28/2021      ,07:58:10        ,-98.54741,29.50816
191,Amarillo Medical Specialists Llp,Medical Practice,,1215 S Coulter St Ste 400,Amarillo,Potter,1215 S Coulter St Ste 400,79106,35.2025857167135,-101.921848752967,0,0,0,80,0,80,80,600,(806) 358-8331,http://www.amarillomed.com/,,01/27/2021      ,18:20:05        ,-101.921849,35.202586
192,THE MENNINGER CLINIC,Hospital,Q,12301 Main Street, Houston ,Harris,"12301 Main Street, Houston , TX, 77035",77035,29.647074,-95.457451,0,0,0,0,0,0,0,100,(713) 275-5400,https://www.menningerclinic.com/,,,,-95.457451,29.647074
193,Mh Urgent Care Benders Landing,Medical Practice,,4057 Riley Fuzzel Rd Ste 1100b,Spring,Montgomery,4057 Riley Fuzzel Rd Ste 1100b,77386,30.1204541849479,-95.3744588440569,0,0,0,0,0,0,0,100,(281) 602-0450,http://www.memorialhermann.org/locations/urgent-care-benders-landing?utm_campaign=reputation-management&utm_segment=gmb_listing-link&utm_source=google&utm_medium=organic-search,,01/14/2021      ,17:09:11        ,-95.374459,30.120454
194,Bastrop Community Health Center,Other,,275 Jackson St,Bastrop,Bastrop,"275 Jackson Street, Bastrop, TX, USA",78602,30.1000215,-97.3061798,0,0,0,0,0,0,0,100,,,,01/28/2021      ,11:01:03        ,-97.30618,30.100022
195,ICARE REHABILITATION HOSPITAL,Hospital,E,3100 Peters Colony Road,Flower Mound,Denton,3100 Peters Colony Road,75022,33.0347365527577,-97.0771740735868,0,0,90,0,90,0,90,200,,,,01/02/2021      ,13:05:56        ,-97.077174,33.034737
196,Test Pharmacy,Pharmacy,,La Posada Dr,Austin,Travis,"1033 La Posada Dr, Austin, TX 78752",78752,30.3251361,-97.7018747,0,0,0,500,0,500,500,0,,,,01/28/2021      ,11:40:39        ,-97.701875,30.325136
197,Legacy Community Health,Other,,6677 Rookin St,Houston,,"6677 Rookin St Houston, TX 77074",77074,29.70731,-95.49681,0,0,0,0,0,0,0,100,(713) 666-6700,,,01/28/2021      ,10:53:53        ,-95.49681,29.70731
198,Sullivan Pharmacy,Pharmacy,,1140 Grand Ave,Bacliff,Galveston,1140 Grand Ave,77518,29.4993881785774,-94.9942531133976,0,0,400,0,400,0,400,800,,https://www.sullivanpharmacytx.com/,,01/28/2021      ,00:00:00        ,-94.994253,29.499388
199,The Hospital At Westlake Medical Center,Hospital,O,5656 Bee Caves Rd Ste M302,Austin,Travis,5656 Bee Caves Rd Ste M302,78746,30.2946715441472,-97.824719336653,0,0,70,0,70,0,70,500,(512) 327-0000,http://www.westlakemedical.com/,,01/11/2021      ,12:43:53        ,-97.824719,30.294672
200,Arlington Community Health Center,Other,,979 N Cooper St,Arlington,Tarrant,979 N Cooper St,76011,32.7491288798944,-97.1123015453894,0,0,0,0,0,0,0,100,(817)625-4254,http://ntachc.org/,,,,-97.112302,32.749129
201,Vaxanation Mobile Vaccination Clinic,Other,,14655 North West Fwy,Houston,Harris,14655 North West Fwy,77040,29.8657613340139,-95.5393335574956,0,0,0,70,0,70,70,1000,8324609003,,,01/28/2021      ,22:25:10        ,-95.539334,29.865761
202,Employee Health and Wellness,Local Health Department,,1102 Bob Bullock Loop,Laredo,Webb,"1102 Bob Bullock Loop, Laredo, TX, USA",78043,27.5055997,-99.4501578,0,0,0,0,0,0,0,100,,,,,,-99.450158,27.5056
203,LIVE OAK  COMMUNITY HEALTH CENTER,Medical Practice,,"105 East Thornton Street, Three Rivers, TX, USA",Three Rivers,Live Oak,"105 East Thornton Street, Three Rivers, TX, USA",78071,28.4584277,-98.176411,0,0,0,0,0,0,0,100,,,,01/28/2021      ,08:01:36        ,-98.176411,28.458428
204,Centromed Sap Culebra,Other,,9793 Culebra Rd Ste 105,San Antonio,Bexar,9793 Culebra Rd Ste 105,78251,,,0,0,100,0,100,0,100,100,2106816439,,,01/28/2021      ,07:35:03        ,,
205,COLEMAN COUNTY MEDICAL CENTER,Hospital,D,310 S Pecos St,Coleman,Coleman,310 S Pecos St,76834,31.828885645094,-99.4252772075129,0,0,60,0,60,0,60,400,(325) 625-3533,,,,,-99.425277,31.828886
206,Irving Health Center Parkland Health And Hospital,Other,,1800 N Britain Rd,Irving,,"1800 N Britain Rd, ",75061,32.8332499103799,-96.9443967691068,0,0,100,0,100,0,100,100,214-266-3031,https://www.parklandhospital.com/locations/irving-health-center-7,,01/28/2021      ,07:50:09        ,-96.944397,32.83325
207,Kelsey Seybold Ft Bend Diagnostic Ctr,Medical Practice,,11555 University Blvd,Sugar Land,Fort Bend,11555 University Blvd,77478,29.6106819154744,-95.6417237015634,0,0,0,450,0,450,450,1000,(713) 442-9100,https://www.kelsey-seybold.com/find-a-location/fort-bend-medical-and-diagnostic-center,,01/28/2021      ,11:19:37        ,-95.641724,29.610682
208,La Salle County Regional Health Authority,Vaccine Hub,,247 Mars Drive,Cotulla,La Salle,951 Dobie Road,78014,28.4242958,-99.2318532,0,0,0,0,0,0,0,1950,830-483-5166,https://www.co.la-salle.tx.us/,,01/28/2021      ,21:32:30        ,-99.231853,28.424296
209,Christus Trinity Clinic - Tyler,Medical Practice,,520 E Douglas Blvd,Tyler,Smith,520 E Douglas Blvd,75702,32.3447834199037,-95.2923239838761,0,0,0,2100,0,2100,2100,4200,(903) 593-8441,http://www.tmfhs.org/,,01/28/2021      ,08:30:55        ,-95.292324,32.344783
210,Kindred Hospital Limited Partnership,Hospital,Q,6441 Main St,Houston,Harris,6441 Main St,77030,29.7132947667097,-95.3994484783147,0,0,74,330,74,330,404,1000,713-790-0500,https://www.kindredhealthcare.com/locations/transitional-care-hospitals/kindred-hospital-louisville,,01/28/2021      ,11:07:24        ,-95.399448,29.713295
211,Bridge Hospice,Other,,3409 19th Street,Lubbock,Lubbock,3409 19th Street,79410,33.57754,-101.88897,0,0,70,0,70,0,70,100,(806) 993-3900,,,01/28/2021      ,10:40:19        ,-101.88897,33.57754
212,Texas Tech Family And Community Medicine,Medical Practice,,9849 Kenworthy St,El Paso,El Paso,9849 Kenworthy St,79924,31.8948387503134,-106.43309907356,0,0,90,40,90,40,130,300,915-215-5500,https://www.texastechphysicians.com/services/family.aspx,,01/25/2021      ,10:06:58        ,-106.433099,31.894839
213,Christus Trinity Mother Frances - Athens,Other,,,Athens,,1505 Hwy 19 S,75751,32.17142851,-95.83294353,0,0,0,0,0,0,0,100,903-675-1725,,,01/28/2021      ,16:56:14        ,-95.832944,32.171429
214,City Of Dallas,Vaccine Hub,,650 S Griffin Street,Dallas,Dallas,650 S Griffin Street,75202,32.7747699817525,-96.7985150203102,0,0,5000,1342,5000,1342,6342,9000,214-670-3111,https://dallascityhall.com/Pages/Coronavirus-Vaccine-Information.aspx,,01/28/2021      ,07:23:26        ,-96.798515,32.77477
215,Christus Trinity Clinic Internal Medicine Longview,Community Clinic,,703 E Marshall Ave Ste 1001,Longview,Gregg,703 E Marshall Ave Ste 1001,75601,32.5024813870731,-94.730978489369,0,0,0,200,0,200,200,200,(903)315-5600,https://www.christushealth.org/good-shepherd/locations-and-directions/internal-medicine-longview?utm_source=organic&utm_medium=GMB&utm_campaign=website&y_source=1_MTUzNzY2MDktNzE1LWxvY2F0aW9uLmdvb2dsZV93ZWJzaXRlX292ZXJyaWRl,,01/28/2021      ,09:53:10        ,-94.730978,32.502481
216,Texas Christian University Health Center,Other,,,,,2825 Stadium Dr,,32.7116169191268,-97.365442596278,0,0,0,0,0,0,0,200,(817) 257-7940,http://www.healthcenter.tcu.edu/,,01/27/2021      ,07:17:16        ,-97.365443,32.711617
217,Valley Baptist Family Practice Residency,Medical Practice,,2222 Benwood St,Harlingen,Cameron,2222 Benwood St,78550,26.1760892561526,-97.669466928425,0,0,0,0,0,0,0,1200,(956) 389-2440,http://familypractice-residency.com/,,01/28/2021      ,15:45:07        ,-97.669467,26.176089
218,University Of Texas Rio Grande Valley Health Services,Other,,1201 W University Dr,EDINBURG,HIDALGO,"1201 W University Dr, Edinburg, TX 78539",78539,26.3068324342761,-98.1725971323921,3725,0,0,0,3725,0,3725,100,,,,,,-98.172597,26.306832
219,LPISD-VSHSI Community & School Based Clinic,Community Clinic,P,117 E Us Hwy 57,La Pryor,Zavala,117 E Us Hwy 57,78872,28.9438065089955,-99.8427382669611,0,0,20,100,20,100,120,400,(202) 822-8405,http://www.communityschools.org/,,01/15/2021      ,09:46:09        ,-99.842738,28.943807
220,Christus Trinity Clinic - Sulphur Springs,Medical Practice,,105 MEDICAL PLZ BLDG 1 ,Sulphur Springs,Hopkins,105 MEDICAL PLZ BLDG 1 ,75482,33.157957,-95.598459,0,0,0,0,0,0,0,1100,(903) 885-1740,https://www.christushealth.org/trinity/clinic/locations-directions/pain-management-sulphur-springs?utm_source=organic&utm_medium=GMB&utm_campaign=website&y_source=1_MTU4Mzk0NDUtNzE1LWxvY2F0aW9uLmdvb2dsZV93ZWJzaXRlX292ZXJyaWRl,,01/29/2021      ,06:11:48        ,-95.598459,33.157957
221,El Paso Fire Department,Other,,6800 Delta,El Paso,El Paso,6800 Delta,79905,31.7603702308102,-106.403665060538,0,0,0,0,0,0,0,1800,(915) 212-5600,https://www.elpasotexas.gov/fire-department,,01/28/2021      ,06:42:09        ,-106.403665,31.76037
222,City of El Paso Fire Department,Vaccine Hub,,301 George Perry,El Paso,El Paso,George Perry Site,79925,31.815323705748,-106.366468331105,0,0,0,0,0,0,0,21000,915-212-6843,https://elpasotx.seamlessdocs.com/f/COVID19VaccinePriorityGroupRegistration,,01/28/2021      ,06:44:19        ,-106.366468,31.815324
223,James Haden Md,Medical Practice,,1000 College Ave,Fort Worth,Tarrant,1000 College Ave,76104,32.734023622579,-97.3350817977149,0,0,0,500,0,500,500,1000,(817) 336-8855,http://www.allergyfortworth.com/,,01/28/2021      ,10:22:55        ,-97.335082,32.734024
224,Immunize El Paso Eastside,Medical Practice,,1580 George Dieter,El Paso,El Paso,1580 George Dieter,79936,31.7490810164013,-106.301712489827,0,0,0,0,0,0,0,5100,(915) 857-2474,http://www.immunizeelpaso.org/,,01/28/2021      ,15:03:28        ,-106.301712,31.749081
225,South Tx Rural Health Services Devine,Other,,1010 W HONDO AVE,DEVINE,Medina,1010 W HONDO AVE,78016,29.1472713597676,-98.916098139948,0,0,80,0,80,0,80,100,830-879-2502,,,01/28/2021      ,08:07:44        ,-98.916098,29.147271
226,South Tx Rural Health Services - Carrizo Springs,Community Clinic,,902 S 5TH ST,CARRIZO SPRINGS,Dimmit,902 S 5TH ST,78834,,,0,0,0,0,0,0,0,100,(830)876-5263,http://southtexasruralhealth.com/,,,,,
227,Sona Llc Of Texas,Other,,6032 Fm 3009,Schertz,Guadalupe,6032 Fm 3009,78154,29.603854352424,-98.2792331177176,0,0,650,1000,650,1000,1650,2000,,http://www.sonainntx.com/,,01/28/2021      ,10:25:40        ,-98.279233,29.603854
228,Victory Medical And Family Care - Main,Medical Practice,O,4303 Victory Dr,Austin,Travis,4303 Victory Dr,78704,30.2324045962805,-97.7911265649791,0,0,0,0,0,0,0,100,512-462-3627,,,01/28/2021      ,17:07:36        ,-97.791127,30.232405
229,Premier Pulmonary Critical Care And Sle,Medical Practice,,5012 S Us Hwy 75,Denison,Grayson,5012 S Us Hwy 75,75020,33.7112520705174,-96.5868361833695,0,0,11,0,11,0,11,900,(903) 465-5012,http://premierpulmonaryandsleep.com/,,,,-96.586836,33.711252
230,Val Verde Health Clinic 1801 N Bedell,Community Clinic,,801 N Bedell,Del Rio,Val Verde,801 N Bedell,78840,29.3749918087269,-100.893630776971,975,0,0,140,975,140,1115,3450,(830) 775-7555,http://www.vvrmc.org/,,01/28/2021      ,11:09:37        ,-100.893631,29.374992
231,BAYLOR SCOTT WHITE MC - FRISCO,Hospital,E,5601 Warren Parkway, Frisco,Collin,5601 Warren Parkway,75034,33.105276,-96.838017,0,0,0,1580,0,1580,1580,0,(214) 407-5000,http://baylorfrisco.com/?y_source=1_MTM0MTE2ODktNzE1LWxvY2F0aW9uLndlYnNpdGU%3D,,01/28/2021      ,08:07:40        ,-96.838017,33.105276
232,NORTH RUNNELS HOSPITAL,Hospital,K,7821 Hwy 153,Winters,Runnels,7821 Hwy 153,79567,31.9498055413451,-99.959500367135,0,0,0,0,0,0,0,500,(325) 754-4553,http://www.northrunnelshospital.com/,,01/28/2021      ,23:37:32        ,-99.9595,31.949806
233,Bienvivir Senior Health Services,Other,,2300 McKinley Ave,El Paso,El Paso,"2300 McKinley Avenue, El Paso, TX, USA",79930,31.8089711,-106.4697599,0,0,0,0,0,0,0,100,915-562-3444,,,01/28/2021      ,09:13:33        ,-106.46976,31.808971
234,Lakeland Medical Associates,Medical Practice,,117 Medical circle,Athens,henderson,117 Medical circle,75751,32.1687476607183,-95.8482603483963,0,0,410,0,410,0,410,0,(903) 676-3200,https://lakelandmedical.net/,,01/28/2021      ,09:00:56        ,-95.84826,32.168748
235,"KEYSTONE HOSPICE CARE, INC",Other,,4811 MERLOT AVE UNIT 110,Grapevine,,4811 MERLOT AVE UNIT 110,76051,,,0,0,50,50,50,50,100,100,(972) 242-5959,,,01/28/2021      ,11:31:38        ,,
236,Fort Bend Family Health Center Access Health Center - Richmond,Community Clinic,Q,400 Austin St,Richmond,Fort Bend,"400 Austin St, Richmond, TX 77469",77469,29.5786836,-95.7624621,0,0,0,0,0,0,0,100,281-342-4530, https://www.myaccesshealth.org,,01/28/2021      ,07:49:41        ,-95.762462,29.578684
237,McMullen Community Health Center,Community Clinic,,203 Hackberry St,Tilden,Tx,203 Hackberry St,78072,28.45992972,-98.55047943,0,0,90,0,90,0,90,100,361-274-3690,www.atascosahealthcenter.org,,01/28/2021      ,10:47:55        ,-98.550479,28.45993
238,CHI ST JOSEPH HEALTH GRIMES HOSPITAL,Hospital,N,210 S JUDSON ST,NAVASOTA,GRIMES,"210 S JUDSON ST., NAVASOTA, TX 77868",77868,30.3944628,-96.0781936,0,0,0,90,0,90,90,200,(936) 825-6585,https://stjoseph.stlukeshealth.org/locations/chi-st-joseph-health-grimes-hospital?utm_source=LocalSearch&utm_medium=Facility&utm_campaign=CHITexas&utm_term=CHIStJosephHealthGrimesHospital&y_source=1_MTUxNjI3MzAtNzE1LWxvY2F0aW9uLndlYnNpdGU%3D,,01/28/2021      ,10:57:17        ,-96.078194,30.394463
239,Healthcore Physicians Group,Medical Practice,,8210 Walnut Hill Ln Suite 230,Dallas,Dallas,8210 Walnut Hill Ln Suite 230,75231,32.8832008410152,-96.7619926987321,0,0,0,0,0,0,0,400,(972) 284-7000,https://www.healthcoreweb.com/,,01/09/2021      ,12:38:12        ,-96.761993,32.883201
240,Mesquite Employee Health Center,Other,,300 W Kearney St ,Mesquite ,Dallas,300 W. Kearney,75149,32.77049,-96.60117,0,0,70,0,70,0,70,100,(972) 882-7120,,,01/28/2021      ,10:29:16        ,-96.60117,32.77049
241,Northchase Family Practice Clinic,Medical Practice,,11417 Veterans Memorial Drive,Houston,Harris,11417 Veterans Memorial Drive,77067,29.9482840206232,-95.4682464690267,0,0,0,0,0,0,0,100,(713) 955-3919,https://northchase-family-practice-clinic.business.site/,,01/26/2021      ,18:20:01        ,-95.468246,29.948284
242,BURLESON ST. JOSEPH - CALDWELL,Hospital,N,1101 Woodson Dr,CALDWELL,Burleson,"1101 Woodson Dr, Caldwell, TX 77836",77836,30.5202339,-96.7164547,0,0,100,80,100,80,180,300,(979) 567-3245,https://stjoseph.stlukeshealth.org/locations/chi-st-joseph-health-burleson-hospital?utm_source=LocalSearch&utm_medium=Facility&utm_campaign=CHITexas&utm_term=CHIStJosephHealthBurlesonHospital&y_source=1_MTUxNjI3NjMtNzE1LWxvY2F0aW9uLndlYnNpdGU%3D,,01/28/2021      ,10:54:47        ,-96.716455,30.520234
243,"ST. JOSEPH REGIONAL HEALTH CENTER, BRYAN",Hospital,N,2801 Franciscan Dr, Bryan,Brazos,"2801 Franciscan Dr, Bryan, TX, 77802",77802,30.655981,-96.346721,0,0,0,1900,0,1900,1900,5300,(979) 776-3777,https://stjoseph.stlukeshealth.org/locations/chi-st-joseph-health-regional-hospital?utm_source=LocalSearch&utm_medium=Facility&utm_campaign=CHITexas&utm_term=CHIStJosephRegionalHealthCareCenter&y_source=1_MTUxNjI2MTgtNzE1LWxvY2F0aW9uLndlYnNpdGU%3D,,01/28/2021      ,10:52:46        ,-96.346721,30.655981
244,Md Family Clinic Dallas,Medical Practice,,2959 S Buckner Blvd Ste 700,Dallas,Dallas,2959 S Buckner Blvd Ste 700,75227,32.7621853269028,-96.6828365614623,0,0,0,0,0,0,0,100,(214) 358-0090,http://www.mdfamilyclinic.com/,,01/22/2021      ,09:02:50        ,-96.682837,32.762185
245,Md Family Marsh Dallas 9991 Marsh Ln,Medical Practice,,9991 Marsh Ln,Dallas,Dallas,9991 Marsh Ln,75220,32.8800580012054,-96.8563174627984,0,0,0,180,0,180,180,1300,(214) 358-0090,http://www.mdfamilyclinic.com/,,01/27/2021      ,10:04:40        ,-96.856317,32.880058
246,Md Family Clinic Denton,Medical Practice,,1306 Teasley Ln,Denton,Denton,1306 Teasley Ln,76205,33.2008791171018,-97.1214803946772,0,0,0,399,0,399,399,1000,(940) 382-5005,http://www.mdfamilyclinic.com/,,01/27/2021      ,17:20:08        ,-97.12148,33.200879
247,Md Family Clinic Fort Worth,Medical Practice,,1200 Woodhaven Blvd,Fort Worth,Tarrant,1200 Woodhaven Blvd,76112,32.7631298232651,-97.2406495163408,0,0,0,0,0,0,0,300,(888) 776-5252,,,01/28/2021      ,07:58:15        ,-97.24065,32.76313
248,Wilson Community Health Center,Community Clinic,,540 10th Street,Floresville,Wilson,540 10th Street,78114,29.1540190247607,-98.1668800758973,0,0,230,0,230,0,230,400,(830) 393-9390,http://www.atascosahealthcenter.org/wilson-community-health-center.html,,01/28/2021      ,08:46:36        ,-98.16688,29.154019
249,Susan L Boullioun Md Family Practice,Medical Practice,,113 E Cedar St,Seguin,Guadalupe,113 E Cedar St,78155,29.5786824913596,-97.9642029749063,0,0,0,0,0,0,0,100,(830) 303-3500,,,01/27/2021      ,13:11:59        ,-97.964203,29.578682
250,Dept of Public Health - Beaumont,Other,,3040 College St,Beaumont,Jefferson,3040 College St,77701,30.0685274508172,-94.1172870221163,0,0,0,40,0,40,40,200,(409) 832-4000,https://beaumonttexas.gov/departments/health-services/,,01/28/2021      ,09:32:24        ,-94.117287,30.068527
251,Md Family Clinic Hampton,Medical Practice,,2815 S Hampton Rd,Dallas,Dallas,2815 S Hampton Rd,75224,32.7160799795371,-96.8571574971346,0,0,0,360,0,360,360,1000,(214) 330-0137,http://www.mdfamilyclinic.com/,,01/28/2021      ,09:19:34        ,-96.857157,32.71608
252,Shots For Tots Far South,Local Health Department,,405 W Stassney Ln,Austin,Travis,405 W Stassney Ln,78745,30.2071748162653,-97.7791111067772,0,0,0,0,0,0,0,100,(512) 972-5520,http://www.austintexas.gov/immunizations,,01/28/2021      ,09:42:54        ,-97.779111,30.207175
253,Shots For Tots St Johns,Local Health Department,,7500 Blessing Ave,Austin,Travis,7500 Blessing Ave,78752,30.3319494614061,-97.6930619020449,0,0,0,0,0,0,0,100,512-972-5505,http://www.austintexas.gov/wic,,01/28/2021      ,09:41:44        ,-97.693062,30.331949
254,Frisco Medical Center,Hospital,,5601 Warren Pkwy,Frisco,Collin,5601 Warren Pkwy,75034,33.106677044698,-96.8375571709301,0,0,0,0,0,0,0,3800,(214) 407-5478,,,,,-96.837557,33.106677
255,Su Clinica - Raymondville,Other,,131 Fm 3168,Raymondville,Willacy,131 Fm 3168,78580,26.4670317797091,-97.7842837427096,0,0,0,0,0,0,0,100,,,,,,-97.784284,26.467032
256,Castle Hills family practice,Medical Practice,,2277 NW Military Hwy,san antonio,TX - Texas,"2277 NW Military Hwy, Suite 100",78213,29.5377115480858,-98.5261061403116,0,0,0,0,0,0,0,100,(210) 549-4400,,,01/27/2021      ,07:39:10        ,-98.526106,29.537712
257,Lakeland Medical Associates Gbc 040385,Community Clinic,,170 Municipal Drive,Mabank,Henderson,170 Municipal Drive,75156,32.3323830361981,-96.1172640467587,0,0,47,381,47,381,428,800,(903) 887-7992,https://lakelandmedical.net/,,01/28/2021      ,09:33:22        ,-96.117264,32.332383
258,Wimberley Pharmacy,Pharmacy,,120 Joe Wimberley Blvd,Wimberley,Hays,120 Joe Wimberley Blvd,78676,30.0037419609742,-98.1005860111213,0,0,0,0,0,0,0,200,(512) 847-2288,http://www.hillcountryrx.com/,,01/27/2021      ,11:47:06        ,-98.100586,30.003742
259,Friendly Neighborhood Health Clinic Pllc,Medical Practice,,617 E Loop 499,Harlingen,Cameron,617 E Loop 499,78550,26.2239590595589,-97.6907607343471,0,0,0,0,0,0,0,200,(956) 428-8264,http://www.myfnhc.com/,,01/28/2021      ,09:31:11        ,-97.690761,26.223959
260,Hormazd Sanjana Md,Medical Practice,,2277 Nwmilitary 100,San Antonio,Bexar,2277 Nwmilitary 100,78213,29.5388506816416,-98.5267245669507,0,0,0,0,0,0,0,1000,(210) 342-7300,http://www.castlehillsfamilypractice.com/,,01/28/2021      ,18:35:13        ,-98.526725,29.538851
261,Fort Bend Pediatrics,Medical Practice,,4646 Riverstone Blvd,Missouri City,Fort Bend,4646 Riverstone Blvd,77459,29.5690567137531,-95.5740321220705,0,0,90,0,90,0,90,200,(281) 499-1855,,,01/28/2021      ,09:24:28        ,-95.574032,29.569057
262,MEHOP Family and Behavioral Health,Community Clinic,,1700 Golden Ave,Bay City,Matagorda,"1700 Golden Avenue, Bay City, TX, USA",77488,28.99409,-95.9700812,0,0,30,0,30,0,30,100,,,,01/27/2021      ,13:47:04        ,-95.970081,28.99409
263,Dshs Phr 9 /10 Hq - El Paso (Re),Local Health Department,,401 E Franklin Ave,El Paso,El Paso,"401 E Franklin Ave, El Paso, TX, USA",79901,31.7627729,-106.4876396,0,0,0,0,0,0,0,200,,,,01/28/2021      ,21:34:09        ,-106.48764,31.762773
264,Uhs North,Community Clinic,,302 W Rector St,San Antonio,Bexar,302 W Rector St,78216,29.5168924841642,-98.4973559707856,0,0,0,0,0,0,0,4400,(210) 358-0800,http://www.universityhealthsystem.com/locations/san-antonio/university-family-health-center-north-302-w-rector-san-antonio-78216,,01/19/2021      ,18:28:00        ,-98.497356,29.516892
265,DSHS - Zapata,Local Health Department,,1305 Kennedy,Zapata,Zapata,1305 Kennedy,78076,26.9068213956928,-99.2739727437841,0,0,0,0,0,0,0,500,(956) 765-4851,https://www.dshs.texas.gov/region11/contact_us/zapata.shtm,,01/27/2021      ,10:42:23        ,-99.273973,26.906821
266,Dept of Public Health - Burleson,Other,,828 sw alsbury,Burleson,Texas,828 sw alsbury,76028,32.54318399,-97.3522946,0,0,0,0,0,0,0,1000,682-312-2780,www.burlesontx.com,,01/29/2021      ,06:01:52        ,-97.352295,32.543184
267,Careflite,Other,,3110 S Great Southwest Pkwy,Grand Prairie,Dallas,3110 S Great Southwest Pkwy,75052,32.6942577365294,-97.0441186973101,0,0,0,630,0,630,630,1400,(800) 442-6260,https://www.careflite.org/,,01/28/2021      ,07:29:33        ,-97.044119,32.694258
268,Dept of State Health Services - Rio Grande City,Local Health Department,,608 North Garza Street,Rio Grande City,Starr,608 North Garza Street,78582,26.38189290235,-98.8142817348066,0,0,100,0,100,0,100,800,(956) 487-5556,https://www.dshs.texas.gov/region11/contact_us/rgc.shtm,,01/28/2021      ,09:15:27        ,-98.814282,26.381893
269,Dept of Public Health - City of Houston / Northside Health Center,Local Health Department,,8504 Schuller,Houston,Harris,8504 Schuller,77093,29.8370686670095,-95.3412740310678,0,0,180,200,180,200,380,500,(832) 395-9100,,,01/29/2021      ,00:13:42        ,-95.341274,29.837069
270,St Hope Foundation- GP,Other,,"255 Northpoint Dr Suite 200, Houston, TX 77060",Houston,,255 Northpoint Dr,77060,29.94166641,-95.40581735,0,0,10,0,10,0,10,200,(713) 778-1300,,,01/28/2021      ,10:44:41        ,-95.405817,29.941666
271,SWEENY COMMUNITY HOSPITAL,Hospital,R,305 N Mckinney St,Sweeny,Brazoria,305 N Mckinney St,77480,29.0478882468526,-95.6907392273149,0,0,100,160,100,160,260,400,(979) 548-1500,,,01/28/2021      ,09:06:40        ,-95.690739,29.047888
272,Valley Health Clinic,Medical Practice,,2542 Central Palm Drive,Rio Grande City,Starr,2542 Central Palm Drive,78582,26.3785102061828,-98.857799767916,0,0,0,10,0,10,10,200,9563521344,,,01/28/2021      ,08:41:20        ,-98.8578,26.37851
273,Healthpoint Abc,Community Clinic,,1602 Rock Prairie Rd,College Station,Brazos,1602 Rock Prairie Rd,77845,30.5812089892948,-96.2883290258648,0,0,0,0,0,0,0,100,(979) 695-3400,http://www.healthpoint-tx.com/Locations/ABCCollegeStation,,01/21/2021      ,21:56:41        ,-96.288329,30.581209
274,Healthpoint Memorial,Community Clinic,,1301 Memorial Drive,Bryan,Brazos,1301 Memorial Drive,77802,30.6513750323334,-96.3453914301215,0,0,0,0,0,0,0,100,(979) 695-3400,http://www.healthpoint-tx.com/,,01/21/2021      ,21:57:41        ,-96.345391,30.651375
275,HealthPoint Franklin,Other,,808 W Hwy 79,Franklin,Robertson,808 W Hwy 79,77856,31.019849,-96.494369,0,0,0,0,0,0,0,100,979-595-1731,https://www.healthpoint-tx.com/Locations/Franklin,,,,-96.494369,31.019849
276,Fondren Orthopedic Group LLP,Medical Practice,,7401 Main Street,Houston,Harris,7401 Main Street,77030,29.700667597214,-95.4094262120357,0,0,0,0,0,0,0,300,(713) 794-3599,http://www.fondren.com/?utm_source=GMBSocialClimb&utm_medium=FondrenOrthopedicGroupLLP,,01/21/2021      ,06:26:47        ,-95.409426,29.700668
277,"Vara Hospice, LLC",Other,,3619 Davis Ave,Laredo,Webb,"3619 Davis Avenue, Laredo, Texas, USA",78041,27.532667,-99.5106687,0,0,89,0,89,0,89,100,833-663-8271,,,01/28/2021      ,09:09:59        ,-99.510669,27.532667
278,DSHS - Ballinger,Local Health Department,,2017 Hutchins Avenue,Ballinger,Runnels,2017 Hutchins Avenue,76821,31.7233451823558,-99.9607760726235,0,0,40,0,40,0,40,200,(325) 365-2564,,,01/27/2021      ,15:29:36        ,-99.960776,31.723345
279,Laredo Emergency Room,Hospital,,7510 Mcpherson Rd,Laredo,Webb,7510 Mcpherson Rd,78041,27.5722280412783,-99.4726142936725,0,0,0,2490,0,2490,2490,12500,(956) 242-6790,http://www.laredoemergency.com/,,01/28/2021      ,18:28:34        ,-99.472614,27.572228
280,KINDRED HOSPITAL - TARRANT COUNTY,Hospital,E,7800 Oakmont Blvd,Fort Worth,Tarrant,7800 Oakmont Blvd,76132,32.6660509140537,-97.4253341916131,0,0,0,0,0,0,0,600,(817) 346-0094,https://www.kindredhealthcare.com/locations/transitional-care-hospitals/kindred-hospital-tarrant-county-fort-worth-southwest,,01/18/2021      ,09:16:27        ,-97.425334,32.666051
281,KINDRED HOSPITAL - NORTHWEST,Hospital,Q,11297 Fallbrook Dr, Houston,Harris,"11297 Fallbrook Dr, Houston, TX, 77065",77065,29.925443,-95.588706,0,0,0,0,0,0,0,100,(281) 517-1000,https://www.kindredhealthcare.com/locations/transitional-care-hospitals/kindred-hospital-houston-northwest,,,,-95.588706,29.925443
282,KPC PROMISE HOSPITAL OF DALLAS,Hospital,E,7955 Harry Hines Boulevard, Dallas,Dallas,"7955 Harry Hines Boulevard, Dallas, TX, 75235",75235,32.832703,-96.862071,0,0,0,0,0,0,0,100,(214) 583-6806,http://dallas.kpcph.com/,,,,-96.862071,32.832703
283,SUN CITY WEST ER,Other,I,351 E Redd Road,El Paso,El Paso,351 E Redd Road,79932,31.8637075111251,-106.577737349789,0,0,0,0,0,0,0,100,(915) 308-4218,http://www.suncityer.com/,,01/28/2021      ,07:05:03        ,-106.577737,31.863708
284,We Are Blood,Other,,4300 N Lamar Blvd,Austin,Travis,4300 N Lamar Blvd,78756,30.3115594341939,-97.7391930472754,0,0,0,130,0,130,130,400,(512) 206-1266,https://weareblood.org/,,01/28/2021      ,08:22:04        ,-97.739193,30.311559
285,Haskell Memorial Hospital Clinic,Other,,1400 South 1st Street,Haskell,Haskell,1400 South 1st Street,79521,33.1578836953221,-99.7443160598511,0,0,100,0,100,0,100,100,940-864-8513,,,01/28/2021      ,08:42:10        ,-99.744316,33.157884
286,Uhs S Flores Clinic,Community Clinic,,7902 S Flores St,San Antonio,Bexar,7902 S Flores St,78221,29.3471395826653,-98.4868442260132,0,0,0,0,0,0,0,100,(210) 358-8255,http://www.universityhealthsystem.com/locations/san-antonio/south-flores-clinic-7902-s-flores-street-san-antonio-78221,,01/28/2021      ,08:44:12        ,-98.486844,29.34714
287,United Medical Centers 2,Other,,202 JAMES STREET,BRACKETTVILLE,Kinney,202 JAMES STREET,78832,29.3123136486512,-100.417367029845,0,0,50,0,50,0,50,100,,,,01/28/2021      ,08:49:53        ,-100.417367,29.312314
288,WEATHERFORD REHABILITATION HOSPITAL LLC,Hospital,E,703 Eureka Street,Weatherford,Parker,703 Eureka Street,76086,32.7501074889444,-97.7876400285343,0,0,20,0,20,0,20,100,(682) 803-0100,http://www.weatherfordrehab.com/,,01/28/2021      ,08:47:12        ,-97.78764,32.750107
289,TITUS REGIONAL MEDICAL CENTER,Hospital,F,2001 North Jefferson,Mount Pleasant,Titus,2001 North Jefferson,75455,33.1757761133722,-94.9704666132902,0,0,0,30,0,30,30,2100,(903) 577-6000,https://www.titusregional.com/,,01/28/2021      ,08:47:02        ,-94.970467,33.175776
290,Frontera Healthcare Network Mason Clinic,Community Clinic,,216 E College,Mason,Mason,216 E College,76856,30.7439074715339,-99.2287311699375,0,0,0,0,0,0,0,200,(325) 347-5926,http://www.fronterahn.org/,,01/28/2021      ,17:17:12        ,-99.228731,30.743907
291,Valley House Calls Pllc,Medical Practice,,1795 W Us Highway 77,San Benito,Cameron,1795 W Us Highway 77,78586,26.1561114306447,-97.651608232205,0,0,0,100,0,100,100,1100,(623) 934-1245,https://www.sv-hc.com/,,01/28/2021      ,08:42:24        ,-97.651608,26.156111
292,NACOGDOCHES MEMORIAL HOSPITAL,Pharmacy,H,1204 N Mound St,Nacogdoches,Nacogdoches,1204 N Mound St,75961,31.6129408458308,-94.649438296747,0,0,53,733,53,733,786,2200,(936) 564-4611,http://www.nacmem.org/,,01/28/2021      ,08:38:09        ,-94.649438,31.612941
293,ST. DAVID'S SOUTH AUSTIN MC,Hospital,O,901 W Ben White Blvd,Austin,Travis,901 W Ben White Blvd,78704,30.2272731113373,-97.7744468291171,15,335,600,0,615,335,950,4500,(512) 447-2211,http://www.stdavids.com/locations/st-davids-south-austin-medical-center?utm_campaign=corp_listings_mgmt&utm_source=google&utm_medium=business_listing,,01/25/2021      ,17:54:44        ,-97.774447,30.227273
294,Uhs Zarzamora Clinic,Community Clinic,,4503 S Zarzamora,San Antonio,Bexar,4503 S Zarzamora,78211,29.3809590532356,-98.5337680478275,0,0,0,0,0,0,0,100,(210) 358-8255,https://www.universityhealthsystem.com/locations/san-antonio/zarzamora-clinic-4503-s-zarzamora-street-san-antonio-78211,,01/25/2021      ,12:06:11        ,-98.533768,29.380959
295,15rx Pharmacy2,Pharmacy,,11212 State Hwy 151 Plaza2,San Antonio,Bexar,11212 State Hwy 151 Plaza2,78251,29.4674739565082,-98.6946397361789,0,0,0,0,0,0,0,100,(210) 543-1579,http://www.15rx.com/,,01/28/2021      ,08:30:20        ,-98.69464,29.467474
296,Ut Physicians Greens Clinic,Community Clinic,,550 Greens Parkway,Houston,Harris,550 Greens Parkway,77067,29.9471408128492,-95.4222817045742,0,0,0,0,0,0,0,300,(713) 486-5600,https://www.utphysicians.com/greens,,01/28/2021      ,08:37:44        ,-95.422282,29.947141
297,Uhs Southeast,Community Clinic,,1055 Ada,San Antonio,Bexar,1055 Ada,78223,29.38112748758,-98.4573329698561,0,0,0,0,0,0,0,5000,(210) 358-5515,https://www.universityhealthsystem.com/locations/san-antonio/university-family-health-center-southeast-1055-ada-san-antonio-78223,,01/20/2021      ,08:31:00        ,-98.457333,29.381127
298,CHI ST. LUKE'S THE WOODLANDS HOSPITAL,Vaccine Hub,Q,17200 St Lukes Way,Conroe,Montgomery,17200 St Lukes Way,77384,30.2049554559427,-95.4593472347869,1770,0,0,1350,1770,1350,3120,2200,832-844-6352,https://www.stlukeshealth.org/covidvaccine,,01/28/2021      ,09:03:50        ,-95.459347,30.204955
299,Allen Fire Department,Vaccine Hub,,310 Century Pkwy,Allen,Collin,"310 Century Parkway, Allen, TX, USA",8048,33.0991682,-96.6752143,0,0,0,0,0,0,0,4700,214-509-4333,https://lp.constantcontactpages.com/su/hmnkPQ1/vaccine,,01/28/2021      ,09:12:54        ,-96.675214,33.099168
300,Nuestra Clinica Del Valle Women Health Clinic,Other,,803 W 3rd Street,San Juan,Hidalgo,803 W 3rd Street,78589,26.1934402471384,-98.1650840164532,0,0,60,0,60,0,60,100,,,,01/28/2021      ,08:20:22        ,-98.165084,26.19344
301,Pearland Family Health Center 061819,Community Clinic,,2552 Broadway St 102,Pearland,Brazoria,2552 Broadway St 102,77581,29.5529950467194,-95.2564609556673,0,0,0,0,0,0,0,100,(281) 824-1480,https://mychn.org/pearland-family-health-center/,,01/28/2021      ,08:15:29        ,-95.256461,29.552995
302,Dept of Public Health - Bowie County / Texarkana,Local Health Department,,902 W 12th Street,Texarkana,Bowie,902 W 12th Street,75501,33.428996132421,-94.0524188028893,0,0,0,0,0,0,0,500,(903) 798-3250,http://ci.texarkana.tx.us/391/Health,,01/28/2021      ,17:27:41        ,-94.052419,33.428996
303,Altus Hospice CCTX,Other,,4300 S Padre Island Dr,Corpus Christi,Nueces,"4300 South Padre Island Drive, Corpus Christi",78411,27.7196705,-97.3920106,0,0,0,0,0,0,0,100,361-723-1049,,,,,-97.392011,27.719671
304,Nuestra Clinica Del Valle - Rio Grande,Other,,600 N Garza St,Rio Grande,Starr,600 N Garza St,78582,26.3817640190777,-98.8143586865433,0,0,30,30,30,30,60,100,,,,01/28/2021      ,08:04:14        ,-98.814359,26.381764
305,Providence Clinic Londonderry,Medical Practice,,7003 Woodway Dr,Waco,McLennan,7003 Woodway Dr,76712,31.5071535583154,-97.19953586217,0,0,0,0,0,0,0,100,(254) 772-7300,https://healthcare.ascension.org/Locations/Texas/TXWAC/Waco-Ascension-Medical-Group-Providence-at-Londonderry,,01/28/2021      ,07:58:38        ,-97.199536,31.507154
306,Dept of Public Health - Lamar County / Paris,Local Health Department,,400 W Sherman St,Paris,Lamar,400 W Sherman St,75460,33.6572812689099,-95.5602262210132,0,0,400,200,400,200,600,1200,(903) 785-4561,http://www.parislamarhealth.com/,,01/28/2021      ,07:58:05        ,-95.560226,33.657281
307,Diana Lozano Md Pa,Medical Practice,,5505 S Expressway 77,Harlingen,Cameron,5505 S Expressway 77,78550,26.1562182363853,-97.6754239470116,0,0,0,0,0,0,0,100,(956) 440-2800,http://dlozanomd.com/,,01/28/2021      ,07:53:32        ,-97.675424,26.156218
308,MID-JEFFERSON EXTENDED CARE - BEAUMONT,Hospital,R,860 South 8th Street, Beaumont,Jefferson,"860 South 8th Street, Beaumont, TX, 77701",77701,30.069448,-94.125231,0,0,0,0,0,0,0,100,(409) 363-5800,http://www.midjeffextendedcare.com/,,01/28/2021      ,08:50:58        ,-94.125231,30.069448
309,VALLEY BAPTIST MED CENTER - BROWNSVILLE,Hospital,V,1040 W Jefferson,Brownsville,Cameron,1040 W Jefferson,78520,25.9177439966788,-97.5117389566785,0,0,0,530,0,530,530,1800,(956) 698-5400,https://www.valleybaptist.net/locations/detail/vbmc-brownsville?utm_campaign=gmb_listings_mgmt&utm_source=gmb-vbmc-brownsville&utm_medium=google-local,,01/28/2021      ,07:09:59        ,-97.511739,25.917744
310,LIBERTY-DAYTON REGIONAL MEDICAL CENTER,Hospital,R,1353 N Travis St,Liberty,Liberty,1353 N Travis St,77575,30.0684996228984,-94.7978916926302,0,0,0,200,0,200,200,400,(936) 336-9175,http://www.libertydaytonrmc.com/,,01/28/2021      ,05:41:46        ,-94.797892,30.0685
311,Madison D Lowry Md,Medical Practice,,1282 E Common Street,New Braunfels,Comal,1282 E Common Street,78130,29.7192522463011,-98.1050243964907,0,0,0,0,0,0,0,600,(830) 627-2200,,,01/28/2021      ,17:40:25        ,-98.105024,29.719252
312,Ibn Sina Foundation Community Clinic,Community Clinic,,16345 S Post Oak Rd,Houston,Fort Bend,16345 S Post Oak Rd,77053,29.5886753963253,-95.4703657494253,0,0,251,0,251,0,251,100,(281) 438-7462,http://ibnsinafoundation.org/,,01/28/2021      ,08:19:25        ,-95.470366,29.588675
313,Precise Personalized Care Hospice Llc,Other,,6009 Belt Line,Dallas,Dallas,6119 Belt Line RD STE 240,75254,,,0,0,0,0,0,0,0,100,,,,,,,
314,RANKIN COUNTY HOSPITAL DISTRICT,Hospital,J,1611 Spur 576, Rankin,Upton,"1611 Spur 576, Rankin, TX, 79778",79778,31.233548,-101.936178,0,0,0,0,0,0,0,300,(432) 693-1200,http://www.rankinhospital.org/,,01/27/2021      ,09:58:14        ,-101.936178,31.233548
315,Childrens Memorial Hermann Hospital Tmc,Other,,6411 Fannin St,Houston,Harris,6411 Fannin St,77030,29.7151028352692,-95.3964851292617,0,0,0,0,0,0,0,200,,,,,,-95.396485,29.715103
316,HCA HOUSTON HEALTHCARE MEDICAL CENTER,Hospital,Q,1313 Hermann Dr, Houston,Harris,"1313 Hermann Dr, Houston, TX, 77004",77004,29.722452,-95.388171,0,0,145,0,145,0,145,0,(713) 527-5000,https://hcahoustonhealthcare.com/locations/medical-center?utm_campaign=corp_listings_mgmt&utm_source=google&utm_medium=business_listing,,01/28/2021      ,07:28:12        ,-95.388171,29.722452
317,Christus Trinity Clinic Longview Family Practice,Community Clinic,,705 E. Marshall Ave,Longview,Gregg,"705 E. Marshall Ave, Plaza 3, Suite 1002",75601,32.5026427,-94.7304071,0,0,0,200,0,200,200,200,,,,01/28/2021      ,10:23:46        ,-94.730407,32.502643
318,Walmart Pharmacy 265,Pharmacy,,1900 W Moore Ave,Terrell,Kaufman,"1900 West Moore Avenue, Terrell, TX, USA",75160,32.7397644,-96.3061602,0,0,100,0,100,0,100,100,,,,01/28/2021      ,08:55:29        ,-96.30616,32.739764
319,LAUREL RIDGE TREATMENT CENTER BH,Hospital,P,17720 Corporate Woods Dr., San Antonio,Bexar,"17720 Corporate Woods Dr., San Antonio, TX, 78259",78259,29.603174,-98.438424,0,0,300,0,300,0,300,300,(210) 491-9400,https://laurelridgetc.com/,,01/26/2021      ,14:57:16        ,-98.438424,29.603174
320,La Esperanza Clinic,Community Clinic,,S Chadbourne,San Angelo,Tom Green,1610 South Chadbourne Street,76903,31.4446156,-100.4341684,0,0,100,0,100,0,100,100,(325) 658-5339,,,01/28/2021      ,08:56:37        ,-100.434168,31.444616
321,Red River Urgent Care,Medical Practice,,Industrial Way,Clarksville,Red River,1805 Industrial Way,75426,33.61745061,-95.07037571,0,0,0,0,0,0,0,100,9034280100,,,,,-95.070376,33.617451
322,Hunt County Dialysis,Other,,3301 Ridgecrest Rd. ,Greenville,Hunt,3301 Ridgecrest Rd,75402,33.1203876,-96.1173321,0,0,89,0,89,0,89,100,903-455-0579,,,01/28/2021      ,08:47:10        ,-96.117332,33.120388
323,Centra Clinic,Medical Practice,,3751 South Dairy Ashford,Houston,Harris,3751 South Dairy Ashford,77082,29.7182414725974,-95.6046657988823,0,0,0,0,0,0,0,1000,(281) 861-0600,https://centraclinic.business.site/?utm_source=gmb&utm_medium=referral,,01/22/2021      ,11:11:24        ,-95.604666,29.718241
324,CHRISTUS SANTA ROSA HOSPITAL-SAN MARCOS,Hospital,O,1301 Wonder World Dr, San Marcos,Hays,"1301 Wonder World Dr, San Marcos, TX, 78666",78666,29.852922,-97.948392,0,0,0,0,0,0,0,200,(512) 353-8979,https://www.christushealth.org/santa-rosa/san-marcos?utm_source=organic&utm_medium=GMB&utm_campaign=website&y_source=1_MTU5MTk4NzEtNzE1LWxvY2F0aW9uLmdvb2dsZV93ZWJzaXRlX292ZXJyaWRl,,01/13/2021      ,17:50:54        ,-97.948392,29.852922
325,Texoma Dialysis Center,Other,,2500 Swamy Drive,Sherman,Grayson,2500 Swamy Drive,75090,33.67787,-96.60435,0,0,90,0,90,0,90,100,,,,01/28/2021      ,09:41:52        ,-96.60435,33.67787
326,SAINT CAMILLUS MEDICAL CENTER,Hospital,E,1612 Hurst Town Center Drive, Hurst,Tarrant,"1612 Hurst Town Center Drive, Hurst, TX, 76054",76054,32.842313,-97.188535,0,0,0,0,0,0,0,100,(817) 519-3700,,,,,-97.188535,32.842313
327,CORNERSTONE OF HOUSTON - CLEAR LAKE,Hospital,Q,709 Medical Center Blvd, Webster,Harris,"709 Medical Center Blvd, Webster, TX, 77598",77598,29.538629,-95.129808,0,0,0,0,0,0,0,100,(281) 332-3322,,,,,-95.129808,29.538629
328,Ut Physicians Multispecialty Jensen,Community Clinic,,2620 E Crosstimbers St Ste 100,Houston,Harris,2620 E Crosstimbers St Ste 100,77093,29.8285839929768,-95.3435438701079,0,0,30,0,30,0,30,100,(713) 486-8550,https://www.utphysicians.com/jensen,,01/27/2021      ,18:32:29        ,-95.343544,29.828584
329,Faith Presbyterian Hospice,Other,,12477 MERIT DR,Dallas,Dallas,12477 MERIT DR,75251,32.91956,-96.77316,0,0,100,0,100,0,100,100,,,,01/28/2021      ,10:28:42        ,-96.77316,32.91956
330,Super 1 Pharmacy 618,Pharmacy,,2610 Richmond Rd,Texarkana,Bowie,2610 Richmond Rd,75503,33.4584581448972,-94.0887693567612,0,0,0,90,0,90,90,200,(903) 832-2258,https://www.brookshires.com/covid-19-information,,01/20/2021      ,18:03:48        ,-94.088769,33.458458
331,Abilene Community Health,Community Clinic,,1749 Pine St,Abilene,Taylor,1749 Pine St,79601,32.4697287693198,-99.7305944319071,0,0,60,0,60,0,60,100,3256960600,https://www.ttuhsc.edu/nursing/combest/abilene.aspx,,01/28/2021      ,21:26:31        ,-99.730594,32.469729
332,Eagle Pass Fire Department,Vaccine Hub,,2558 EL INDIO HWY,EAGLE PASS,Maverick,2558 EL INDIO HWY,78852,,,0,0,600,0,600,0,600,2400,830-421-5151; 830-421-5122,https://www.eaglepasstx.us/formcenter/covid19-7/covid19-vaccine-priority-groups-registra-52,,01/28/2021      ,10:41:49        ,,
333,Brookshires Pharmacy 30,Pharmacy,,2107 S Loop 256,Palestine,Anderson,2107 S Loop 256,75801,31.736814017285,-95.6112959681131,0,0,0,70,0,70,70,300,(903) 723-1092,https://www.brookshires.com/covid-19-information,,01/27/2021      ,17:24:13        ,-95.611296,31.736814
334,Zapata Primary Care - Zapata 1,Medical Practice,,US Hwy 83,Zapata,Zapata,105 S US 83,78076,26.896284,-99.263914,0,0,0,0,0,0,0,100,956-750-3429,,,01/28/2021      ,16:27:45        ,-99.263914,26.896284
335,Fox Rural Health Clinic,Community Clinic,,901 Hwy 83,Childress,Childress,1001 US Highway 83 North,79201,34.4373750547743,-100.225908684172,0,0,40,0,40,0,40,400,(940) 937-3636,http://www.childresshospital.com/fox_health_clinic.htm,,01/28/2021      ,10:27:34        ,-100.225909,34.437375
336,Karnes County Family Residential Center,Community Clinic,,409 Fm 1144,Karnes City,Karnes,409 Fm 1144,78118,28.8855724404033,-97.9154649739691,0,0,0,0,0,0,0,100,(830) 254-2000,https://www.ice.gov/detention-facility/karnes-county-residential-center,,,,-97.915465,28.885572
337,DSHS Uvalde,Other,,Joe Carper Drive,Uvalde,Uvalde,"112 Joe Carper Dr, Uvalde, TX, USA",78801,29.2202466,-99.7563123,0,0,0,0,0,0,0,200,,,,01/28/2021      ,12:41:14        ,-99.756312,29.220247
338,Genesis Medical Group Springwoods,Medical Practice,Q,2255 E Mossy Oaks Rd,Spring,Harris,2255 E Mossy Oaks Rd,77389,30.0923525495881,-95.449107985687,0,0,0,50,0,50,50,1000,(281) 440-5300,https://www.genesisdoctors.com/,,01/28/2021      ,09:47:00        ,-95.449108,30.092353
339,SELECT SPECIALTY HOSPITAL DALLAS - CARROLLTON,Hospital,E,2329 W Parker Rd,Carrollton,Denton,2329 W Parker Rd,75010,33.0449074893469,-96.8647986915264,0,0,21,300,21,300,321,600,(469) 892-1400,http://dallas.selectspecialtyhospitals.com/,,01/27/2021      ,08:55:00        ,-96.864799,33.044907
340,UTSW - ZALE LIPSHY,Vaccine Hub,E,5151 Harry Hines Blvd,Dallas,Dallas,5151 Harry Hines Blvd,75390,32.8109097155001,-96.8362900117144,0,0,0,0,0,0,0,62700,214-633-2021,https://utswmed.org/covid-19/covid-19-vaccination/,,01/27/2021      ,16:07:56        ,-96.83629,32.81091
341,Celina Drug,Pharmacy,,701 N Preston Rd Ste 210,Celina,Collin,701 N Preston Rd Ste 210,75009,33.3306070031928,-96.7727973582631,0,0,0,0,0,0,0,1100,(972) 382-2832,http://www.celinadrug.com/,,01/29/2021      ,05:50:41        ,-96.772797,33.330607
342,UTSW-WILLIAM P. CLEMENTS JR. UNIVERSITY,Pharmacy,E,6201 Harry Hines Blvd, Dallas,Dallas,"6201 Harry Hines Blvd, Dallas, TX, 75390",75390,32.817851,-96.844782,9750,3570,0,580,9750,4150,13900,0,(214) 633-5555,https://utswmed.org/locations/clements/?utm_campaign=directory_listing,,01/28/2021      ,08:10:50        ,-96.844782,32.817851
343,Cumberland Surgical Hospital,Hospital,,5330 North Loop 1604 West,San Antonio,Bexar,"5330 North Loop 1604 West, San Antonio, TX, USA",78249,29.567119,-98.605723,0,0,0,0,0,0,0,200,(210) 877-8000,https://www.psnaffiliates.com/,,01/27/2021      ,15:20:13        ,-98.605723,29.567119
344,Freedom Urgent Care Harker Heights,Medical Practice,,300 W Central Texas Expy Ste115,Harker Heights,Bell,"300 West Central Texas Expressway Suite 115, Harker Heights, TX, USA",76548,31.0711687,-97.6756253,0,0,0,100,0,100,100,200,(254) 833-8456,http://www.freedomurgentcare.com,,01/28/2021      ,11:40:33        ,-97.675625,31.071169
345,Project Vida Nafzger Health Clinic,Community Clinic,,3612 Pera Ave,El Paso,El Paso,3612 Pera Ave,79905,31.7723024924156,-106.450369985053,0,0,0,33,0,33,33,300,(915) 533-7057,http://www.pvida.net/,,01/27/2021      ,19:00:35        ,-106.45037,31.772302
346,Ascension Medical Group Georgetown,Medical Practice,,3721 Williams Drive,Georgetown,Williamson,3721 Williams Drive,78628,30.6706749092186,-97.6982686564783,0,0,0,0,0,0,0,100,512-844-1881,https://healthcare.ascension.org/Locations/Texas/TXAUS/Georgetown-Ascension-Medical-Group-Georgetown,,01/27/2021      ,16:48:18        ,-97.698269,30.670675
347,Clinica Mi Doctor 6,Medical Practice,,229 Ne 28th St,Fort Worth,Tarrant,229 Ne 28th St,76164,32.7951875016074,-97.3468879597946,0,0,0,0,0,0,0,100,(214) 330-7767,http://www.clinicasmidoctor.com/,,01/28/2021      ,09:15:58        ,-97.346888,32.795188
348,ASCENSION SETON BASTROP HOSPITAL,Hospital,O,630 W Sh 71,Bastrop,Bastrop,630 W Sh 71,78602,30.1102512902514,-97.3447989057612,0,0,0,0,0,0,0,200,(737) 881-7400,https://healthcare.ascension.org/Locations/Texas/TXAUS/Bastrop-Ascension-Seton-Bastrop?utm_campaign=gmb-website&utm_medium=organic&utm_source=google,,01/28/2021      ,08:30:38        ,-97.344799,30.110251
349,Highrise Health Pllc Dba Vertical Healt,Medical Practice,,3624 Oak Lawn Avenue,Dallas,Dallas,3624 Oak Lawn Avenue,75219,32.8133001657264,-96.803925706448,0,0,0,0,0,0,0,100,(214) 892-2271,,,01/29/2021      ,06:06:17        ,-96.803926,32.8133
350,Walgreens Pharmacy 11212,Pharmacy,,2126 Us Highway 79 S,Henderson,Rusk,2126 Us Highway 79 S,75654,32.1328189606467,-94.8034696815552,0,0,0,0,0,0,0,100,(718) 604-1323,Walgreens.com/covid19vac,,01/13/2021      ,09:09:03        ,-94.80347,32.132819
351,El Indio Hwy Clinic,Community Clinic,,4018 El Indio Highway,Eagle Pass,Maverick,4018 El Indio Highway,78852,28.6742286191667,-100.459609711757,0,0,0,0,0,0,0,200,(830) 872-3460,https://umchealth.com/El-Indio-Hwy-Clinic,,01/27/2021      ,16:00:14        ,-100.45961,28.674229
352,WISE HEALTH SURGICAL HOSPITAL - ARGYLE,Hospital,E,7218 Crawford Rd,Argyle,Denton,7218 Crawford Rd,76226,33.1309974720383,-97.2047199854649,0,0,0,10,0,10,10,400,(940) 293-2885,https://www.wisehealthsurgicalhospital.com/locations/argyle/,,01/28/2021      ,07:21:17        ,-97.20472,33.130997
353,WISE HEALTH SYSTEM - DECATUR,Hospital,E,609 Medical Center Dr,Decatur,Wise,609 Medical Center Dr,76234,33.2163056327105,-97.5938971981377,0,0,0,0,0,0,0,4650,(972) 506-9058,https://www.wisehealthsystem.com/,,01/29/2021      ,05:50:27        ,-97.593897,33.216306
354,Texas Tech Health Sciences Center,Other,,801 West 4th Street,Odessa,Ector,801 West 4th Street,79763,31.8436024359373,-102.37632654122,0,0,0,0,0,0,0,300,(806) 743-1000,http://www.ttuhsc.edu/lubbock/,,01/25/2021      ,08:41:59        ,-102.376327,31.843602
355,Texas Tech University Health Sciences Center El Paso Occupational Health,Hospital,,,El Paso,,4801 Alberta Ave,79905,31.7729224,-106.4344546,0,0,0,1100,0,1100,1100,2500,,http://elpaso.ttuhsc.edu,,01/28/2021      ,07:40:43        ,-106.434455,31.772922
356,Endeavor Clinical Trials,Other,,8042 Wurzbach,San Antonio,Bexar,8042 Wurzbach,78229,29.5149952403805,-98.5770761680682,0,0,0,300,0,300,300,600,(210) 949-0807,http://www.endeavorct.com/home,,01/21/2021      ,07:27:28        ,-98.577076,29.514995
357,Family Health Center of Bastrop,Other,,3101 Highway 71 E Ste 101,Bastrop,,"3101 TX-71 #101, Bastrop, TX 78602",78602,30.1158,-97.27464,0,0,0,0,0,0,0,100,(512) 304-0300,https://www.fhcob.com/,,01/25/2021      ,10:31:34        ,-97.27464,30.1158
358,La Esperanza Clinic,Community Clinic,,35 e 31st st,San Angelo,Tom Green,35 E 31st St,76903,31.4921,-100.454,0,0,0,0,0,0,0,100,,,,01/28/2021      ,07:53:38        ,-100.454,31.4921
359,HENDRICK MEDICAL CENTER SOUTH,Pharmacy,D,6250 US Highway 83/84, Abilene,Taylor,"6250 US Highway 83/84, Abilene, TX, 79606",79606,32.37469,-99.74405,0,0,0,0,0,0,0,100,(325) 670-2000  OR   325-692-5600,https://www.hendrickhealth.org/locations/hendrick-medical-plaza-hendrick-emergency-care-c/?utm_campaign=website-link&utm_medium=organic&utm_source=local-listing,,01/27/2021      ,14:46:25        ,-99.74405,32.37469
360,Parkland Health And Hospital System,Other,,5184 Tex Oak Ave Ron J Anderson Building,Dallas,Dallas,5184 Tex Oak Ave Ron J Anderson Building,75235,32.8139743779033,-96.8343865544449,0,0,0,0,0,0,0,2000,(214) 590-8000,http://www.parklandhospital.com/police,,01/27/2021      ,16:38:57        ,-96.834387,32.813974
361,Wellness Pointe/South 040587,Community Clinic,,SOUTH MOBBERLY,Longview,Texas,2131 South Mobberly,75602,32.4676702891536,-94.7307006507613,0,0,30,0,30,0,30,100,,,,01/29/2021      ,06:02:11        ,-94.730701,32.46767
362,Parkland Health And Hospital/Homes,Community Clinic,,4811 Harry Hines Blvd,Dallas,Dallas,4811 Harry Hines Blvd,75235,32.8132960711027,-96.8356412742232,0,0,0,0,0,0,0,100,214-590-8000,,,01/29/2021      ,06:24:25        ,-96.835641,32.813296
363,ENCOMPASS HEALTH REHAB PEARLAND,Hospital,R,2121 Business Center Drive,Pearland,Brazoria,2121 Business Center Drive,77584,29.5759499586233,-95.3921896453637,0,0,0,90,0,90,90,200,Non-Public,http://encompasshealth.com,,01/28/2021      ,09:52:45        ,-95.39219,29.57595
364,Memorial Hermann Pearland Hospital,Hospital,R,16100 South Fwy,Pearland,Brazoria,16100 South Fwy,77584,29.5713857492995,-95.3871161727033,10,60,0,0,10,60,70,3200,(713) 413-5000,https://www.memorialhermann.org/locations/pearland,,01/25/2021      ,10:22:38        ,-95.387116,29.571386
365,STONEWALL MEMORIAL HOSPITAL,Hospital,D,821 N Broadway St,Aspermont,Stonewall,821 N Broadway St,79502,33.150091070286,-100.227452786745,0,0,0,100,0,100,100,200,(940) 989-3551,http://www.stonewallhospital.org/,,01/28/2021      ,07:42:42        ,-100.227453,33.150091
366,Midland Community Healthcare Services - Midland 2,Community Clinic,,4214 Andrews Hwy,Midland,Midland,"4214 Andrews Highway, Midland, TX, USA",79703,32.0046413,-102.1348661,0,0,0,0,0,0,0,100,,,,01/27/2021      ,15:27:49        ,-102.134866,32.004641
