OBJECTID,NAME,TYPE,TSA,STREET,CITY,COUNTY,ADDRESS,ZIP,LATITUDE,LONGITUDE,PFIZER_AVAILABLE,MODERNA_AVAILABLE,VACCINES_AVAILABLE,Total_Shipped,PublicPhone,WEBSITE,RemoveRecord,LAST_UPDATE_VAC,LAST_UPDATE_TIME_VAC,x,y
1,LAMB HEALTHCARE CENTER,Hospital,B,1500 S Sunset,Littlefield,Lamb,1500 S Sunset,79339,33.9118895604796,-102.345433906813,0,0,0,400,(806) 385-6411,http://www.lambhc.org/,,02/03/2021      ,07:23:05        ,-102.345434,33.91189
2,Vaxanation Mobile Vaccination Clinic,Other,,14655 North West Fwy,Houston,Harris,14655 North West Fwy,77040,29.8657613340139,-95.5393335574956,0,0,0,1000,8324609003,,,02/02/2021      ,12:13:01        ,-95.539334,29.865761
3,M And M Adult Clinic,Medical Practice,,4365 S Expressway 7783,Brownsville,Cameron,4365 S Expressway 7783,78520,25.9692784519722,-97.514114974772,0,0,0,200,(956) 350-4903,,,02/03/2021      ,10:22:36        ,-97.514115,25.969278
4,Dshs Phr 1 Hq - Lubbock (Re),Other,,6302 IOLA AVE,LUBBOCK,LUBBOCK,6302 IOLA AVE,79424,33.536149,-101.948222,0,0,0,300,,,,,,-101.948222,33.536149
5,STAT SPECIALTY HOSPITAL OF LAREDO,Hospital,T,2502 NE Bob Bullock Loop,Laredo,Webb,2502 Ne Bob Bullock Loop,78045,27.6129293477224,-99.4693166015062,0,0,0,6100,(830) 498-3000,http://www.statspecialtyhospital.com/,,02/02/2021      ,10:50:48        ,-99.469317,27.612929
6,Covenant Medical Group Northwest Clinic,Medical Practice,B,611 N Frankford Ave,Lubbock,Lubbock,611 N Frankford Ave,79416,33.607780827958,-101.939885915229,0,0,0,800,(806) 725-5480,https://www.covmedgroup.org/contact-us/locations/lubbock-area-primary-care/northwest/#llaid=6595,,,,-101.939886,33.607781
7,Uvalde Memorial Hospital,Vaccine Hub,P,1025 Garner Field Rd,Uvalde,Uvalde,1025 Garner Field Rd,78801,29.2150948086987,-99.7685500106039,0,0,0,4025,830-407-8022,http://www.umhtx.org/patient/covid-19-update/,,02/01/2021      ,10:13:22        ,-99.76855,29.215095
8,GALO A. RODARTE MD PA,Medical Practice,,ROBINSON AVE.,EL PASO,EL PASO,400 E. ROBINSON AVE STE A,79902,31.7773113774018,-106.500701551969,0,0,0,400,(915) 532-9220,,,02/01/2021      ,10:23:30        ,-106.500702,31.777311
9,SAINT CAMILLUS MEDICAL CENTER,Hospital,E,1612 Hurst Town Center Drive, Hurst,Tarrant,"1612 Hurst Town Center Drive, Hurst, TX, 76054",76054,32.842313,-97.188535,0,0,0,100,(817) 519-3700,,,02/03/2021      ,10:16:42        ,-97.188535,32.842313
10,Fort Bend Family Health Center Access Health - Brookshire,Community Clinic,,,Brookshire,Waller,533 Farm to Market 359 S.,77423,29.7743459,-95.9510651,0,0,0,1000,281-822-4235,,,02/03/2021      ,10:08:42        ,-95.951065,29.774346
11,Martin Luther King Clinic,Community Clinic,,1911 N Martin Luther King Jr Blvd,Waco,McLennan,1911 N Martin Luther King Jr Blvd,76704,31.5775270115479,-97.1416500197452,0,0,0,200,(254) 313-5000,http://www.mlkhealth.org/,,02/02/2021      ,17:22:41        ,-97.14165,31.577527
12,Kings Medicine,Medical Practice,,809 N Bryant St,Pleasanton,Atascosa,809 N Bryant St,78064,28.9666926250638,-98.4922013517899,0,0,0,1000,(830) 569-0051,,,02/02/2021      ,12:51:57        ,-98.492201,28.966693
13,Austin Family Allergy Asthma Pa,Medical Practice,,108012 N Mopac Expwy,Austin,Travis,108012 N Mopac Expwy,78759,30.398369,-97.730179,0,0,0,200,(512) 346-7936,https://familyallergyatx.com/,,02/03/2021      ,10:12:32        ,-97.730179,30.398369
14,DSHS Canyon,Local Health Department,,3407 Pony Express Way,Amarillo,RANDALL,3407 Pony Express Way,79118,35.112753,-101.783022,0,200,200,500,(806) 477-1100,,,02/03/2021      ,10:17:37        ,-101.783022,35.112753
15,Centromed Sap Culebra,Other,,9793 Culebra Rd Ste 105,San Antonio,Bexar,9793 Culebra Rd Ste 105,78251,29.4907189371303,-98.6810857306125,0,0,0,100,2106816439,,,02/03/2021      ,07:58:46        ,-98.681086,29.490719
16,Texas Vaccine Institute,Community Clinic,,21811 Katy Freeway,Katy,Harris,21811 Katy Freeway,77450,29.784639095787,-95.7476418724971,0,0,0,1100,(281) 828-1893,http://www.texasvaccineinstitute.com/,,02/03/2021      ,08:47:51        ,-95.747642,29.784639
17,SCENIC MOUNTAIN MEDICAL CENTER,Hospital,J,1601 W 11th Pl,Big Spring,Howard,1601 W 11th Pl,79720,32.2352099848144,-101.490588999116,0,0,0,700,(432) 263-1211,https://www.scenicmountainmedical.org/?utm_source=local-listing&utm_medium=organic&utm_campaign=website-link,,02/03/2021      ,08:58:46        ,-101.490589,32.23521
18,Grand Prairie Fire Department,Other,,,Grand Prairie,Dallas,"1525 Arkansas Ln, 3rd Floor",75052,32.7045726,-97.0280362,0,0,0,500,,,,,,-97.028036,32.704573
19,Su Clinica - Harlingen Adults,Other,,1706 Treasure Hills Blvd,Harlingen,Cameron,1706 Treasure Hills Blvd,78550,26.171616581301,-97.6679206593892,0,0,0,100,,,,,,-97.667921,26.171617
20,Texas Health Hospital Mansfield,Other,,2300 LONE STAR RD,Mansfield,Johnson,2300 LONE STAR RD Mansfield 76063,76063,,,0,0,0,100,(682) 341-5000,https://www.texashealth.org/locations/texas-health-mansfield,,,,,
21,Pediatric Group Of Central El Paso Zar,Medical Practice,,1512 N Zaragoza Rd Ste A1,El Paso,El Paso,1512 N Zaragoza Rd Ste A1,79936,31.739885632005,-106.290333668497,0,0,0,1000,(915) 855-7700,http://mdmedicalgroup.us/,,02/03/2021      ,08:33:59        ,-106.290334,31.739886
22,Md Progressive Care,Medical Practice,,3500 Oak Lawn Ave,Dallas,Dallas,3500 Oak Lawn Ave,75219,32.812246141402,-96.8052066288911,0,0,0,200,(214) 521-0100,http://www.mdprogressivecare.com/,,02/03/2021      ,09:55:52        ,-96.805207,32.812246
23,KPC PROMISE HOSPITAL OF DALLAS,Hospital,E,7955 Harry Hines Boulevard, Dallas,Dallas,"7955 Harry Hines Boulevard, Dallas, TX, 75235",75235,32.832703,-96.862071,0,0,0,100,(214) 583-6806,http://dallas.kpcph.com/,,02/03/2021      ,09:41:15        ,-96.862071,32.832703
24,Uhs Kenwood Clinic,Community Clinic,,302 Dora,San Antonio,Bexar,302 Dora,78212,29.4743524815301,-98.4960919797868,0,0,0,100,,http://www.universityhealthsystem.com/locations/kenwood-clinic,,01/22/2021      ,07:54:44        ,-98.496092,29.474352
25,BAYSIDE COMMUNITY HOSPITAL,Hospital,R,200 Hospital Dr, Anahuac,Chambers,"200 Hospital Dr, Anahuac, TX, 77514",77514,29.752586,-94.687343,0,300,300,500,(409) 267-3143,http://www.chambershealth.org/,,02/03/2021      ,09:46:34        ,-94.687343,29.752586
26,KINDRED HOSPITAL - NORTHWEST,Hospital,Q,11297 Fallbrook Dr,Houston,Harris,"11297 Fallbrook Dr, Houston, TX, 77065",77065,29.925443,-95.588706,0,0,0,100,(281) 517-1000,https://www.kindredhealthcare.com/locations/transitional-care-hospitals/kindred-hospital-houston-northwest,,,,-95.588706,29.925443
27,United Medical Center,Community Clinic,,,,,,,,,0,0,0,100,(830) 768-4800,,,,,,
28,Spring Branch Community Health Center Katy,Community Clinic,,5502 1st St,Katy,Harris,5502 1st Street,77493,29.7864666,-95.8201877,0,0,0,100,,,,01/30/2021      ,06:05:34        ,-95.820188,29.786467
29,DSHS - HSR 9/10 Brady,Local Health Department,,1004 S Bridge St,Brady,McCulloch,1004 S Bridge St,76825,31.1276523727587,-99.3350979403291,0,10,10,400,,,,01/28/2021      ,22:03:09        ,-99.335098,31.127652
30,Internal Medicine Associates Of Houston,Medical Practice,,10970 Shadow Creek Pkwy,Pearland,Brazoria,10970 Shadow Creek Pkwy,77584,29.5772850185527,-95.3887039680913,0,0,0,400,713-436-4566,http://www.internalmedhouston.com/,,02/02/2021      ,14:42:18        ,-95.388704,29.577285
31,Corner Drug Pharmacy,Pharmacy,,600 Bessemer Ave,Llano,Llano,600 Bessemer Ave,78643,30.7562638,-98.6751578,0,0,0,1000,,,,,,-98.675158,30.756264
32,Amarillo Medical Specialists Llp,Medical Practice,,1215 S Coulter St Ste 400,Amarillo,Potter,1215 S Coulter St Ste 400,79106,35.2025857167135,-101.921848752967,0,0,0,600,(806) 358-8331,http://www.amarillomed.com/,,02/01/2021      ,17:43:09        ,-101.921849,35.202586
33,"Magenta Clinics, Inc.",Other,,4949 Rittiman Rd,San Antonio,Bexar,"4949 Rittiman Road, San Antonio, TX, USA",78218,29.4845595,-98.3933892,0,0,0,200,,,,02/03/2021      ,09:31:16        ,-98.393389,29.48456
34,Friendly Neighborhood Health Clinic Pllc,Medical Practice,,617 E Loop 499,Harlingen,Cameron,617 E Loop 499,78550,26.2239590595589,-97.6907607343471,0,0,0,400,(956) 428-8264,http://www.myfnhc.com/,,02/02/2021      ,08:19:57        ,-97.690761,26.223959
35,Frontera Healthcare Network Mason Clinic,Community Clinic,,216 E College,Mason,Mason,216 E College,76856,30.7439074715339,-99.2287311699375,0,0,0,200,(325) 347-5926,http://www.fronterahn.org/,,02/02/2021      ,17:09:28        ,-99.228731,30.743907
36,Fondren Orthopedic Group LLP,Medical Practice,,7401 Main Street,Houston,Harris,7401 Main Street,77030,29.700667597214,-95.4094262120357,0,0,0,600,(713) 799-2300,http://www.fondren.com/?utm_source=GMBSocialClimb&utm_medium=FondrenOrthopedicGroupLLP,,01/21/2021      ,06:26:47        ,-95.409426,29.700668
37,Lockhart Family Practice Center,Other,,2060 S Colorado St,Lockhart,CALDWELL,2060 S Colorado St,78644,29.852514,-97.668149,0,20,20,100,,,,02/03/2021      ,10:06:47        ,-97.668149,29.852514
38,Christus Trinity Mother Frances - Athens,Other,,,Athens,,1505 Hwy 19 S,75751,32.17142851,-95.83294353,0,0,0,100,903-675-1725,,,02/02/2021      ,19:33:01        ,-95.832944,32.171429
39,Christus Trinity Clinic Of Canton,Community Clinic,,18780 I20 Service Road,Canton,Van Zandt,18780 I20 Service Road,75103,32.5870359701047,-95.8753892853274,0,0,0,1000,(903) 567-4841,https://www.christushealth.org/trinity/clinic/locations-directions/canton?utm_source=organic&utm_medium=GMB&utm_campaign=website&y_source=1_MTE3ODEyNjUtNzE1LWxvY2F0aW9uLmdvb2dsZV93ZWJzaXRlX292ZXJyaWRl,,02/03/2021      ,07:26:49        ,-95.875389,32.587036
40,Walgreens Pharmacy 03730,Other,,,Kerrville,KERR,628 Jefferson St.,78028,30.049129,-99.140238,0,0,0,200,,,,02/03/2021      ,09:10:45        ,-99.140238,30.049129
41,Chambers County Health Department,Vaccine Hub,,102 Airport Rd,Anahuac,Chambers,102 Airport Rd,77514,29.7748702390934,-94.6621177693188,0,0,0,4600,409-267-2460,https://www.co.chambers.tx.us/page/covidvaccine,,01/26/2021      ,08:24:01        ,-94.662118,29.77487
42,Ut Heath Westover Hills Clinic San An,Medical Practice,,11212 State Highway 151 Suit 100 Sa Tx 78251,San Antonio,Bexar,11212 State Highway 151 Suit 100 Sa Tx 78251,78251,29.4676746930381,-98.6947708936794,0,0,0,2000,2104509900,,,02/03/2021      ,09:13:53        ,-98.694771,29.467675
43,The Med-Shop Pharmacy,Pharmacy,,825 Us Hwy 271 N,Gilmer,Upshur,825 Us Hwy 271 N,75644,32.73956,-94.94229,0,0,0,100,,,,,,-94.94229,32.73956
44,Heb Pharmacy 647,Pharmacy,,8300 Floyd Curl Dr Ste 105,San Antonio,Bexar,8300 Floyd Curl Dr Ste 105,78229,29.5147048384676,-98.580613826506,0,0,0,2400,(210) 593-0291,https://www.heb.com/pharmacy?utm_source=google&utm_medium=organic&utm_campaign=gmb_pharmacy,,02/03/2021      ,08:05:00        ,-98.580614,29.514705
45,Heb Pharmacy 013,Pharmacy,,4031 E Us Highway 83,Rio Grande City,Starr,4031 E Us Highway 83,78582,26.3725209798032,-98.8003568845262,0,0,0,800,(956) 487-0905,https://www.heb.com/heb-store/US/tx/rio-grande-city/rio-grande-city-h-e-b-plus!-13?utm_source=google&utm_medium=organic&utm_campaign=gmb_pharmacy,,02/03/2021      ,08:05:00        ,-98.800357,26.372521
46,Heb Pharmacy 223,Pharmacy,,1115 E Main St,Alice,Jim Wells,1115 E Main St,78332,27.7513020801132,-98.064071423404,0,0,0,600,(361) 664-1344,https://www.heb.com/heb-store/US/tx/alice/alice-h-e-b-223?utm_source=google&utm_medium=organic&utm_campaign=gmb_pharmacy,,02/03/2021      ,08:05:00        ,-98.064071,27.751302
47,Heb Pharmacy 333,Pharmacy,,101 E Goodnight Ave,Aransas Pass,San Patricio,101 E Goodnight Ave,78336,27.902324761921,-97.1461248480193,0,0,0,900,(361) 758-9565,https://www.heb.com/heb-store/US/tx/aransas-pass/aransas-pass-h-e-b-333?utm_source=google&utm_medium=organic&utm_campaign=gmb_pharmacy,,02/03/2021      ,08:05:00        ,-97.146125,27.902325
48,Heb Pharmacy 006,Pharmacy,,2150 W Washington St,Stephenville,Erath,2150 W Washington St,76401,32.2094946830576,-98.226027310931,0,0,0,600,(281) 463-9148,https://www.heb.com/heb-store/US/tx/houston/bear-creek-h-e-b-553?utm_source=google&utm_medium=organic&utm_campaign=gmb_pharmacy,,02/03/2021      ,08:05:00        ,-98.226027,32.209495
49,Heb Pharmacy 107,Pharmacy,,101 S Clay St,Ennis,Ellis,101 S Clay St,75119,32.3248375916502,-96.6325758009371,0,0,0,400,,https://www.heb.com/heb-store/US/tx/ennis/ennis-h-e-b-107?utm_source=google&utm_medium=organic&utm_campaign=gmb_pharmacy,,02/03/2021      ,08:05:00        ,-96.632576,32.324838
50,Heb Pharmacy 562,Pharmacy,,1409 Highway 35 N,Rockport,Aransas,1409 Highway 35 N,78382,28.0380829513897,-97.0425472215834,0,0,0,700,(361) 729-0530,https://www.heb.com/heb-store/US/tx/rockport/rockport-h-e-b-562?utm_source=google&utm_medium=organic&utm_campaign=gmb_pharmacy,,02/03/2021      ,08:05:00        ,-97.042547,28.038083
51,Heb Pharmacy 401,Pharmacy,,409 E Kleberg,Kingsville,Kleberg,409 E Kleberg,78363,27.5166425283609,-97.863329871494,0,0,0,400,(361) 595-5641,https://www.heb.com/heb-store/US/tx/kingsville/kingsville-h-e-b-401?utm_source=google&utm_medium=organic&utm_campaign=gmb_pharmacy,,02/03/2021      ,08:05:00        ,-97.86333,27.516643
52,Heb Pharmacy 418,Pharmacy,,200 Veterans Blvd,Del Rio,Val Verde,200 Veterans Blvd,78840,29.3662975120201,-100.898238057689,0,0,0,400,(830) 774-4579,https://www.heb.com/heb-store/US/tx/del-rio/avenue-f-and-gibbs-h-e-b-418?utm_source=google&utm_medium=organic&utm_campaign=gmb_pharmacy,,02/03/2021      ,08:05:00        ,-100.898238,29.366298
53,Heb Pharmacy 475,Pharmacy,,1080 Highway 290 E,Elgin,Bastrop,1080 Highway 290 E,78621,30.3066210988216,-97.2997726805138,0,0,0,400,(512) 285-4719,https://www.heb.com/heb-store/US/tx/elgin/elgin-h-e-b-475?utm_source=google&utm_medium=organic&utm_campaign=gmb_pharmacy,,02/03/2021      ,08:05:00        ,-97.299773,30.306621
54,Heb Pharmacy 070,Pharmacy,,1345 Barrow St,Abilene,Taylor,1345 Barrow St,79605,32.43336785698,-99.7594405057651,0,0,0,400,(325) 690-5011,https://www.heb.com/heb-store/US/tx/abilene/abilene-h-e-b-70?utm_source=google&utm_medium=organic&utm_campaign=gmb_pharmacy,,02/03/2021      ,08:05:00        ,-99.759441,32.433368
55,Heb Pharmacy 419,Pharmacy,,2135 E Main,Eagle Pass,Maverick,2135 E Main,78852,28.708837539288,-100.484720301109,0,0,0,400,(830) 773-0420,https://www.heb.com/heb-store/US/tx/eagle-pass/eagle-pass-h-e-b-419?utm_source=google&utm_medium=organic&utm_campaign=gmb_pharmacy,,02/03/2021      ,08:05:00        ,-100.48472,28.708838
56,Heb Pharmacy 445,Pharmacy,,403 S Colorado St,Lockhart,Caldwell,403 S Colorado St,78644,29.8814636142372,-97.6696608856646,0,0,0,300,(512) 398-6797,https://www.heb.com/heb-store/US/tx/lockhart/lockhart-h-e-b-445?utm_source=google&utm_medium=organic&utm_campaign=gmb_pharmacy,,02/03/2021      ,08:05:00        ,-97.669661,29.881464
57,Heb Pharmacy 233,Pharmacy,,1616 N Alabama Rd,Wharton,Wharton,1616 N Alabama Rd,77488,29.3218540629938,-96.0847263113055,0,0,0,800,(979) 282-2883,https://www.heb.com/heb-store/US/tx/wharton/wharton-h-e-b-233?utm_source=google&utm_medium=organic&utm_campaign=gmb_pharmacy,,02/03/2021      ,08:05:00        ,-96.084726,29.321854
58,Heb Pharmacy 631,Pharmacy,,3804 Us Hwy 377,Granbury,Hood,3804 Us Hwy 377,76049,32.4561947549026,-97.7284741856758,0,0,0,400,(817) 579-2512,https://www.heb.com/heb-store/US/tx/granbury/granbury-h-e-b-631?utm_source=google&utm_medium=organic&utm_campaign=gmb_pharmacy,,02/03/2021      ,08:05:00        ,-97.728474,32.456195
59,Heb Pharmacy 424,Pharmacy,,609 19th St,Hondo,Medina,609 19th St,78861,29.3478525473493,-99.1356883566527,0,0,0,400,(830) 426-5312,https://www.heb.com/heb-store/US/tx/hondo/hondo-h-e-b-424?utm_source=google&utm_medium=organic&utm_campaign=gmb_pharmacy,,02/03/2021      ,08:05:00        ,-99.135688,29.347853
60,Heb Pharmacy 679,Pharmacy,,600 W Henderson St,Cleburne,Johnson,600 W Henderson St,76033,32.3462201200176,-97.393409450256,0,0,0,400,(817) 641-4036,https://www.heb.com/heb-store/US/tx/cleburne/cleburne-h-e-b-679?utm_source=google&utm_medium=organic&utm_campaign=gmb_pharmacy,,02/03/2021      ,08:05:00        ,-97.393409,32.34622
61,Heb Pharmacy 016,Pharmacy,,165 Nw John Jones Dr,Burleson,Johnson,165 Nw John Jones Dr,76028,32.5214211847696,-97.3494821459378,0,0,0,400,(210) 436-6465,https://www.heb.com/heb-store/US/tx/san-antonio/las-palmas-h-e-b-205?utm_source=google&utm_medium=organic&utm_campaign=gmb_pharmacy,,02/03/2021      ,08:05:00        ,-97.349482,32.521421
62,Heb Pharmacy 582,Pharmacy,,104 Hasler St,Bastrop,Bastrop,104 Hasler St,78602,30.1034725271647,-97.3250429599197,0,0,0,400,(512) 321-1033,https://www.heb.com/heb-store/US/tx/bastrop/bastrop-h-e-b-plus!-582?utm_source=google&utm_medium=organic&utm_campaign=gmb_pharmacy,,02/03/2021      ,08:05:00        ,-97.325043,30.103473
63,Heb Pharmacy 693,Pharmacy,,107 N Sunset Strip St,Kenedy,Karnes,107 N Sunset Strip St,78119,28.8160425419062,-97.8584805214122,0,0,0,500,(830) 583-9155,https://www.heb.com/heb-store/US/tx/kenedy/kenedy-h-e-b-693?utm_source=google&utm_medium=organic&utm_campaign=gmb_pharmacy,,02/03/2021      ,08:05:00        ,-97.858481,28.816043
64,Heb Pharmacy 467,Pharmacy,,701 E Milam St,Mexia,Limestone,701 E Milam St,76667,31.6842401640882,-96.4787035884702,0,0,0,400,(254) 562-5123,https://www.heb.com/heb-store/US/tx/mexia/mexia-h-e-b-467?utm_source=google&utm_medium=organic&utm_campaign=gmb_pharmacy,,02/03/2021      ,08:05:00        ,-96.478704,31.68424
65,Heb Pharmacy 426,Pharmacy,,800 N Hwy 77,Waxahachie,Ellis,800 N Hwy 77,75165,32.4119428323637,-96.8417508885454,0,0,0,400,(972) 923-2297,https://www.heb.com/heb-store/US/tx/waxahachie/waxahachie-h-e-b-426?utm_source=google&utm_medium=organic&utm_campaign=gmb_pharmacy,,02/03/2021      ,08:05:00        ,-96.841751,32.411943
66,Heb Pharmacy 415,Pharmacy,,17460 Ih 35 N,Schertz,Guadalupe,17460 Ih 35 N,78154,29.598045693523,-98.2792171921017,0,0,0,400,(210) 651-4148,https://www.heb.com/heb-store/US/tx/schertz/schertz-h-e-b-plus!-415?utm_source=google&utm_medium=organic&utm_campaign=gmb_pharmacy,,02/03/2021      ,08:05:00        ,-98.279217,29.598046
67,Heb Pharmacy 200,Pharmacy,,800 S Saint Marys St,Falfurrias,Brooks,800 S Saint Marys St,78355,27.2196115586998,-98.1452356549657,0,0,0,400,(830) 774-4579,https://www.heb.com/heb-store/US/tx/del-rio/avenue-f-and-gibbs-h-e-b-418?utm_source=google&utm_medium=organic&utm_campaign=gmb_pharmacy,,02/03/2021      ,08:05:00        ,-98.145236,27.219612
68,Heb Pharmacy 707,Pharmacy,,97 Oyster Creek Dr,Lake Jackson,Brazoria,97 Oyster Creek Dr,77566,29.041580560618,-95.4339205428728,0,0,0,400,(979) 299-0105,https://www.heb.com/heb-store/US/tx/lake-jackson/lake-jackson-h-e-b-707?utm_source=google&utm_medium=organic&utm_campaign=gmb_pharmacy,,02/03/2021      ,08:05:00        ,-95.433921,29.041581
69,Heb Pharmacy 727,Pharmacy,,23500 Berry Pkwy,Richmond,Fort Bend,23500 Berry Pkwy,77469,29.699688728956,-95.769589588573,0,0,0,200,(832) 595-5337,https://www.heb.com/heb-store/US/tx/richmond/richmond-market-h-e-b-727?utm_source=google&utm_medium=organic&utm_campaign=gmb_stores,,02/03/2021      ,08:05:00        ,-95.76959,29.699689
70,Heb Pharmacy 412,Pharmacy,,100 E Houston St,Beeville,Bee,100 E Houston St,78102,28.4011830940848,-97.7475762915553,0,0,0,400,(361) 358-3737,https://www.heb.com/heb-store/US/tx/beeville/beeville-h-e-b-412?utm_source=google&utm_medium=organic&utm_campaign=gmb_pharmacy,,02/03/2021      ,08:05:00        ,-97.747576,28.401183
71,Heb Pharmacy 488,Pharmacy,,1600 Wildcat Dr,Portland,San Patricio,1600 Wildcat Dr,78374,27.8870900012027,-97.3190389188556,0,0,0,900,(361) 643-1514,https://www.heb.com/heb-store/US/tx/portland/portland-h-e-b-488?utm_source=google&utm_medium=organic&utm_campaign=gmb_pharmacy,,02/03/2021      ,08:05:00        ,-97.319039,27.88709
72,Heb Pharmacy 584,Pharmacy,,306 N Mechanic St,El Campo,Wharton,306 N Mechanic St,77437,29.1980786664404,-96.2709468865164,0,0,0,400,(979) 578-8609,https://www.heb.com/heb-store/US/tx/el-campo/el-campo-h-e-b-584?utm_source=google&utm_medium=organic&utm_campaign=gmb_pharmacy,,02/03/2021      ,08:05:00        ,-96.270947,29.198079
73,Heb Pharmacy 716,Pharmacy,,1340 E Court St,Seguin,Guadalupe,1340 E Court St,78155,29.5691304745013,-97.9447709573176,0,0,0,400,(830) 379-0160,https://www.heb.com/heb-store/US/tx/seguin/seguin-h-e-b-716?utm_source=google&utm_medium=organic&utm_campaign=gmb_pharmacy,,02/03/2021      ,08:05:00        ,-97.944771,29.56913
74,Heb Pharmacy 161,Pharmacy,,7112 Ed Bluestein Blvd Ste 125,Austin,Travis,7112 Ed Bluestein Blvd Ste 125,78723,30.3126013577007,-97.6628263105154,0,0,0,400,(512) 926-1491,https://www.heb.com/heb-store/US/tx/austin/ed-blustein-h-e-b-161?utm_source=google&utm_medium=organic&utm_campaign=gmb_stores,,02/03/2021      ,08:05:00        ,-97.662826,30.312601
75,Heb Pharmacy 699,Pharmacy,,1601 Nogalitos St,San Antonio,Bexar,1601 Nogalitos St,78204,29.3974178002205,-98.514405851492,0,0,0,200,(210) 229-1825,https://www.heb.com/heb-store/US/tx/san-antonio/nogalitos-h-e-b-699?utm_source=google&utm_medium=organic&utm_campaign=gmb_pharmacy,,02/03/2021      ,08:05:00        ,-98.514406,29.397418
76,Heb Pharmacy 441,Pharmacy,,227 E Main St,Uvalde,Uvalde,227 E Main St,78801,29.2106212443599,-99.7826803804937,0,0,0,400,(830) 278-2581,https://www.heb.com/heb-store/US/tx/uvalde/uvalde-h-e-b-441?utm_source=google&utm_medium=organic&utm_campaign=gmb_pharmacy,,02/03/2021      ,08:05:00        ,-99.78268,29.210621
77,Heb Pharmacy 630,Pharmacy,,1701 W Alabama St,Houston,Harris,1701 W Alabama St,77098,29.7386176696691,-95.4026999023755,0,0,0,400,(713) 807-7293,https://www.heb.com/heb-store/US/tx/houston/montrose-market-h-e-b-630?utm_source=google&utm_medium=organic&utm_campaign=gmb_pharmacy,,02/03/2021      ,08:05:00        ,-95.4027,29.738618
78,Heb Pharmacy 020,Pharmacy,,24224 Northwest Fwy,Cypress,Harris,24224 Northwest Fwy,77429,29.9537808886815,-95.6735568633854,0,0,0,400,(210) 491-9508,https://www.heb.com/heb-store/US/tx/san-antonio/thousand-oaks-and-jones-maltsberger-h-e-b-398?utm_source=google&utm_medium=organic&utm_campaign=gmb_stores,,02/03/2021      ,08:05:00        ,-95.673557,29.953781
79,Heb Pharmacy 019,Pharmacy,,19337 Mcdonald St,Lytle,Atascosa,19337 Mcdonald St,78052,29.2326917645016,-98.7894051603998,0,0,0,200,(254) 753-2226,https://www.heb.com/heb-store/US/tx/waco/19th-and-meridian-h-e-b-64?utm_source=google&utm_medium=organic&utm_campaign=gmb_pharmacy,,02/03/2021      ,08:05:00        ,-98.789405,29.232692
80,Heb Pharmacy 071,Pharmacy,,1314 W Adams,Temple,Bell,1314 W Adams,76501,31.1012864257683,-97.3538123338268,0,0,0,200,(512) 263-0561,https://www.heb.com/heb-store/US/tx/bee-cave/bee-caves-h-e-b-404?utm_source=google&utm_medium=organic&utm_campaign=gmb_pharmacy,,02/03/2021      ,08:05:00        ,-97.353812,31.101286
81,Heb Pharmacy 414,Pharmacy,,2508 S Day St,Brenham,Washington,2508 S Day St,77833,30.1446595648977,-96.396267235464,0,0,0,400,(979) 277-0906,https://www.heb.com/heb-store/US/tx/brenham/brenham-h-e-b-414?utm_source=google&utm_medium=organic&utm_campaign=gmb_pharmacy,,02/03/2021      ,08:05:00        ,-96.396267,30.14466
82,Heb Pharmacy 433,Pharmacy,,105 S Boundary St,Burnet,Burnet,105 S Boundary St,78611,30.7584481876151,-98.2243194981588,0,0,0,200,(512) 715-0701,https://www.heb.com/heb-store/US/tx/burnet/burnet-h-e-b-433?utm_source=google&utm_medium=organic&utm_campaign=gmb_pharmacy,,02/03/2021      ,08:05:00        ,-98.224319,30.758448
83,Heb Pharmacy 403,Pharmacy,,1207 E Main St,Gatesville,Coryell,1207 E Main St,76528,31.4349274949334,-97.7426879656234,0,0,0,200,(512) 398-6797,https://www.heb.com/heb-store/US/tx/lockhart/lockhart-h-e-b-445?utm_source=google&utm_medium=organic&utm_campaign=gmb_pharmacy,,02/03/2021      ,08:05:00        ,-97.742688,31.434927
84,Heb Pharmacy 659,Pharmacy,,14028 North Us 183,Austin,Williamson,14028 North Us 183,78717,30.4768165655426,-97.8013943162314,0,0,0,200,(512) 249-9886,https://www.heb.com/heb-store/US/tx/austin/lakeline-h-e-b-plus!-659?utm_source=google&utm_medium=organic&utm_campaign=gmb_pharmacy,,02/03/2021      ,08:05:00        ,-97.801394,30.476817
85,Heb Pharmacy 191,Pharmacy,,4821 Broadway St,San Antonio,Bexar,4821 Broadway St,78209,29.4705416492515,-98.4634173933715,0,0,0,600,(432) 699-2331,https://www.heb.com/heb-store/US/tx/midland/midland-loop-250-h-e-b-717?utm_source=google&utm_medium=organic&utm_campaign=gmb_pharmacy,,02/03/2021      ,08:05:00        ,-98.463417,29.470542
86,Heb Pharmacy 583,Pharmacy,,9100 Woodway Dr,Waco,McLennan,9100 Woodway Dr,76712,31.495884843867,-97.2222555974601,0,0,0,200,(254) 751-0912,https://www.heb.com/heb-store/US/tx/woodway/woodway-h-e-b-plus!-583?utm_source=google&utm_medium=organic&utm_campaign=gmb_pharmacy,,02/03/2021      ,08:05:00        ,-97.222256,31.495885
87,Heb Pharmacy 734,Pharmacy,,5502 Sherwood Way,San Angelo,Tom Green,5502 Sherwood Way,76901,31.4311120106984,-100.511117009684,0,0,0,200,(325) 223-0771,https://www.heb.com/heb-store/US/tx/san-angelo/san-angelo-h-e-b-734?utm_source=google&utm_medium=organic&utm_campaign=gmb_pharmacy,,02/03/2021      ,08:05:00        ,-100.511117,31.431112
88,Heb Pharmacy 596,Pharmacy,,6711 South Fry Rd,Katy,Fort Bend,6711 South Fry Rd,77494,29.7144837396752,-95.7751482612338,0,0,0,200,(281) 392-1188,https://www.heb.com/heb-store/US/tx/katy/grand-parkway-h-e-b-plus!-596?utm_source=google&utm_medium=organic&utm_campaign=gmb_pharmacy,,02/03/2021      ,08:05:00        ,-95.775148,29.714484
89,Heb Pharmacy 202,Pharmacy,,5808 Burnet Rd,Austin,Travis,5808 Burnet Rd,78756,30.3341232241756,-97.7399573092072,0,0,0,200,(512) 454-6691,https://www.heb.com/heb-store/US/tx/austin/burnet-rd-h-e-b-202?utm_source=google&utm_medium=organic&utm_campaign=gmb_pharmacy,,02/03/2021      ,08:05:00        ,-97.739957,30.334123
90,Heb Pharmacy 711,Pharmacy,,2501 W University Blvd,Odessa,Ector,2501 W University Blvd,79764,31.8615997265378,-102.411341733491,0,0,0,200,(432) 332-0475,https://www.heb.com/heb-store/US/tx/odessa/university-blvd.-h-e-b-711?utm_source=google&utm_medium=organic&utm_campaign=gmb_pharmacy,,02/03/2021      ,08:05:00        ,-102.411342,31.8616
91,Heb Pharmacy 477,Pharmacy,,15300 Ih 35 S,Buda,Hays,15300 Ih 35 S,78610,30.0873767999912,-97.8202350123184,0,0,0,200,(512) 312-0907,https://www.heb.com/heb-store/US/tx/buda/buda-h-e-b-477?utm_source=google&utm_medium=organic&utm_campaign=gmb_pharmacy,,02/03/2021      ,08:05:00        ,-97.820235,30.087377
92,Heb Pharmacy 351,Pharmacy,,103 W Elm St,Edna,Jackson,103 W Elm St,77957,28.9793615289875,-96.6471013998212,0,0,0,500,(361) 781-0789,https://www.heb.com/pharmacy?utm_source=google&utm_medium=organic&utm_campaign=gmb_pharmacy,,02/03/2021      ,08:05:00        ,-96.647101,28.979362
93,Heb Pharmacy 641,Pharmacy,,1841 Church St,Gonzales,Gonzales,1841 Church St,78629,29.5180672917132,-97.4509380559678,0,0,0,200,(830) 672-6590,https://www.heb.com/heb-store/US/tx/gonzales/gonzales-h-e-b-641?utm_source=google&utm_medium=organic&utm_campaign=gmb_pharmacy,,02/03/2021      ,08:05:00        ,-97.450938,29.518067
94,Heb Pharmacy 662,Pharmacy,,3502 Palmer Highway,Texas City,Galveston,3502 Palmer Highway,77590,29.3954421419569,-94.9490609682349,0,0,0,200,(409) 943-4249,https://www.heb.com/heb-store/US/tx/texas-city/texas-city-h-e-b-662?utm_source=google&utm_medium=organic&utm_campaign=gmb_pharmacy,,02/03/2021      ,08:05:00        ,-94.949061,29.395442
95,Heb Pharmacy 721,Pharmacy,,1101 W Stan Schlueter Lp,Killeen,Bell,1101 W Stan Schlueter Lp,76542,31.0783945261869,-97.7593796037879,0,0,0,200,(254) 226-3600,https://www.heb.com/pharmacy?utm_source=google&utm_medium=organic&utm_campaign=gmb_pharmacy,,02/03/2021      ,08:05:00        ,-97.75938,31.078395
96,Heb Pharmacy 448,Pharmacy,,2206 W Palma Vista,Mission,Hidalgo,2206 W Palma Vista,78572,26.2340951912633,-98.3788407034754,0,0,0,200,(956) 585-3959,https://www.heb.com/heb-store/US/tx/palmview/palmview-h-e-b-448?utm_source=google&utm_medium=organic&utm_campaign=gmb_pharmacy,,02/03/2021      ,08:05:00        ,-98.378841,26.234095
97,Heb Pharmacy 712,Pharmacy,,909 E Broadway St,Cuero,DeWitt,909 E Broadway St,77954,29.0899237846443,-97.2799696108699,0,0,0,200,(361) 275-8934,https://www.heb.com/heb-store/US/tx/cuero/cuero-h-e-b-712?utm_source=google&utm_medium=organic&utm_campaign=gmb_pharmacy,,02/03/2021      ,08:05:00        ,-97.27997,29.089924
98,Heb Pharmacy 564,Pharmacy,,130 Sawdust Rd,Spring,Montgomery,130 Sawdust Rd,77380,30.1267497009259,-95.4457084533971,0,0,0,200,(281) 292-0774,https://www.heb.com/heb-store/US/tx/spring/woodlands-1-h-e-b-564?utm_source=google&utm_medium=organic&utm_campaign=gmb_pharmacy,,02/03/2021      ,08:05:00        ,-95.445708,30.12675
99,Heb Pharmacy 660,Pharmacy,,3575 West Davis St,Conroe,Montgomery,3575 West Davis St,77304,30.3235110085753,-95.4914211524865,0,0,0,200,(936) 760-6810,https://www.heb.com/heb-store/US/tx/conroe/conroe-market-h-e-b-660?utm_source=google&utm_medium=organic&utm_campaign=gmb_pharmacy,,02/03/2021      ,08:05:00        ,-95.491421,30.323511
100,Heb Pharmacy 270,Pharmacy,,5425 S Padre Island,Corpus Christi,Nueces,5425 S Padre Island,78411,27.7099704126405,-97.3753922979234,0,0,0,200,(361) 992-6996,https://www.heb.com/heb-store/US/tx/corpus-christi/blanche-moore-and-spid-h-e-b-270?utm_source=google&utm_medium=organic&utm_campaign=gmb_pharmacy,,02/03/2021      ,08:05:00        ,-97.375392,27.70997
101,Heb Pharmacy 205,Pharmacy,,721 Castroville Rd,San Antonio,Bexar,721 Castroville Rd,78237,29.4166572854935,-98.5538764011832,0,0,0,200,(210) 436-6465,https://www.heb.com/heb-store/US/tx/san-antonio/las-palmas-h-e-b-205?utm_source=google&utm_medium=organic&utm_campaign=gmb_pharmacy,,02/03/2021      ,08:05:00        ,-98.553876,29.416657
102,Heb Pharmacy 094,Pharmacy,,2409 East Expressway 83,Mission,Hidalgo,2409 East Expressway 83,78572,26.1961910241507,-98.2876854965682,0,0,0,200,(817) 579-2512,https://www.heb.com/heb-store/US/tx/granbury/granbury-h-e-b-631?utm_source=google&utm_medium=organic&utm_campaign=gmb_pharmacy,,02/03/2021      ,08:05:00        ,-98.287685,26.196191
103,Heb Pharmacy 563,Pharmacy,,19900 Southwest Frwy,Sugar Land,Fort Bend,19900 Southwest Frwy,77479,29.5648489983589,-95.6861539910017,0,0,0,200,(281) 239-2055,https://www.heb.com/heb-store/US/tx/sugar-land/riverpark-h-e-b-563?utm_source=google&utm_medium=organic&utm_campaign=gmb_pharmacy,,02/03/2021      ,08:05:00        ,-95.686154,29.564849
104,Heb Pharmacy 555,Pharmacy,,910 Kitty Hawk Rd,Universal City,Bexar,910 Kitty Hawk Rd,78148,29.5478449666626,-98.3128769874164,0,0,0,200,(210) 945-2120,https://www.heb.com/heb-store/US/tx/universal-city/kitty-hawk-h-e-b-555?utm_source=google&utm_medium=organic&utm_campaign=gmb_pharmacy,,02/03/2021      ,08:05:00        ,-98.312877,29.547845
105,Heb Pharmacy 593,Pharmacy,,100 Carlos G Parker,Taylor,Williamson,100 Carlos G Parker,76574,30.602560001706,-97.4187780345878,0,0,0,200,(512) 352-2024,https://www.heb.com/heb-store/US/tx/taylor/taylor-h-e-b-593?utm_source=google&utm_medium=organic&utm_campaign=gmb_pharmacy,,02/03/2021      ,08:05:00        ,-97.418778,30.60256
106,Heb Pharmacy 722,Pharmacy,,7988 Fm 1488 Rd,Magnolia,Montgomery,7988 Fm 1488 Rd,77354,30.2231969918232,-95.5846189686957,0,0,0,100,(281) 252-0069,https://www.heb.com/heb-store/US/tx/magnolia/magnolia-market-h-e-b-722?exp=instoreview?utm_source=google&utm_medium=organic&utm_campaign=gmb_pharmacy,,02/03/2021      ,08:05:00        ,-95.584619,30.223197
107,Heb Pharmacy 770,Pharmacy,,300 Main St,Kerrville,Kerr,300 Main St,78028,30.050829942362,-99.1444210424759,0,0,0,400,(830) 896-0227,https://www.heb.com/heb-store/US/tx/kerrville/kerrville-h-e-b-on-main-street-770?utm_source=google&utm_medium=organic&utm_campaign=gmb_pharmacy,,02/03/2021      ,08:05:00        ,-99.144421,30.05083
108,Heb Pharmacy 446,Pharmacy,,2155 Paredes Line Rd,Brownsville,Cameron,2155 Paredes Line Rd,78521,25.949846141017,-97.4871156911776,0,0,0,200,(956) 574-9707,https://www.heb.com/heb-store/US/tx/brownsville/paredes-and-torres-h-e-b-plus!-446?utm_source=google&utm_medium=organic&utm_campaign=gmb_pharmacy,,02/03/2021      ,08:05:00        ,-97.487116,25.949846
109,Heb Pharmacy 626,Pharmacy,,1095 West Business Hwy 77,San Benito,Cameron,1095 West Business Hwy 77,78586,26.1453660187057,-97.6368449803613,0,0,0,200,(956) 399-5046,https://www.heb.com/heb-store/US/tx/san-benito/san-benito-h-e-b-626?utm_source=google&utm_medium=organic&utm_campaign=gmb_pharmacy,,02/03/2021      ,08:05:00        ,-97.636845,26.145366
110,Heb Pharmacy 619,Pharmacy,,949 William D Fitch Pkwy,College Station,Brazos,949 William D Fitch Pkwy,77845,30.5577813184626,-96.2598973588368,0,0,0,200,(979) 690-4940,https://www.heb.com/heb-store/US/tx/college-station/tower-point-market-h-e-b-619?utm_source=google&utm_medium=organic&utm_campaign=gmb_stores,,02/03/2021      ,08:05:00        ,-96.259897,30.557781
111,Heb Pharmacy 139,Pharmacy,,5801 Weber Rd,Corpus Christi,Nueces,5801 Weber Rd,78413,27.7116655687391,-97.4048856168079,0,0,0,300,(361) 854-8441,https://www.heb.com/heb-store/US/tx/corpus-christi/weber-and-holly-h-e-b-139?utm_source=google&utm_medium=organic&utm_campaign=gmb_pharmacy,,02/03/2021      ,08:05:00        ,-97.404886,27.711666
112,Heb Pharmacy 574,Pharmacy,,28520 State Highway 249,Tomball,Harris,28520 State Highway 249,77375,30.0878227541745,-95.6356826490071,0,0,0,200,(281) 351-1972,https://www.heb.com/heb-store/US/tx/tomball/tomball-h-e-b-574?utm_source=google&utm_medium=organic&utm_campaign=gmb_pharmacy,,02/03/2021      ,08:05:00        ,-95.635683,30.087823
113,Heb Pharmacy 476,Pharmacy,,500 Canyon Ridge Dr,Austin,Travis,500 Canyon Ridge Dr,78753,30.4052670162196,-97.6718899689949,0,0,0,200,(512) 973-8753,https://www.heb.com/heb-store/US/tx/austin/tech-ridge-h-e-b-476?utm_source=google&utm_medium=organic&utm_campaign=gmb_pharmacy,,02/03/2021      ,08:05:00        ,-97.67189,30.405267
114,Heb Pharmacy 735,Pharmacy,,1503 Fm 1431,Marble Falls,Burnet,1503 Fm 1431,78654,30.5814152260226,-98.2791173636349,0,0,0,200,(210) 927-6875,https://www.heb.com/heb-store/US/tx/san-antonio/military-and-pleasanton-h-e-b-427?utm_source=google&utm_medium=organic&utm_campaign=gmb_pharmacy,,02/03/2021      ,08:05:00        ,-98.279117,30.581415
115,Heb Pharmacy 091,Pharmacy,,2508 E Riverside Dr,Austin,Travis,2508 E Riverside Dr,78741,30.2365939972161,-97.722119026688,0,0,0,200,(512) 448-3353,https://www.heb.com/heb-store/US/tx/austin/riverside-h-e-b-plus!-91?utm_source=google&utm_medium=organic&utm_campaign=gmb_pharmacy,,02/03/2021      ,08:05:00        ,-97.722119,30.236594
116,Heb Pharmacy 543,Pharmacy,,1900 Texas Ave S,College Station,Brazos,1900 Texas Ave S,77840,30.6138660575325,-96.3175614999226,0,0,0,200,(979) 693-1238,https://www.heb.com/heb-store/US/tx/college-station/college-station-h-e-b-543?utm_source=google&utm_medium=organic&utm_campaign=gmb_pharmacy,,02/03/2021      ,08:05:00        ,-96.317561,30.613866
117,Heb Pharmacy 423,Pharmacy,,1301 Wooded Acres Dr,Waco,McLennan,1301 Wooded Acres Dr,76710,31.5328575864122,-97.1893542805636,0,0,0,200,(254) 776-7040,https://www.heb.com/heb-store/US/tx/waco/wooded-acres-h-e-b-423?utm_source=google&utm_medium=organic&utm_campaign=gmb_stores,,02/03/2021      ,08:05:00        ,-97.189354,31.532858
118,Heb Pharmacy 237,Pharmacy,,1101 S Interstate 35,Georgetown,Williamson,1101 S Interstate 35,78626,30.6345276164982,-97.6900864940553,0,0,0,200,(512) 869-4287,https://www.heb.com/heb-store/US/tx/georgetown/georgetown-h-e-b-237?utm_source=google&utm_medium=organic&utm_campaign=gmb_pharmacy,,02/03/2021      ,08:05:00        ,-97.690086,30.634528
119,Heb Pharmacy 211,Pharmacy,,415 N New Braunfels Ave,San Antonio,Bexar,415 N New Braunfels Ave,78202,29.4246990091283,-98.4612874679556,0,0,0,200,(210) 226-8642,https://www.heb.com/heb-store/US/tx/san-antonio/new-braunfels-and-houston-h-e-b-211?utm_source=google&utm_medium=organic&utm_campaign=gmb_pharmacy,,02/03/2021      ,08:05:00        ,-98.461287,29.424699
120,Heb Pharmacy 638,Pharmacy,,3601 Fm 1488 Rd,Conroe,Montgomery,3601 Fm 1488 Rd,77384,30.225869016827,-95.5196869631855,0,0,0,200,(936) 321-2748,https://www.heb.com/heb-store/US/tx/the-woodlands/north-woodlands-market-h-e-b-638?utm_source=google&utm_medium=organic&utm_campaign=gmb_pharmacy,,02/03/2021      ,08:05:00        ,-95.519687,30.225869
121,Heb Pharmacy 291,Pharmacy,,613 S Exp Hwy 83,Harlingen,Cameron,613 S Exp Hwy 83,78550,26.1863544303924,-97.7154610317778,0,0,0,200,(210) 490-5593,https://www.heb.com/heb-store/US/tx/san-antonio/281-and-1604-h-e-b-397?utm_source=google&utm_medium=organic&utm_campaign=gmb_pharmacy,,02/03/2021      ,08:05:00        ,-97.715461,26.186354
122,Heb Pharmacy 639,Pharmacy,,1801 East 51st St,Austin,Travis,1801 East 51st St,78723,30.3023987683941,-97.6975224156389,0,0,0,200,(512) 474-2662,https://www.heb.com/heb-store/US/tx/austin/mueller-h-e-b-639?utm_source=google&utm_medium=organic&utm_campaign=gmb_pharmacy,,02/03/2021      ,08:05:00        ,-97.697522,30.302399
123,Heb Pharmacy 034,Pharmacy,,3750 Gattis School Rd,Round Rock,Williamson,3750 Gattis School Rd,78664,30.4973072281565,-97.6153359271657,0,0,0,200,(210) 657-0322,https://www.heb.com/heb-store/US/tx/san-antonio/montgomery-at-walzem-384?utm_source=google&utm_medium=organic&utm_campaign=gmb_pharmacy,,02/03/2021      ,08:05:00        ,-97.615336,30.497307
124,Heb Pharmacy 554,Pharmacy,,1505 E Rio Grande,Victoria,Victoria,1505 E Rio Grande,77901,28.8063430454609,-96.9886000719799,0,0,0,300,(361) 572-8001,https://www.heb.com/heb-store/US/tx/victoria/59-and-lauren-h-e-b-554?utm_source=google&utm_medium=organic&utm_campaign=gmb_pharmacy,,02/03/2021      ,08:05:00        ,-96.9886,28.806343
125,Heb Pharmacy 571,Pharmacy,,200 E Griffin Pkwy,Mission,Hidalgo,200 E Griffin Pkwy,78572,26.229437387655,-98.3221213046099,0,0,0,200,(956) 424-7920,https://www.heb.com/heb-store/US/tx/mission/conway-and-griffin-pkwy-571?utm_source=google&utm_medium=organic&utm_campaign=gmb_pharmacy,,02/03/2021      ,08:05:00        ,-98.322121,26.229437
126,Heb Pharmacy 184,Pharmacy,,11158 Leopard St,Corpus Christi,Nueces,11158 Leopard St,78410,27.8454122449485,-97.5852238561888,0,0,0,200,(361) 241-0378,https://www.heb.com/heb-store/US/tx/corpus-christi/leopard-and-violet-h-e-b-184?utm_source=google&utm_medium=organic&utm_campaign=gmb_pharmacy,,02/03/2021      ,08:05:00        ,-97.585224,27.845412
127,Heb Pharmacy 702,Pharmacy,,200 W Expressway 83,Mcallen,Hidalgo,200 W Expressway 83,78501,26.1889311928466,-98.2251752227057,0,0,0,200,(956) 630-2911,https://www.heb.com/heb-store/US/tx/mcallen/south-2nd-street-h-e-b-702?utm_source=google&utm_medium=organic&utm_campaign=gmb_pharmacy,,02/03/2021      ,08:05:00        ,-98.225175,26.188931
128,Heb Pharmacy 686,Pharmacy,,26500 Kuykendahl Rd,Tomball,Harris,26500 Kuykendahl Rd,77375,30.143606116557,-95.5487528861032,0,0,0,200,(281) 255-2248,https://www.heb.com/heb-store/US/tx/tomball/creekside-park-h-e-b-686?utm_source=google&utm_medium=organic&utm_campaign=gmb_pharmacy,,02/03/2021      ,08:05:00        ,-95.548753,30.143606
129,Heb Pharmacy 178,Pharmacy,,6839 San Pedro Ave,San Antonio,Bexar,6839 San Pedro Ave,78216,29.5035927453674,-98.4993072413257,0,0,0,200,(210) 979-8660,https://www.heb.com/heb-store/US/tx/san-antonio/san-pedro-and-oblate-h-e-b-178?utm_source=google&utm_medium=organic&utm_campaign=gmb_pharmacy,,02/03/2021      ,08:05:00        ,-98.499307,29.503593
130,Heb Pharmacy 183,Pharmacy,,9414 N Lamar Blvd,Austin,Travis,9414 N Lamar Blvd,78753,30.3643013445496,-97.6963650424486,0,0,0,200,(512) 528-7777,https://www.heb.com/heb-store/US/tx/leander/leander-h-e-b-plus!-592?utm_source=google&utm_medium=organic&utm_campaign=gmb_pharmacy,,02/03/2021      ,08:05:00        ,-97.696365,30.364301
131,Heb Pharmacy 230,Pharmacy,,14087 Oconnor Rd,San Antonio,Bexar,14087 Oconnor Rd,78247,29.5703245185177,-98.3860743038293,0,0,0,200,(210) 637-0033,https://www.heb.com/heb-store/US/tx/san-antonio/nacogdoches-and-o'connor-h-e-b-230?utm_source=google&utm_medium=organic&utm_campaign=gmb_pharmacy,,02/03/2021      ,08:05:00        ,-98.386074,29.570325
132,Heb Pharmacy 168,Pharmacy,,1103 Morgan Blvd,Harlingen,Cameron,1103 Morgan Blvd,78550,26.2029589136146,-97.6764987584562,0,0,0,200,(956) 440-1787,https://www.heb.com/heb-store/US/tx/harlingen/morgan-and-grimes-h-e-b-168?utm_source=google&utm_medium=organic&utm_campaign=gmb_pharmacy,,02/03/2021      ,08:05:00        ,-97.676499,26.202959
133,Heb Pharmacy 226,Pharmacy,,Conway And 8th St,Mission,Hidalgo,Conway And 8th St,78572,26.2132300558562,-98.3261399242683,0,0,0,200,(956) 581-2173,https://www.heb.com/heb-store/US/tx/mission/conway-and-9th-st-h-e-b-226?utm_source=google&utm_medium=organic&utm_campaign=gmb_pharmacy,,02/03/2021      ,08:05:00        ,-98.32614,26.21323
134,Heb Pharmacy 752,Pharmacy,,100 Hudson Oaks Dr,Weatherford,Parker,100 Hudson Oaks Dr,76087,32.7528526041437,-97.6991925936655,0,0,0,200,(817) 599-6422,https://www.heb.com/pharmacy,,02/03/2021      ,08:05:00        ,-97.699193,32.752853
135,Heb Pharmacy 622,Pharmacy,,20725 Hwy 46 West,Spring Branch,Comal,20725 Hwy 46 West,78070,29.7960879792441,-98.4299509685626,0,0,0,200,(830) 438-3000,https://www.heb.com/heb-store/US/tx/spring-branch/bulverde-h-e-b-plus!-622?utm_source=google&utm_medium=organic&utm_campaign=gmb_stores,,02/03/2021      ,08:05:00        ,-98.429951,29.796088
136,Heb Pharmacy 210,Pharmacy,,4320 S Alameda St,Corpus Christi,Nueces,4320 S Alameda St,78412,27.7294994926684,-97.3714264004357,0,0,0,200,(210) 687-1072,https://www.heb.com/heb-store/US/tx/san-antonio/leon-springs-h-e-b-566?utm_source=google&utm_medium=organic&utm_campaign=gmb_pharmacy,,02/03/2021      ,08:05:00        ,-97.371426,27.729499
137,Heb Pharmacy 644,Pharmacy,,1609 N Texas Ave,Bryan,Brazos,1609 N Texas Ave,77803,30.6896012465889,-96.3733024971434,0,0,0,200,(979) 778-2074,https://www.heb.com/heb-store/US/tx/bryan/bryan-h-e-b-644?utm_source=google&utm_medium=organic&utm_campaign=gmb_pharmacy,,02/03/2021      ,08:05:00        ,-96.373302,30.689601
138,Heb Pharmacy 700,Pharmacy,,540 W 5th Street,Odessa,Ector,540 W 5th Street,79761,31.8460204088344,-102.374180062848,0,0,0,200,(361) 325-2910,https://www.heb.com/heb-store/US/tx/falfurrias/falfurrias-h-e-b-200?utm_source=google&utm_medium=organic&utm_campaign=gmb_pharmacy,,02/03/2021      ,08:05:00        ,-102.37418,31.84602
139,Heb Pharmacy 462,Pharmacy,,3033 S Port Ave,Corpus Christi,Nueces,3033 S Port Ave,78405,27.7668131691249,-97.4202655709446,0,0,0,300,(361) 883-0875,https://www.heb.com/heb-store/US/tx/corpus-christi/s-port-and-tarlton-h-e-b-462?utm_source=google&utm_medium=organic&utm_campaign=gmb_pharmacy,,02/03/2021      ,08:05:00        ,-97.420266,27.766813
140,Heb Pharmacy 092,Pharmacy,,6106 N Navarro,Victoria,Victoria,6106 N Navarro,77904,28.8517020078617,-96.9949539736821,0,0,0,300,(210) 666-1212,https://www.heb.com/heb-store/US/tx/san-antonio/foster-rd-h-e-b-294?utm_source=google&utm_medium=organic&utm_campaign=gmb_pharmacy,,02/03/2021      ,08:05:00        ,-96.994954,28.851702
141,Heb Pharmacy 136,Pharmacy,,1213 S Commerce St,Harlingen,Cameron,1213 S Commerce St,78550,26.1805313295596,-97.6819001406812,0,0,0,200,(956) 425-4423,https://www.heb.com/heb-store/US/tx/harlingen/southland-and-12th-st-h-e-b-136?utm_source=google&utm_medium=organic&utm_campaign=gmb_pharmacy,,02/03/2021      ,08:05:00        ,-97.6819,26.180531
142,Heb Pharmacy 048,Pharmacy,,3015 North Dowlen Rd,Beaumont,Jefferson,3015 North Dowlen Rd,77706,30.106343135334,-94.1685948892792,0,0,0,200,(409) 860-4212,https://www.heb.com/heb-store/US/tx/beaumont/beaumont-h-e-b-plus--48?utm_source=google&utm_medium=organic&utm_campaign=gmb_pharmacy,,02/03/2021      ,08:05:00        ,-94.168595,30.106343
143,Heb Pharmacy 591,Pharmacy,,1700 E Palm Valley Blvd,Round Rock,Williamson,1700 E Palm Valley Blvd,78664,30.517697045821,-97.6580755029145,0,0,0,200,(512) 255-0617,https://www.heb.com/heb-store/US/tx/round-rock/round-rock-h-e-b-plus!-591?utm_source=google&utm_medium=organic&utm_campaign=gmb_pharmacy,,02/03/2021      ,08:05:00        ,-97.658076,30.517697
144,Heb Pharmacy 746,Pharmacy,,11675 Fm 2154 Rd,College Station,Brazos,11675 Fm 2154 Rd,77845,30.5848849744982,-96.3260939918506,0,0,0,200,(979) 485-8111,https://www.heb.com/pharmacy?utm_source=google&utm_medium=organic&utm_campaign=gmb_pharmacy,,02/03/2021      ,08:05:00        ,-96.326094,30.584885
145,Heb Pharmacy 051,Pharmacy,,2000 S Gregg St,Big Spring,Howard,2000 S Gregg St,79720,32.235100768616,-101.472070608974,0,0,0,200,(512) 474-2662,https://www.heb.com/heb-store/US/tx/austin/mueller-h-e-b-639?utm_source=google&utm_medium=organic&utm_campaign=gmb_pharmacy,,02/03/2021      ,08:05:00        ,-101.472071,32.235101
146,Heb Pharmacy 473,Pharmacy,,6210 Fairmont Pkwy,Pasadena,Harris,6210 Fairmont Pkwy,77505,29.6496925501383,-95.1446981332939,0,0,0,200,(281) 487-6170,https://www.heb.com/heb-store/US/tx/pasadena/pasadena-3-h-e-b-473?utm_source=google&utm_medium=organic&utm_campaign=gmb_pharmacy,,02/03/2021      ,08:05:00        ,-95.144698,29.649693
147,Heb Pharmacy 592,Pharmacy,,651 N Us Hwy 183,Leander,Williamson,651 N Us Hwy 183,78641,30.5841890073308,-97.8576490366168,0,0,0,200,(512) 528-7777,https://www.heb.com/heb-store/US/tx/leander/leander-h-e-b-plus!-592?utm_source=google&utm_medium=organic&utm_campaign=gmb_pharmacy,,02/03/2021      ,08:05:00        ,-97.857649,30.584189
148,Heb Pharmacy 576,Pharmacy,,7310 Louetta,Houston,Harris,7310 Louetta,77379,30.0222360016882,-95.5272289996628,0,0,0,200,(281) 251-0255,https://www.heb.com/heb-store/US/tx/spring/louetta-and-stuebner-h-e-b-576?utm_source=google&utm_medium=organic&utm_campaign=gmb_pharmacy,,02/03/2021      ,08:05:00        ,-95.527229,30.022236
149,Heb Pharmacy 544,Pharmacy,,725 E Villa Maria,Bryan,Brazos,725 E Villa Maria,77802,30.6440193255635,-96.3528378290834,0,0,0,200,(979) 822-1850,https://www.heb.com/heb-store/US/tx/bryan/bryan-3-h-e-b-544?utm_source=google&utm_medium=organic&utm_campaign=gmb_pharmacy,,02/03/2021      ,08:05:00        ,-96.352838,30.644019
150,Heb Pharmacy 677,Pharmacy,,512 East Edinburg Ave,Elsa,Hidalgo,512 East Edinburg Ave,78543,26.2934361143556,-97.9869165756112,0,0,0,200,(956) 262-9719,https://www.heb.com/heb-store/US/tx/elsa/elsa-h-e-b-677?utm_source=google&utm_medium=organic&utm_campaign=gmb_pharmacy,,02/03/2021      ,08:05:00        ,-97.986917,26.293436
151,Heb Pharmacy 382,Pharmacy,,3325 W Wadley Ave,Midland,Midland,3325 W Wadley Ave,79707,32.0193633632822,-102.126649637766,0,0,0,200,(432) 697-1484,https://www.heb.com/heb-store/US/tx/midland/midland-h-e-b-382?utm_source=google&utm_medium=organic&utm_campaign=gmb_pharmacy,,02/03/2021      ,08:05:00        ,-102.12665,32.019363
152,Heb Pharmacy 756,Pharmacy,,6055 South Fwy,Houston,Harris,6055 South Fwy,77004,29.7142260380621,-95.3778809194348,0,0,0,200,(936) 756-1435,https://www.heb.com/heb-store/US/tx/conroe/conroe-h-e-b-595?utm_source=google&utm_medium=organic&utm_campaign=gmb_pharmacy,,02/03/2021      ,08:05:00        ,-95.377881,29.714226
153,Heb Pharmacy 668,Pharmacy,,2990 E Hwy 190,Copperas Cove,Coryell,2990 E Hwy 190,76522,31.1207707458122,-97.8658250395954,0,0,0,200,(254) 547-9755,https://www.heb.com/heb-store/US/tx/copperas-cove/copperas-cove-h-e-b-plus!-668?utm_source=google&utm_medium=organic&utm_campaign=gmb_pharmacy,,02/03/2021      ,08:05:00        ,-97.865825,31.120771
154,Heb Pharmacy 212,Pharmacy,,3200 N 10th St,Mcallen,Hidalgo,3200 N 10th St,78501,26.2330592918363,-98.2249651561605,0,0,0,200,(956) 631-6148,https://www.heb.com/heb-store/US/tx/mcallen/n-10th-and-fern-h-e-b-212?utm_source=google&utm_medium=organic&utm_campaign=gmb_pharmacy,,02/03/2021      ,08:05:00        ,-98.224965,26.233059
155,Heb Pharmacy 671,Pharmacy,,2030 N 1st St,Carrizo Springs,Dimmit,2030 N 1st St,78834,28.5362080943474,-99.850910287281,0,0,0,200,(830) 876-9109,https://www.heb.com/heb-store/US/tx/carrizo-springs/carrizo-springs-h-e-b-671?utm_source=google&utm_medium=organic&utm_campaign=gmb_pharmacy,,02/03/2021      ,08:05:00        ,-99.85091,28.536208
156,Heb Pharmacy 085,Pharmacy,,10718 Potranco,San Antonio,Bexar,10718 Potranco,78251,29.4356475767842,-98.7035947100742,0,0,0,200,(210) 945-2120,https://www.heb.com/heb-store/US/tx/universal-city/kitty-hawk-h-e-b-555?utm_source=google&utm_medium=organic&utm_campaign=gmb_pharmacy,,02/03/2021      ,08:05:00        ,-98.703595,29.435648
157,Heb Pharmacy 568,Pharmacy,,12018 Perrin Beitel Rd,San Antonio,Bexar,12018 Perrin Beitel Rd,78217,29.5496351316335,-98.4079668290948,0,0,0,200,(210) 655-9542,https://www.heb.com/heb-store/US/tx/san-antonio/nacogdoches-and-thousand-oaks-h-e-b-568?utm_source=google&utm_medium=organic&utm_campaign=gmb_pharmacy,,02/03/2021      ,08:05:00        ,-98.407967,29.549635
158,Heb Pharmacy 480,Pharmacy,,9900 Wurzbach Rd,San Antonio,Bexar,9900 Wurzbach Rd,78230,29.5324482068103,-98.5608300280573,0,0,0,200,(210) 696-1073,https://www.heb.com/heb-store/US/tx/san-antonio/i10-and-wurzbach-h-e-b-480?utm_source=google&utm_medium=organic&utm_campaign=gmb_pharmacy,,02/03/2021      ,08:05:00        ,-98.56083,29.532448
159,Heb Pharmacy 708,Pharmacy,,14501 Ranch Road 12,Wimberley,Hays,14501 Ranch Road 12,78676,30.0023244973282,-98.1019405266747,0,0,0,200,(512) 847-3048,https://www.heb.com/heb-store/US/tx/wimberley/wimberley-h-e-b-708?utm_source=google&utm_medium=organic&utm_campaign=gmb_pharmacy,,02/03/2021      ,08:05:00        ,-98.101941,30.002324
160,Heb Pharmacy 692,Pharmacy,,3590 College St,Beaumont,Jefferson,3590 College St,77701,30.0683559989879,-94.1282650521622,0,0,0,200,(409) 813-8452,https://www.heb.com/heb-store/US/tx/beaumont/beaumont-6-h-e-b-692?utm_source=google&utm_medium=organic&utm_campaign=gmb_pharmacy,,02/03/2021      ,08:05:00        ,-94.128265,30.068356
161,Heb Pharmacy 627,Pharmacy,,530 Hwy 6,Sugar Land,Fort Bend,530 Hwy 6,77478,29.609407908101,-95.6449863573748,0,0,0,200,(281) 240-6370,https://www.heb.com/heb-store/US/tx/sugar-land/sugar-land-market-h-e-b-627?utm_source=google&utm_medium=organic&utm_campaign=gmb_pharmacy,,02/03/2021      ,08:05:00        ,-95.644986,29.609408
162,Heb Pharmacy 455,Pharmacy,,200 W Hopkins St,San Marcos,Hays,200 W Hopkins St,78666,29.8828610032253,-97.9432079838325,0,0,0,200,(512) 396-0303,https://www.heb.com/heb-store/US/tx/san-marcos/west-hopkins-h-e-b-455?utm_source=google&utm_medium=organic&utm_campaign=gmb_pharmacy,,02/03/2021      ,08:05:00        ,-97.943208,29.882861
163,Heb Pharmacy 594,Pharmacy,,10777 Kuykendahl Rd,Spring,Montgomery,10777 Kuykendahl Rd,77382,30.1787079871533,-95.5384630130317,0,0,0,200,(281) 292-8006,https://www.heb.com/heb-store/US/tx/the-woodlands/indian-springs-h-e-b-594?utm_source=google&utm_medium=organic&utm_campaign=gmb_stores,,02/03/2021      ,08:05:00        ,-95.538463,30.178708
164,Heb Pharmacy 558,Pharmacy,,701 W Parkwood Ave,Friendswood,Galveston,701 W Parkwood Ave,77546,29.506259956167,-95.1916411496658,0,0,0,200,(281) 996-9971,https://www.heb.com/heb-store/US/tx/friendswood/friendswood-h-e-b-558?utm_source=google&utm_medium=organic&utm_campaign=gmb_pharmacy,,02/03/2021      ,08:05:00        ,-95.191641,29.50626
165,Heb Pharmacy 741,Pharmacy,,13401 I10 East,Baytown,Chambers,13401 I10 East,77523,29.8262287804085,-94.8497655790143,0,0,0,200,(281) 420-9300,https://www.heb.com/pharmacy?utm_source=google&utm_medium=organic&utm_campaign=gmb_pharmacy,,02/03/2021      ,08:05:00        ,-94.849766,29.826229
166,Heb Pharmacy 610,Pharmacy,,2121 Fm 2920 Rd,Spring,Harris,2121 Fm 2920 Rd,77388,30.0702826978057,-95.4489248552031,0,0,0,200,(281) 907-7950,https://www.heb.com/heb-store/US/tx/spring/spring-market-h-e-b-610?utm_source=google&utm_medium=organic&utm_campaign=gmb_pharmacy,,02/03/2021      ,08:05:00        ,-95.448925,30.070283
167,Heb Pharmacy 385,Pharmacy,,300 W Olmos Dr,San Antonio,Bexar,300 W Olmos Dr,78212,29.4709224810221,-98.4962550078036,0,0,0,200,(210) 829-1705,https://www.heb.com/heb-store/US/tx/san-antonio/olmos-park-h-e-b-385?utm_source=google&utm_medium=organic&utm_campaign=gmb_pharmacy,,02/03/2021      ,08:05:00        ,-98.496255,29.470922
168,Heb Pharmacy 189,Pharmacy,,2130 Culebra Rd,San Antonio,Bexar,2130 Culebra Rd,78228,29.4468326817483,-98.5423232049413,0,0,0,200,(210) 737-1040,https://www.heb.com/heb-store/US/tx/san-antonio/el-mercado-h-e-b-189?utm_source=google&utm_medium=organic&utm_campaign=gmb_pharmacy,,02/03/2021      ,08:05:00        ,-98.542323,29.446833
169,Heb Pharmacy 586,Pharmacy,,2314 S Zapata Hwy,Laredo,Webb,2314 S Zapata Hwy,78046,27.4765544535359,-99.4747438236854,0,0,0,200,(956) 795-0700,https://www.heb.com/heb-store/US/tx/laredo/zapata-highway-h-e-b-586?utm_source=google&utm_medium=organic&utm_campaign=gmb_pharmacy,,02/03/2021      ,08:05:00        ,-99.474744,27.476554
170,Heb Pharmacy 069,Pharmacy,,5313 Saratoga Blvd,Corpus Christi,Nueces,5313 Saratoga Blvd,78413,27.6850669820258,-97.3890299896659,0,0,0,200,(361) 993-1351,https://www.heb.com/heb-store/US/tx/corpus-christi/staples-and-saratoga-h-e-b-plus!-69?utm_source=google&utm_medium=organic&utm_campaign=gmb_pharmacy,,02/03/2021      ,08:05:00        ,-97.38903,27.685067
171,Heb Pharmacy 561,Pharmacy,,407 S Adams St,Fredericksburg,Gillespie,407 S Adams St,78624,30.2709600516925,-98.8760481769573,0,0,0,200,(830) 997-8809,https://www.heb.com/heb-store/US/tx/fredericksburg/fredericksburg-h-e-b-561?utm_source=google&utm_medium=organic&utm_campaign=gmb_pharmacy,,02/03/2021      ,08:05:00        ,-98.876048,30.27096
172,Heb Pharmacy 024,Pharmacy,,11521 North Fm 620,Austin,Travis,11521 North Fm 620,78726,30.4548666348933,-97.8263370962002,0,0,0,200,(512) 459-8308,https://www.heb.com/heb-store/US/tx/austin/hancock-center-h-e-b-425?utm_source=google&utm_medium=organic&utm_campaign=gmb_pharmacy,,02/03/2021      ,08:05:00        ,-97.826337,30.454867
173,Heb Pharmacy 595,Pharmacy,,2108 North Frazier,Conroe,Montgomery,2108 North Frazier,77301,30.3356159992216,-95.4652670377238,0,0,0,200,(936) 756-1435,https://www.heb.com/heb-store/US/tx/conroe/conroe-h-e-b-595?utm_source=google&utm_medium=organic&utm_campaign=gmb_pharmacy,,02/03/2021      ,08:05:00        ,-95.465267,30.335616
174,Heb Pharmacy 590,Pharmacy,,901 Trenton Rd,Mcallen,Hidalgo,901 Trenton Rd,78504,26.2679228122659,-98.2181640799242,0,0,0,200,(956) 618-1889,https://www.heb.com/heb-store/US/tx/mcallen/10th-and-trenton-h-e-b-590?utm_source=google&utm_medium=organic&utm_campaign=gmb_pharmacy,,02/03/2021      ,08:05:00        ,-98.218164,26.267923
175,Heb Pharmacy 218,Pharmacy,,12407 N Mopac,Austin,Travis,12407 N Mopac,78758,30.4179118076803,-97.7045003937629,0,0,0,200,(512) 339-6644,https://www.heb.com/heb-store/US/tx/austin/parmer-and-mopac-h-e-b-218?utm_source=google&utm_medium=organic&utm_campaign=gmb_pharmacy,,02/03/2021      ,08:05:00        ,-97.7045,30.417912
176,Heb Pharmacy 497,Pharmacy,,1621 S Mason Rd,Katy,Harris,1621 S Mason Rd,77450,29.7568688447386,-95.7513760941806,0,0,0,200,(281) 599-0958,https://www.heb.com/heb-store/US/tx/katy/mason-rd-h-e-b-497?utm_source=google&utm_medium=organic&utm_campaign=gmb_pharmacy,,02/03/2021      ,08:05:00        ,-95.751376,29.756869
177,Heb Pharmacy 416,Pharmacy,,450 E Travis St,La Grange,Fayette,450 E Travis St,78945,29.9074630206018,-96.8729105297815,0,0,0,200,(979) 968-8677,https://www.heb.com/heb-store/US/tx/la-grange/la-grange-h-e-b-416?utm_source=google&utm_medium=organic&utm_campaign=gmb_pharmacy,,02/03/2021      ,08:05:00        ,-96.872911,29.907463
178,Heb Pharmacy 235,Pharmacy,,9255 Fm 471 West,San Antonio,Bexar,9255 Fm 471 West,78250,29.4840994560176,-98.6654554449587,0,0,0,200,(210) 680-2958,https://www.heb.com/heb-store/US/tx/san-antonio/grissom-and-tezel-h-e-b-235?utm_source=google&utm_medium=organic&utm_campaign=gmb_pharmacy,,02/03/2021      ,08:05:00        ,-98.665455,29.484099
179,Heb Pharmacy 172,Pharmacy,,1212 S Closner Blvd,Edinburg,Hidalgo,1212 S Closner Blvd,78539,26.2900858634571,-98.164398194367,0,0,0,200,(956) 380-6219,https://www.heb.com/heb-store/US/tx/edinburg/closner-and-baker-h-e-b-172?utm_source=google&utm_medium=organic&utm_campaign=gmb_pharmacy,,02/03/2021      ,08:05:00        ,-98.164398,26.290086
180,Heb Pharmacy 434,Pharmacy,,101 Calhoun Plz,Port Lavaca,Calhoun,101 Calhoun Plz,77979,28.6253298114172,-96.6382081884137,0,0,0,200,(361) 552-4563,https://www.heb.com/heb-store/US/tx/port-lavaca/port-lavaca-h-e-b-434?utm_source=google&utm_medium=organic&utm_campaign=gmb_pharmacy,,02/03/2021      ,08:05:00        ,-96.638208,28.62533
181,Heb Pharmacy 585,Pharmacy,,1520 Austin Hwy,San Antonio,Bexar,1520 Austin Hwy,78218,29.4945729428408,-98.4319270860551,0,0,0,200,(210) 828-5076,https://www.heb.com/heb-store/US/tx/san-antonio/austin-highway-h-e-b-585?utm_source=google&utm_medium=organic&utm_campaign=gmb_stores,,02/03/2021      ,08:05:00        ,-98.431927,29.494573
182,Heb Pharmacy 714,Pharmacy,,2000 Ranch Road 620 S Ste A,Austin,Travis,2000 Ranch Road 620 S Ste A,78734,30.343754240472,-97.9666135264409,0,0,0,200,(512) 263-8481,https://www.heb.com/heb-store/US/tx/lakeway/lakeway-h-e-b-714?utm_source=google&utm_medium=organic&utm_campaign=gmb_pharmacy,,02/03/2021      ,08:05:00        ,-97.966614,30.343754
183,Heb Pharmacy 014,Pharmacy,,5401 South Fm 1626,Kyle,Hays,5401 South Fm 1626,78640,30.0146655086497,-97.8637819075322,0,0,0,200,(512) 268-7955,https://www.heb.com/heb-store/US/tx/kyle/kyle-plus!-14?utm_source=google&utm_medium=organic&utm_campaign=gmb_pharmacy,,02/03/2021      ,08:05:00        ,-97.863782,30.014666
184,Heb Pharmacy 489,Pharmacy,,2250 Boca Chica Blvd,Brownsville,Cameron,2250 Boca Chica Blvd,78521,25.9193280087408,-97.4886439635831,0,0,0,200,(956) 541-0384,https://www.heb.com/heb-store/US/tx/brownsville/boca-chica-h-e-b-489?utm_source=google&utm_medium=organic&utm_campaign=gmb_pharmacy,,02/03/2021      ,08:05:00        ,-97.488644,25.919328
185,Heb Pharmacy 243,Pharmacy,,641 E Hopkins St,San Marcos,Hays,641 E Hopkins St,78666,29.8858569049679,-97.9265940459103,0,0,0,200,(512) 396-2892,https://www.heb.com/heb-store/US/tx/san-marcos/east-hopkins-h-e-b-243?utm_source=google&utm_medium=organic&utm_campaign=gmb_pharmacy,,02/03/2021      ,08:05:00        ,-97.926594,29.885857
186,Heb Pharmacy 485,Pharmacy,,310 N Westgate Dr,Weslaco,Hidalgo,310 N Westgate Dr,78596,26.1635677039748,-98.0067476242961,0,0,0,200,(956) 447-5901,https://www.heb.com/heb-store/US/tx/weslaco/83-and-westgate-h-e-b-485?utm_source=google&utm_medium=organic&utm_campaign=gmb_stores,,02/03/2021      ,08:05:00        ,-98.006748,26.163568
187,Heb Pharmacy 643,Pharmacy,,4444 Kostoryz Rd,Corpus Christi,Nueces,4444 Kostoryz Rd,78415,27.7396636818254,-97.4061045969864,0,0,0,200,(361) 855-6121,https://www.heb.com/heb-store/US/tx/corpus-christi/kostoryz-and-gollihar-h-e-b-643?utm_source=google&utm_medium=organic&utm_campaign=gmb_pharmacy,,02/03/2021      ,08:05:00        ,-97.406105,27.739664
188,Heb Pharmacy 696,Pharmacy,,5000 Gattis School Rd,Hutto,Williamson,5000 Gattis School Rd,78634,30.5008403679829,-97.582927298538,0,0,0,200,(512) 251-3173,https://www.heb.com/heb-store/US/tx/hutto/hutto-h-e-b-plus--696?utm_source=google&utm_medium=organic&utm_campaign=gmb_pharmacy,,02/03/2021      ,08:05:00        ,-97.582927,30.50084
189,Heb Pharmacy 656,Pharmacy,,28550 Highway 290,Cypress,Harris,28550 Highway 290,77433,29.9906163616065,-95.7459509073503,0,0,0,200,(281) 256-6490,https://www.heb.com/heb-store/US/tx/cypress/fairfield-market-h-e-b-656?utm_source=google&utm_medium=organic&utm_campaign=gmb_pharmacy,,02/03/2021      ,08:05:00        ,-95.745951,29.990616
190,Heb Pharmacy 655,Pharmacy,,313 Sidney Baker Drive,Kerrville,Kerr,313 Sidney Baker Drive,78028,30.0476093350515,-99.1403519312661,0,0,0,400,(210) 657-0322,https://www.heb.com/heb-store/US/tx/san-antonio/montgomery-at-walzem-384?utm_source=google&utm_medium=organic&utm_campaign=gmb_pharmacy,,02/03/2021      ,08:05:00        ,-99.140352,30.047609
191,Heb Pharmacy 737,Pharmacy,,2300 N Shepherd Dr,Houston,Harris,2300 N Shepherd Dr,77008,29.807169986799,-95.410192485624,0,0,0,200,(713) 869-1700,https://www.heb.com/heb-store/US/tx/houston/the-heights-h-e-b-737?utm_source=google&utm_medium=organic&utm_campaign=gmb_pharmacy,,02/03/2021      ,08:05:00        ,-95.410192,29.80717
192,Heb Pharmacy 029,Pharmacy,,701 S Capital Of Texas Hwy Ste D470,Austin,Travis,701 S Capital Of Texas Hwy Ste D470,78746,30.2919625401079,-97.828135795213,0,0,0,200,(512) 329-5184,https://www.heb.com/heb-store/US/tx/west-lake-hills/westlake-h-e-b-29?utm_source=google&utm_medium=organic&utm_campaign=gmb_pharmacy,,02/03/2021      ,08:05:00        ,-97.828136,30.291963
193,Heb Pharmacy 744,Pharmacy,,3663 Washington Ave Ste 100,Houston,Harris,3663 Washington Ave Ste 100,77007,29.7694509459858,-95.396959231495,0,0,0,200,(713) 426-1961,https://www.heb.com/heb-store/US/tx/houston/buffalo-heights-h-e-b-on-washington-ave-744?utm_source=google&utm_medium=organic&utm_campaign=gmb_pharmacy,,02/03/2021      ,08:05:00        ,-95.396959,29.769451
194,Heb Pharmacy 540,Pharmacy,,3111 Woodridge Ste 500,Houston,Harris,3111 Woodridge Ste 500,77087,29.6987284107014,-95.2967873830744,0,0,0,200,(713) 847-0071,https://www.heb.com/heb-store/US/tx/houston/gulfgate-h-e-b-540?utm_source=google&utm_medium=organic&utm_campaign=gmb_pharmacy,,02/03/2021      ,08:05:00        ,-95.296787,29.698728
195,Heb Pharmacy 064,Pharmacy,,3801 N 19th St,Waco,McLennan,3801 N 19th St,76708,31.58043813034,-97.1728113373613,0,0,0,200,(512) 329-5184,https://www.heb.com/heb-store/US/tx/west-lake-hills/westlake-h-e-b-29?utm_source=google&utm_medium=organic&utm_campaign=gmb_pharmacy,,02/03/2021      ,08:05:00        ,-97.172811,31.580438
196,Heb Pharmacy 674,Pharmacy,,120 E Mile 3 Rd,Mission,Hidalgo,120 E Mile 3 Rd,78573,26.2555869977249,-98.3179180316245,0,0,0,200,(956) 583-3229,https://www.heb.com/heb-store/US/tx/palmhurst/palmhurst-h-e-b-674?utm_source=google&utm_medium=organic&utm_campaign=gmb_pharmacy,,02/03/2021      ,08:05:00        ,-98.317918,26.255587
197,Heb Pharmacy 164,Pharmacy,,15000 San Pedro Ave,San Antonio,Bexar,15000 San Pedro Ave,78232,29.5787016440083,-98.477053744009,0,0,0,200,(210) 494-3203,https://www.heb.com/heb-store/US/tx/san-antonio/brook-hollow-h-e-b-164?utm_source=google&utm_medium=organic&utm_campaign=gmb_pharmacy,,02/03/2021      ,08:05:00        ,-98.477054,29.578702
198,Heb Pharmacy 026,Pharmacy,,3524 S New Braunfels,San Antonio,Bexar,3524 S New Braunfels,78223,29.3830450155693,-98.4612124499216,0,0,0,200,(210) 531-3160,https://www.heb.com/heb-store/US/tx/san-antonio/mccreless-market-h-e-b-plus!-26?utm_source=google&utm_medium=organic&utm_campaign=gmb_pharmacy,,02/03/2021      ,08:05:00        ,-98.461212,29.383045
199,Heb Pharmacy 713,Pharmacy,,3501 Clear Lake City Blvd,Houston,Harris,3501 Clear Lake City Blvd,77059,29.605808006416,-95.127235024761,0,0,0,300,(713) 996-0449,https://www.heb.com/heb-store/US/tx/houston/kempwood-and-gessner-h-e-b-577?utm_source=google&utm_medium=organic&utm_campaign=gmb_pharmacy,,02/03/2021      ,08:05:00        ,-95.127235,29.605808
200,Heb Pharmacy 231,Pharmacy,,1004 N Texas Ave,Weslaco,Hidalgo,1004 N Texas Ave,78596,26.171591233542,-97.9908794714094,0,0,0,200,(956) 968-8825,https://www.heb.com/heb-store/US/tx/weslaco/83-and-n-texas-h-e-b-231?utm_source=google&utm_medium=organic&utm_campaign=gmb_pharmacy,,02/03/2021      ,08:05:00        ,-97.990879,26.171591
201,Heb Pharmacy 099,Pharmacy,,10919 Louetta Rd,Houston,Harris,10919 Louetta Rd,77070,29.9966525472684,-95.5774380246072,0,0,0,200,(832) 612-5892,https://www.heb.com/heb-store/US/tx/richmond/aliana-market-h-e-b-724?utm_source=google&utm_medium=organic&utm_campaign=gmb_pharmacy,,02/03/2021      ,08:05:00        ,-95.577438,29.996653
202,Heb Pharmacy 678,Pharmacy,,302 Valley Hi Dr,San Antonio,Bexar,302 Valley Hi Dr,78227,29.3801699808706,-98.6365460225551,0,0,0,200,(210) 673-1760,https://www.heb.com/heb-store/US/tx/san-antonio/valley-hi-h-e-b-678?utm_source=google&utm_medium=organic&utm_campaign=gmb_pharmacy,,02/03/2021      ,08:05:00        ,-98.636546,29.38017
203,Heb Pharmacy 621,Pharmacy,,420 W Bandera,Boerne,Kendall,420 W Bandera,78006,29.7805475116619,-98.7341599905557,0,0,0,200,(830) 816-2093,https://www.heb.com/heb-store/US/tx/boerne/boerne-h-e-b-plus!-621?utm_source=google&utm_medium=organic&utm_campaign=gmb_pharmacy,,02/03/2021      ,08:05:00        ,-98.73416,29.780548
204,Heb Pharmacy 551,Pharmacy,,11815 Westheimer,Houston,Harris,11815 Westheimer,77077,29.7364004467315,-95.5873289218113,0,0,0,200,(281) 497-8479,https://www.heb.com/heb-store/US/tx/houston/westheimer-and-kirkwood-h-e-b-551?utm_source=google&utm_medium=organic&utm_campaign=gmb_pharmacy,,02/03/2021      ,08:05:00        ,-95.587329,29.7364
205,Heb Pharmacy 612,Pharmacy,,14414 Us Hwy 87 West,La Vernia,Wilson,14414 Us Hwy 87 West,78121,29.3575074939792,-98.1348286001639,0,0,0,200,(830) 779-3109,https://www.heb.com/heb-store/US/tx/la-vernia/la-vernia-h-e-b-612?utm_source=google&utm_medium=organic&utm_campaign=gmb_pharmacy,,02/03/2021      ,08:05:00        ,-98.134829,29.357507
206,Heb Pharmacy 451,Pharmacy,,7301 North Fm 620,Austin,Travis,7301 North Fm 620,78726,30.4051507592224,-97.8532341205759,0,0,0,200,(512) 336-7706,https://www.heb.com/heb-store/US/tx/austin/four-points-h-e-b-451?utm_source=google&utm_medium=organic&utm_campaign=gmb_pharmacy,,02/03/2021      ,08:05:00        ,-97.853234,30.405151
207,Heb Pharmacy 265,Pharmacy,,170 E Whitestone Blvd,Cedar Park,Williamson,170 E Whitestone Blvd,78613,30.5214505039723,-97.828141133221,0,0,0,200,(512) 259-5755,https://www.heb.com/heb-store/US/tx/cedar-park/whitestone-blvd-h-e-b-265?utm_source=google&utm_medium=organic&utm_campaign=gmb_pharmacy,,02/03/2021      ,08:05:00        ,-97.828141,30.521451
208,Heb Pharmacy 052,Pharmacy,,3301 Sherwood Way,San Angelo,Tom Green,3301 Sherwood Way,76901,31.445534667673,-100.479417657703,0,0,0,200,(325) 223-0771,https://www.heb.com/heb-store/US/tx/san-angelo/san-angelo-h-e-b-734?utm_source=google&utm_medium=organic&utm_campaign=gmb_pharmacy,,02/03/2021      ,08:05:00        ,-100.479418,31.445535
209,Heb Pharmacy 738,Pharmacy,,5106 Bissonnet St,Bellaire,Harris,5106 Bissonnet St,77401,29.7072180964553,-95.4688567553968,0,0,0,200,713-662-2000,https://www.heb.com/heb-store/US/tx/bellaire/bellaire-market-h-e-b-738?utm_source=google&utm_medium=organic&utm_campaign=gmb_stores,,02/03/2021      ,08:05:00        ,-95.468857,29.707218
210,Heb Pharmacy 577,Pharmacy,,10251 Kempwood Dr,Houston,Harris,10251 Kempwood Dr,77043,29.8227655653945,-95.5472125464805,0,0,0,200,(713) 996-0449,https://www.heb.com/heb-store/US/tx/houston/kempwood-and-gessner-h-e-b-577?utm_source=google&utm_medium=organic&utm_campaign=gmb_pharmacy,,02/03/2021      ,08:05:00        ,-95.547213,29.822766
211,Heb Pharmacy 294,Pharmacy,,6580 Fm 78,San Antonio,Bexar,6580 Fm 78,78244,29.4806665272825,-98.3600656773707,0,0,0,200,(210) 666-2022,https://www.heb.com/heb-store/US/tx/san-antonio/foster-rd-h-e-b-294?utm_source=google&utm_medium=organic&utm_campaign=gmb_stores,,02/03/2021      ,08:05:00        ,-98.360066,29.480667
212,Heb Pharmacy 580,Pharmacy,,2800 E Whitestone,Cedar Park,Williamson,2800 E Whitestone,78613,30.5343335729717,-97.7833111946393,0,0,0,200,(512) 528-0150,https://www.heb.com/heb-store/US/tx/cedar-park/parmer-and-whitestone-h-e-b-580?utm_source=google&utm_medium=organic&utm_campaign=gmb_pharmacy,,02/03/2021      ,08:05:00        ,-97.783311,30.534334
213,Heb Pharmacy 566,Pharmacy,,24165 W Interstate 10 Ste 300,San Antonio,Bexar,24165 W Interstate 10 Ste 300,78257,29.6648982724091,-98.63173044184,0,0,0,200,(210) 687-1072,https://www.heb.com/heb-store/US/tx/san-antonio/leon-springs-h-e-b-566?utm_source=google&utm_medium=organic&utm_campaign=gmb_pharmacy,,02/03/2021      ,08:05:00        ,-98.63173,29.664898
214,Heb Pharmacy 687,Pharmacy,,5895 San Felipe St,Houston,Harris,5895 San Felipe St,77057,29.7498251543143,-95.4851956830757,0,0,0,200,(713) 278-8474,https://www.heb.com/heb-store/US/tx/houston/san-felipe-h-e-b-687?utm_source=google&utm_medium=organic&utm_campaign=gmb_pharmacy,,02/03/2021      ,08:05:00        ,-95.485196,29.749825
215,Heb Pharmacy 615,Pharmacy,,25675 Nelson Way,Katy,Fort Bend,25675 Nelson Way,77494,29.7747178980029,-95.8215363956159,0,0,0,200,(281) 574-1808,https://www.heb.com/heb-store/US/tx/katy/katy-market-h-e-b-615?utm_source=google&utm_medium=organic&utm_campaign=gmb_pharmacy,,02/03/2021      ,08:05:00        ,-95.821536,29.774718
216,Heb Pharmacy 238,Pharmacy,,201 S 15th St,Corsicana,Navarro,201 S 15th St,75110,32.089757519816,-96.4681849705371,0,0,0,200,(903) 874-6546,https://www.heb.com/heb-store/US/tx/corsicana/corsicana-h-e-b-238?utm_source=google&utm_medium=organic&utm_campaign=gmb_pharmacy,,02/03/2021      ,08:05:00        ,-96.468185,32.089758
217,Heb Pharmacy 095,Pharmacy,,1911 East Bob Bullock,Laredo,Webb,1911 East Bob Bullock,78045,27.6094979673214,-99.4757193673485,0,0,0,600,(956) 764-5050,https://www.heb.com/heb-store/US/tx/laredo/laredo-h-e-b-plus!-95?utm_source=google&utm_medium=organic&utm_campaign=gmb_pharmacy,,02/03/2021      ,08:05:00        ,-99.475719,27.609498
218,Heb Pharmacy 672,Pharmacy,,1821 South Valley Mills Dr,Waco,McLennan,1821 South Valley Mills Dr,76711,31.5245000792693,-97.1369901684982,0,0,0,200,(254) 757-3344,https://www.heb.com/heb-store/US/tx/waco/valley-mills-h-e-b-plus!-672?utm_source=google&utm_medium=organic&utm_campaign=gmb_pharmacy,,02/03/2021      ,08:05:00        ,-97.13699,31.5245
219,Heb Pharmacy 421,Pharmacy,,1211 Hwy 83e,Alamo,Hidalgo,1211 Hwy 83e,78516,26.1912427731747,-98.124624052143,0,0,0,200,(956) 702-7550,https://www.heb.com/heb-store/US/tx/alamo/alamo-h-e-b-421?utm_source=google&utm_medium=organic&utm_campaign=gmb_pharmacy,,02/03/2021      ,08:05:00        ,-98.124624,26.191243
220,Heb Pharmacy 332,Pharmacy,,2950 Southmost Rd,Brownsville,Cameron,2950 Southmost Rd,78521,25.9067549863392,-97.4645314074424,0,0,0,200,(956) 541-8602,https://www.heb.com/heb-store/US/tx/brownsville/southmost-and-30th-h-e-b-332?utm_source=google&utm_medium=organic&utm_campaign=gmb_pharmacy,,02/03/2021      ,08:05:00        ,-97.464531,25.906755
221,Heb Pharmacy 736,Pharmacy,,4950 Fm 1463 Rd,Katy,Fort Bend,4950 Fm 1463 Rd,77494,29.7145377358781,-95.8462172082727,0,0,0,200,(346) 387-7000,https://www.heb.com/pharmacy?utm_source=google&utm_medium=organic&utm_campaign=gmb_pharmacy,,02/03/2021      ,08:05:00        ,-95.846217,29.714538
222,Heb Pharmacy 225,Pharmacy,,7010 Hwy 71 W,Austin,Travis,7010 Hwy 71 W,78735,30.235930988675,-97.8753999797047,0,0,0,200,(830) 334-3237,https://www.heb.com/heb-store/US/tx/pearsall/pearsall-h-e-b-620?utm_source=google&utm_medium=organic&utm_campaign=gmb_pharmacy,,02/03/2021      ,08:05:00        ,-97.8754,30.235931
223,Heb Pharmacy 557,Pharmacy,,801 Ih 35 N,Waco,McLennan,801 Ih 35 N,76705,31.5868657561672,-97.1091410438302,0,0,0,200,(254) 799-0219,https://www.heb.com/heb-store/US/tx/bellmead/35-and-84-h-e-b-plus!-557?utm_source=google&utm_medium=organic&utm_campaign=gmb_pharmacy,,02/03/2021      ,08:05:00        ,-97.109141,31.586866
224,Heb Pharmacy 579,Pharmacy,,9595 Six Pines Rd,Spring,Montgomery,9595 Six Pines Rd,77380,30.1643024620022,-95.4611961543145,0,0,0,200,(281) 292-3962,https://www.heb.com/heb-store/US/tx/the-woodlands/woodlands-market-h-e-b-579?utm_source=google&utm_medium=organic&utm_campaign=gmb_pharmacy,,02/03/2021      ,08:05:00        ,-95.461196,30.164302
225,Heb Pharmacy 224,Pharmacy,,7951 Guilbeau Rd,San Antonio,Bexar,7951 Guilbeau Rd,78250,29.5191075278071,-98.6434399702788,0,0,0,200,(210) 523-0481,https://www.heb.com/heb-store/US/tx/san-antonio/bandera-and-guilbeau-h-e-b-224?utm_source=google&utm_medium=organic&utm_campaign=gmb_pharmacy,,02/03/2021      ,08:05:00        ,-98.64344,29.519108
226,Heb Pharmacy 207,Pharmacy,,1301 Guadalupe St,Laredo,Webb,1301 Guadalupe St,78040,27.5065763236519,-99.4830644314564,0,0,0,200,(956) 724-1126,https://www.heb.com/heb-store/US/tx/laredo/guadalupe-and-stone-h-e-b-207?utm_source=google&utm_medium=organic&utm_campaign=gmb_pharmacy,,02/03/2021      ,08:05:00        ,-99.483064,27.506576
227,Heb Pharmacy 642,Pharmacy,,1300 S Cage Blvd,Pharr,Hidalgo,1300 S Cage Blvd,78577,26.1790380096897,-98.1894900082562,0,0,0,200,(956) 781-6626,https://www.heb.com/heb-store/US/tx/pharr/pharr-h-e-b-plus!-642?utm_source=google&utm_medium=organic&utm_campaign=gmb_pharmacy,,02/03/2021      ,08:05:00        ,-98.18949,26.179038
228,Heb Pharmacy 618,Pharmacy,,5910 Babcock Rd,San Antonio,Bexar,5910 Babcock Rd,78240,29.5275708192621,-98.6018158582052,0,0,0,200,(210) 641-6405,https://www.heb.com/heb-store/US/tx/san-antonio/babcock-h-e-b-618?utm_source=google&utm_medium=organic&utm_campaign=gmb_pharmacy,,02/03/2021      ,08:05:00        ,-98.601816,29.527571
229,Heb Pharmacy 108,Pharmacy,,20935 Us Hwy 281 N,San Antonio,Bexar,20935 Us Hwy 281 N,78258,29.6411049969686,-98.4573820039897,0,0,0,200,(210) 227-0211,https://www.heb.com/heb-store/US/tx/san-antonio/commerce-and-rosillo-h-e-b-466?utm_source=google&utm_medium=organic&utm_campaign=gmb_pharmacy,,02/03/2021      ,08:05:00        ,-98.457382,29.641105
230,Heb Pharmacy 195,Pharmacy,,11551 West Ave,San Antonio,Bexar,11551 West Ave,78213,29.545830124778,-98.509508724562,0,0,0,200,(210) 341-3875,https://www.heb.com/heb-store/US/tx/san-antonio/west-ave-and-jackson-keller-h-e-b-389?utm_source=google&utm_medium=organic&utm_campaign=gmb_pharmacy,,02/03/2021      ,08:05:00        ,-98.509509,29.54583
231,Heb Pharmacy 553,Pharmacy,,4955 Highway 6 N,Houston,Harris,4955 Highway 6 N,77084,29.8505079885249,-95.6486420406255,0,0,0,200,(281) 859-9381,https://www.heb.com/heb-store/US/tx/houston/bear-creek-h-e-b-553?utm_source=google&utm_medium=organic&utm_campaign=gmb_stores,,02/03/2021      ,08:05:00        ,-95.648642,29.850508
232,Heb Pharmacy 463,Pharmacy,,1150 N Fm 1604 W,San Antonio,Bexar,1150 N Fm 1604 W,78248,29.6062879961013,-98.510233004815,0,0,0,200,(210) 408-8145,https://www.heb.com/heb-store/US/tx/san-antonio/loop-1604-and-blanco-rd-h-e-b-plus!-463?utm_source=google&utm_medium=organic&utm_campaign=gmb_pharmacy,,02/03/2021      ,08:05:00        ,-98.510233,29.606288
233,Heb Pharmacy 589,Pharmacy,,4800 Highway 365,Port Arthur,Jefferson,4800 Highway 365,77642,29.9642671784217,-93.9759228723009,0,0,0,200,(409) 722-4066,https://www.heb.com/heb-store/US/tx/port-arthur/mid-county-h-e-b-589?utm_source=google&utm_medium=organic&utm_campaign=gmb_pharmacy,,02/03/2021      ,08:05:00        ,-93.975923,29.964267
234,Heb Pharmacy 384,Pharmacy,,6030 Montgomery,San Antonio,Bexar,6030 Montgomery,78239,29.5108070548208,-98.3703781843047,0,0,0,200,(210) 657-0322,https://www.heb.com/heb-store/US/tx/san-antonio/montgomery-at-walzem-384?utm_source=google&utm_medium=organic&utm_campaign=gmb_pharmacy,,02/03/2021      ,08:05:00        ,-98.370378,29.510807
235,Heb Pharmacy 694,Pharmacy,,2965 N Interstate 35,New Braunfels,Comal,2965 N Interstate 35,78130,29.7307744295017,-98.0767233195142,0,0,0,200,(830) 620-5100,https://www.heb.com/heb-store/US/tx/new-braunfels/new-braunfels-3-h-e-b-plus--694?utm_source=google&utm_medium=organic&utm_campaign=gmb_pharmacy,,02/03/2021      ,08:05:00        ,-98.076723,29.730774
236,Heb Pharmacy 425,Pharmacy,,1000 E 41st Street,Austin,Travis,1000 E 41st Street,78751,30.2987990343476,-97.720422278028,0,0,0,200,(512) 459-8308,https://www.heb.com/heb-store/US/tx/austin/hancock-center-h-e-b-425?utm_source=google&utm_medium=organic&utm_campaign=gmb_pharmacy,,02/03/2021      ,08:05:00        ,-97.720422,30.298799
237,Heb Pharmacy 732,Pharmacy,,17238 Bulverde Rd,San Antonio,Bexar,17238 Bulverde Rd,78247,29.5950699921674,-98.4175070274703,0,0,0,200,(210) 495-0572,https://www.heb.com/pharmacy?utm_source=google&utm_medium=organic&utm_campaign=gmb_pharmacy,,02/03/2021      ,08:05:00        ,-98.417507,29.59507
238,Heb Pharmacy 771,Pharmacy,,14325 Potranco Rd,San Antonio,Bexar,14325 Potranco Rd,78253,29.4213890297185,-98.7810589941358,0,0,0,200,(210) 257-2827,https://www.heb.com/pharmacy?utm_source=google&utm_medium=organic&utm_campaign=gmb_pharmacy,,02/03/2021      ,08:05:00        ,-98.781059,29.421389
239,Heb Pharmacy 465,Pharmacy,,2701 E 7th St,Austin,Travis,2701 E 7th St,78702,30.2605130571219,-97.711275274731,0,0,0,200,(512) 478-8086,https://www.heb.com/heb-store/US/tx/austin/7th-street-h-e-b-465?utm_source=google&utm_medium=organic&utm_campaign=gmb_pharmacy,,02/03/2021      ,08:05:00        ,-97.711275,30.260513
240,Heb Pharmacy 749,Pharmacy,,9211 Fm 723,Richmond,Fort Bend,9211 Fm 723,77406,29.6957748252208,-95.813089675446,0,0,0,300,(281) 232-5500,https://www.heb.com/pharmacy?utm_source=google&utm_medium=organic&utm_campaign=gmb_pharmacy,,02/03/2021      ,08:05:00        ,-95.81309,29.695775
241,Heb Pharmacy 236,Pharmacy,,1434 W Wells Branch Pkwy,Pflugerville,Travis,1434 W Wells Branch Pkwy,78660,30.4411867402689,-97.6645537082406,0,0,0,200,(512) 251-5286,https://www.heb.com/heb-store/US/tx/pflugerville/wells-branch-h-e-b-236?utm_source=google&utm_medium=organic&utm_campaign=gmb_pharmacy,,02/03/2021      ,08:05:00        ,-97.664554,30.441187
242,Heb Pharmacy 380,Pharmacy,,651 S Walnut,New Braunfels,Comal,651 S Walnut,78130,29.6880179223085,-98.1267238865263,0,0,0,200,(830) 609-1944,https://www.heb.com/heb-store/US/tx/new-braunfels/new-braunfels-h-e-b-at-walnut-380?utm_source=google&utm_medium=organic&utm_campaign=gmb_pharmacy,,02/03/2021      ,08:05:00        ,-98.126724,29.688018
243,Heb Pharmacy 057,Pharmacy,,1145 Waldron Rd,Corpus Christi,Nueces,1145 Waldron Rd,78418,27.6650409808685,-97.2807860082392,0,0,0,200,(281) 574-1808,https://www.heb.com/heb-store/US/tx/katy/katy-market-h-e-b-615?utm_source=google&utm_medium=organic&utm_campaign=gmb_pharmacy,,02/03/2021      ,08:05:00        ,-97.280786,27.665041
244,Heb Pharmacy 404,Pharmacy,,12400 Hwy 71 West,Austin,Travis,12400 Hwy 71 West,78738,30.3036176962548,-97.9334340712186,0,0,0,200,(512) 263-0561,https://www.heb.com/heb-store/US/tx/bee-cave/bee-caves-h-e-b-404?utm_source=google&utm_medium=organic&utm_campaign=gmb_pharmacy,,02/03/2021      ,08:05:00        ,-97.933434,30.303618
245,Heb Pharmacy 698,Pharmacy,,14100 Spring Cypress Rd,Cypress,Harris,14100 Spring Cypress Rd,77429,30.0028624226072,-95.6375285764194,0,0,0,200,(281) 376-2428,https://www.heb.com/heb-store/US/tx/cypress/grant-and-spring-cypress-h-e-b-698?utm_source=google&utm_medium=organic&utm_campaign=gmb_pharmacy,,02/03/2021      ,08:05:00        ,-95.637529,30.002862
246,Heb Pharmacy 253,Pharmacy,,3500 Leopard St,Corpus Christi,Nueces,3500 Leopard St,78408,27.7969820694055,-97.4278948630336,0,0,0,200,(361) 883-7196,https://www.heb.com/heb-store/US/tx/corpus-christi/leopard-and-nueces-bay-h-e-b-253?utm_source=google&utm_medium=organic&utm_campaign=gmb_pharmacy,,02/03/2021      ,08:05:00        ,-97.427895,27.796982
247,Heb Pharmacy 373,Pharmacy,,16900 N Fm 620,Round Rock,Williamson,16900 N Fm 620,78664,30.4999347432965,-97.7212149153951,0,0,0,200,(512) 238-7905,https://www.heb.com/heb-store/US/tx/round-rock/620-and-o'connor-h-e-b-373?utm_source=google&utm_medium=organic&utm_campaign=gmb_pharmacy,,02/03/2021      ,08:05:00        ,-97.721215,30.499935
248,Heb Pharmacy 381,Pharmacy,,601 Indian Trl,Harker Heights,Bell,601 Indian Trl,76548,31.0786718833627,-97.6552288409578,0,0,0,200,(254) 699-8810,https://www.heb.com/heb-store/US/tx/harker-heights/harker-heights-h-e-b-381?utm_source=google&utm_medium=organic&utm_campaign=gmb_pharmacy,,02/03/2021      ,08:05:00        ,-97.655229,31.078672
249,Heb Pharmacy 715,Pharmacy,,4701 East Blvd,Deer Park,Harris,4701 East Blvd,77536,29.6676058176911,-95.0980526271846,0,0,0,200,(281) 930-9366,https://www.heb.com/heb-store/US/tx/deer-park/deer-park-h-e-b-715?utm_source=google&utm_medium=organic&utm_campaign=gmb_pharmacy,,02/03/2021      ,08:05:00        ,-95.098053,29.667606
250,Heb Pharmacy 474,Pharmacy,,4724 Highway 6,Missouri City,Fort Bend,4724 Highway 6,77459,29.5797461967818,-95.5818497555248,0,0,0,200,(281) 403-2172,https://www.heb.com/heb-store/US/tx/missouri-city/lake-colony-h-e-b-474?utm_source=google&utm_medium=organic&utm_campaign=gmb_stores,,02/03/2021      ,08:05:00        ,-95.58185,29.579746
251,Heb Pharmacy 773,Pharmacy,,1601 Trinity St Bldg A Suite 105,Austin,Travis,1601 Trinity St Bldg A Suite 105,78712,30.2769337455005,-97.7356147539527,0,0,0,200,(254) 773-4585,https://www.heb.com/heb-store/US/tx/temple/adams-and-25th-st-h-e-b-71?utm_source=google&utm_medium=organic&utm_campaign=gmb_pharmacy,,02/03/2021      ,08:05:00        ,-97.735615,30.276934
252,Heb Pharmacy 479,Pharmacy,,201 Fm 685,Pflugerville,Travis,201 Fm 685,78660,30.4386161362931,-97.6125562366154,0,0,0,200,(512) 251-9037,https://www.heb.com/heb-store/US/tx/pflugerville/pflugerville-h-e-b-479?utm_source=google&utm_medium=organic&utm_campaign=gmb_pharmacy,,02/03/2021      ,08:05:00        ,-97.612556,30.438616
253,Heb Pharmacy 570,Pharmacy,,210 W Del Mar Blvd,Laredo,Webb,210 W Del Mar Blvd,78041,27.567430742815,-99.4996766091789,0,0,0,200,(956) 712-3251,https://www.heb.com/heb-store/US/tx/laredo/35-and-del-mar-h-e-b-570?utm_source=google&utm_medium=organic&utm_campaign=gmb_pharmacy,,02/03/2021      ,08:05:00        ,-99.499677,27.567431
254,Heb Pharmacy 492,Pharmacy,,1550 Fry Rd,Houston,Harris,1550 Fry Rd,77084,29.7893099951508,-95.716745003926,0,0,0,200,(281) 829-2565,https://www.heb.com/heb-store/US/tx/houston/fry-rd-and-i10-h-e-b-492?utm_source=google&utm_medium=organic&utm_campaign=gmb_pharmacy,,02/03/2021      ,08:05:00        ,-95.716745,29.78931
255,Heb Pharmacy 431,Pharmacy,,2700 W Freddy Gonzalez Dr,Edinburg,Hidalgo,2700 W Freddy Gonzalez Dr,78539,26.2893809873096,-98.1958490229192,0,0,0,200,(956) 383-4165,https://www.heb.com/heb-store/US/tx/edinburg/edinburg-h-e-b-431?utm_source=google&utm_medium=organic&utm_campaign=gmb_pharmacy,,02/03/2021      ,08:05:00        ,-98.195849,26.289381
256,Heb Pharmacy 334,Pharmacy,,3601 Pecan Blvd,Mcallen,Hidalgo,3601 Pecan Blvd,78501,26.2193899164995,-98.2584388732251,0,0,0,200,(956) 971-9131,https://www.heb.com/heb-store/US/tx/mcallen/pecan-and-ware-h-e-b-334?utm_source=google&utm_medium=organic&utm_campaign=gmb_pharmacy,,02/03/2021      ,08:05:00        ,-98.258439,26.21939
257,Heb Pharmacy 110,Pharmacy,,8900 Highway 6,Missouri City,Fort Bend,8900 Highway 6,77459,29.5369049904574,-95.5366930065382,0,0,0,200,(281) 778-1350,https://www.heb.com/heb-store/US/tx/missouri-city/sienna-market-h-e-b-110?utm_source=google&utm_medium=organic&utm_campaign=gmb_pharmacy,,02/03/2021      ,08:05:00        ,-95.536693,29.536905
258,Heb Pharmacy 054,Pharmacy,,9828 Blackhawk Blvd,Houston,Harris,9828 Blackhawk Blvd,77075,29.6022974139089,-95.2484060801795,0,0,0,200,(713) 991-3762,https://www.heb.com/heb-store/US/tx/houston/blackhawk-h-e-b-54?utm_source=google&utm_medium=organic&utm_campaign=gmb_pharmacy,,02/03/2021      ,08:05:00        ,-95.248406,29.602297
259,Heb Pharmacy 292,Pharmacy,,2700 7th St,Bay City,Matagorda,2700 7th St,77414,28.9832771844152,-95.9580173324598,0,0,0,200,(979) 245-1881,https://www.heb.com/heb-store/US/tx/bay-city/bay-city-h-e-b-292?utm_source=google&utm_medium=organic&utm_campaign=gmb_pharmacy,,02/03/2021      ,08:05:00        ,-95.958017,28.983277
260,Heb Pharmacy 733,Pharmacy,,12125 Alamo Ranch Pkwy,San Antonio,Bexar,12125 Alamo Ranch Pkwy,78253,29.484595859981,-98.7347043985998,0,0,0,200,(210) 688-9584,https://www.heb.com/pharmacy?utm_source=google&utm_medium=organic&utm_campaign=gmb_pharmacy,,02/03/2021      ,08:05:00        ,-98.734704,29.484596
261,Heb Pharmacy 705,Pharmacy,,3540 Rayford Rd,Spring,Montgomery,3540 Rayford Rd,77386,30.1085515833032,-95.3863411095864,0,0,0,200,(281) 353-2420,https://www.heb.com/heb-store/US/tx/spring/spring-creek-market-h-e-b-705?utm_source=google&utm_medium=organic&utm_campaign=gmb_pharmacy,,02/03/2021      ,08:05:00        ,-95.386341,30.108552
262,Heb Pharmacy 449,Pharmacy,,7811 Mcpherson Rd,Laredo,Webb,7811 Mcpherson Rd,78045,27.5766786223168,-99.4733503085899,0,0,0,200,(956) 712-8053,https://www.heb.com/heb-store/US/tx/laredo/mcpherson-rd-h-e-b-449?utm_source=google&utm_medium=organic&utm_campaign=gmb_pharmacy,,02/03/2021      ,08:05:00        ,-99.47335,27.576679
263,Heb Pharmacy 728,Pharmacy,,1702 11th St,Huntsville,Walker,1702 11th St,77340,30.7206423184519,-95.5609338239338,0,0,0,200,(936) 291-6994,https://www.heb.com/heb-store/US/tx/huntsville/huntsville-h-e-b-728?utm_source=google&utm_medium=organic&utm_campaign=gmb_stores,,02/03/2021      ,08:05:00        ,-95.560934,30.720642
264,Heb Pharmacy 428,Pharmacy,,6900 Brodie Ln,Austin,Travis,6900 Brodie Ln,78745,30.2154006484038,-97.8295009293734,0,0,0,200,(512) 891-8906,https://www.heb.com/heb-store/US/tx/austin/brodie-lane-h-e-b-428?utm_source=google&utm_medium=organic&utm_campaign=gmb_pharmacy,,02/03/2021      ,08:05:00        ,-97.829501,30.215401
265,Heb Pharmacy 398,Pharmacy,,2929 Thousand Oaks Dr,San Antonio,Bexar,2929 Thousand Oaks Dr,78247,29.5765866383802,-98.4405138429441,0,0,0,200,(210) 491-9976,https://www.heb.com/heb-store/US/tx/san-antonio/thousand-oaks-and-jones-maltsberger-h-e-b-398?utm_source=google&utm_medium=organic&utm_campaign=gmb_pharmacy,,02/03/2021      ,08:05:00        ,-98.440514,29.576587
266,Heb Pharmacy 724,Pharmacy,,10161 W Grand Pkwy S,Richmond,Fort Bend,10161 W Grand Pkwy S,77407,29.6582285126945,-95.7142120766052,0,0,0,200,(832) 612-5892,https://www.heb.com/heb-store/US/tx/richmond/aliana-market-h-e-b-724?utm_source=google&utm_medium=organic&utm_campaign=gmb_pharmacy,,02/03/2021      ,08:05:00        ,-95.714212,29.658229
267,Heb Pharmacy 262,Pharmacy,,5601 Bandera Rd,San Antonio,Bexar,5601 Bandera Rd,78238,29.4807687445924,-98.5950992715521,0,0,0,200,(210) 647-2700,https://www.heb.com/heb-store/US/tx/san-antonio/marketplace-h-e-b-262?utm_source=google&utm_medium=organic&utm_campaign=gmb_stores,,02/03/2021      ,08:05:00        ,-98.595099,29.480769
268,Heb Pharmacy 495,Pharmacy,,603 Louis Henna Blvd,Round Rock,Williamson,603 Louis Henna Blvd,78664,30.4824329542377,-97.6598643686899,0,0,0,200,(956) 424-7920,https://www.heb.com/heb-store/US/tx/mission/conway-and-griffin-pkwy-571?utm_source=google&utm_medium=organic&utm_campaign=gmb_pharmacy,,02/03/2021      ,08:05:00        ,-97.659864,30.482433
269,Heb Pharmacy 028,Pharmacy,,2955 Gulf Fwy S,League City,Galveston,2955 Gulf Fwy S,77573,29.4655619186656,-95.0930598262203,0,0,0,200,(281) 337-5210,https://www.heb.com/heb-store/US/tx/league-city/bay-colony-h-e-b-28?utm_source=google&utm_medium=organic&utm_campaign=gmb_pharmacy,,02/03/2021      ,08:05:00        ,-95.09306,29.465562
270,Heb Pharmacy 389,Pharmacy,,6000 West Ave,San Antonio,Bexar,6000 West Ave,78213,29.5148669972619,-98.5259125281708,0,0,0,200,(210) 341-7289,https://www.heb.com/heb-store/US/tx/san-antonio/west-ave-and-jackson-keller-h-e-b-389?utm_source=google&utm_medium=organic&utm_campaign=gmb_stores,,02/03/2021      ,08:05:00        ,-98.525913,29.514867
271,Heb Pharmacy 074,Pharmacy,,1655 Highway 46 West,New Braunfels,Comal,1655 Highway 46 West,78132,29.7156393674463,-98.1592828645962,0,0,0,200,(936) 756-1435,https://www.heb.com/heb-store/US/tx/conroe/conroe-h-e-b-595?utm_source=google&utm_medium=organic&utm_campaign=gmb_pharmacy,,02/03/2021      ,08:05:00        ,-98.159283,29.715639
272,Heb Pharmacy 556,Pharmacy,,2118 Fredericksburg Rd,San Antonio,Bexar,2118 Fredericksburg Rd,78201,29.4649233014627,-98.5263906319281,0,0,0,200,(210) 737-2040,https://www.heb.com/heb-store/US/tx/san-antonio/deco-district-h-e-b-556?utm_source=google&utm_medium=organic&utm_campaign=gmb_pharmacy,,02/03/2021      ,08:05:00        ,-98.526391,29.464923
273,Heb Pharmacy 397,Pharmacy,,18140 San Pedro Ave,San Antonio,Bexar,18140 San Pedro Ave,78232,29.6073230354149,-98.4685834117549,0,0,0,200,(210) 490-5593,https://www.heb.com/heb-store/US/tx/san-antonio/281-and-1604-h-e-b-397?utm_source=google&utm_medium=organic&utm_campaign=gmb_pharmacy,,02/03/2021      ,08:05:00        ,-98.468583,29.607323
274,Heb Pharmacy 757,Pharmacy,,10200 Highway 242,Conroe,Montgomery,10200 Highway 242,77385,30.208412603306,-95.424908450069,0,0,0,200,(936) 266-1100,https://www.heb.com/pharmacy?utm_source=google&utm_medium=organic&utm_campaign=gmb_pharmacy,,02/03/2021      ,08:05:00        ,-95.424908,30.208413
275,Heb Pharmacy 613,Other,,8231,San Antonio,Bexar,8231 Marbach Rd,78227,29.405424,-98.63832,0,0,0,200,210-673-3230,,,02/03/2021      ,08:05:00        ,-98.63832,29.405424
276,Heb Pharmacy 759,Pharmacy,,19529 Northpark Dr,Kingwood,Harris,19529 Northpark Dr,77339,30.0704490859386,-95.2512851801008,0,0,0,200,(281) 312-1364,https://www.heb.com/heb-store/US/tx/kingwood/h-e-b-market-at-northpark-759?utm_source=google&utm_medium=organic&utm_campaign=gmb_pharmacy,,02/03/2021      ,08:05:00        ,-95.251285,30.070449
277,Heb Pharmacy 709,Pharmacy,,9722 Fry Rd,Cypress,Harris,9722 Fry Rd,77433,29.9271181553465,-95.7281534757139,0,0,0,200,(281) 373-2102,https://www.heb.com/heb-store/US/tx/cypress/h-e-b-market-at-tuckerton-709?utm_source=google&utm_medium=organic&utm_campaign=gmb_pharmacy,,02/03/2021      ,08:05:00        ,-95.728153,29.927118
278,Heb Pharmacy 395,Pharmacy,,12777 W Interstate 10,San Antonio,Bexar,12777 W Interstate 10,78230,29.5614614941002,-98.5899329178915,0,0,0,200,(210) 558-3027,https://www.heb.com/heb-store/US/tx/san-antonio/de-zavala-h-e-b-395?utm_source=google&utm_medium=organic&utm_campaign=gmb_pharmacy,,02/03/2021      ,08:05:00        ,-98.589933,29.561461
279,Heb Pharmacy 657,Pharmacy,,9503 Jones Rd,Houston,Harris,9503 Jones Rd,77065,29.9109270097273,-95.5847374888069,0,0,0,200,(281) 894-5237,https://www.heb.com/heb-store/US/tx/houston/jones-and-west-h-e-b-657?utm_source=google&utm_medium=organic&utm_campaign=gmb_pharmacy,,02/03/2021      ,08:05:00        ,-95.584737,29.910927
280,Heb Pharmacy 581,Pharmacy,,2511 Trimmier Rd,Killeen,Bell,2511 Trimmier Rd,76542,31.0902718506244,-97.7340449661645,0,0,0,200,(254) 634-2370,https://www.heb.com/heb-store/US/tx/killeen/trimmier-h-e-b-plus--581?utm_source=google&utm_medium=organic&utm_campaign=gmb_pharmacy,,02/03/2021      ,08:05:00        ,-97.734045,31.090272
281,Heb Pharmacy 725,Pharmacy,,20311 Champion Forest Dr,Spring,Harris,20311 Champion Forest Dr,77379,30.0553473271687,-95.4740460754718,0,0,0,200,(979) 822-1850,https://www.heb.com/heb-store/US/tx/bryan/bryan-3-h-e-b-544?utm_source=google&utm_medium=organic&utm_campaign=gmb_pharmacy,,02/03/2021      ,08:05:00        ,-95.474046,30.055347
282,Heb Pharmacy 227,Pharmacy,,2110 New Slaughter Lane,Austin,Travis,2110 New Slaughter Lane,78748,30.1737762010538,-97.825570319698,0,0,0,200,(512) 282-0990,https://www.heb.com/heb-store/US/tx/austin/slaughter-and-manchaca-h-e-b-227?utm_source=google&utm_medium=organic&utm_campaign=gmb_pharmacy,,02/03/2021      ,08:05:00        ,-97.82557,30.173776
283,Heb Pharmacy 717,Pharmacy,,5407 Andrews Hwy,Midland,Midland,5407 Andrews Hwy,79706,31.9969179257735,-102.155512218436,0,0,0,100,(432) 699-2331,https://www.heb.com/heb-store/US/tx/midland/midland-loop-250-h-e-b-717?utm_source=google&utm_medium=organic&utm_campaign=gmb_pharmacy,,02/03/2021      ,08:05:00        ,-102.155512,31.996918
284,Heb Pharmacy 039,Pharmacy,,2509 N Main,Belton,Bell,2509 N Main,76513,31.0801127744281,-97.4575181014168,0,0,0,200,(281) 599-0958,https://www.heb.com/heb-store/US/tx/katy/mason-rd-h-e-b-497?utm_source=google&utm_medium=organic&utm_campaign=gmb_pharmacy,,02/03/2021      ,08:05:00        ,-97.457518,31.080113
285,Heb Pharmacy 748,Pharmacy,,5251 Fm 2920,Spring,Harris,5251 Fm 2920,77388,30.074003817355,-95.5014872493844,0,0,0,200,(281) 323-6400,https://www.heb.com/heb-store/US/tx/spring/h-e-b-market-at-gosling-748?utm_source=google&utm_medium=organic&utm_campaign=gmb_stores,,02/03/2021      ,08:05:00        ,-95.501487,30.074004
286,Heb Pharmacy 444,Pharmacy,,3323 Se Military Dr,San Antonio,Bexar,3323 Se Military Dr,78223,29.3540409902828,-98.433629031495,0,0,0,200,(210) 333-1031,https://www.heb.com/heb-store/US/tx/san-antonio/military-and-goliad-h-e-b-444?utm_source=google&utm_medium=organic&utm_campaign=gmb_pharmacy,,02/03/2021      ,08:05:00        ,-98.433629,29.354041
287,Heb Pharmacy 494,Pharmacy,,10660 Culebra Rd,San Antonio,Bexar,10660 Culebra Rd,78251,29.4910550161689,-98.7027199746588,0,0,0,200,(210) 684-1234,https://www.heb.com/heb-store/US/tx/san-antonio/culebra-and-1604-h-e-b-494?utm_source=google&utm_medium=organic&utm_campaign=gmb_pharmacy,,02/03/2021      ,08:05:00        ,-98.70272,29.491055
288,Heb Pharmacy 387,Pharmacy,,3801 E 42nd St,Odessa,Ector,3801 E 42nd St,79762,31.8899200818923,-102.350631524972,0,0,0,200,(432) 362-4555,https://www.heb.com/heb-store/US/tx/odessa/42nd-st.-h-e-b-387?utm_source=google&utm_medium=organic&utm_campaign=gmb_pharmacy,,02/03/2021      ,08:05:00        ,-102.350632,31.88992
289,Heb Pharmacy 772,Pharmacy,,4405 114th Street,Lubbock,Lubbock,4405 114th Street,79424,33.4906682062382,-101.906475984448,0,0,0,200,,,,02/03/2021      ,08:05:00        ,-101.906476,33.490668
290,Heb Pharmacy 109,Pharmacy,,9710 Katy Freeway,Houston,Harris,9710 Katy Freeway,77055,29.7876969817037,-95.5322849636582,0,0,0,200,(713) 647-5950,https://www.heb.com/heb-store/US/tx/houston/bunker-hill-h-e-b-109?utm_source=google&utm_medium=organic&utm_campaign=gmb_pharmacy,,02/03/2021      ,08:05:00        ,-95.532285,29.787697
291,Heb Pharmacy 068,Pharmacy,,5800 W Slaughter Ln,Austin,Travis,5800 W Slaughter Ln,78749,30.2025990095933,-97.8767450237073,0,0,0,200,(512) 301-9770,https://www.heb.com/heb-store/US/tx/austin/slaughter-and-escarpment-h-e-b-68?utm_source=google&utm_medium=organic&utm_campaign=gmb_stores,,02/03/2021      ,08:05:00        ,-97.876745,30.202599
292,Heb Pharmacy 675,Pharmacy,,2710 Pearland Pkwy,Pearland,Brazoria,2710 Pearland Pkwy,77581,29.5581990059271,-95.2650070261513,0,0,0,200,(281) 485-5047,https://www.heb.com/heb-store/US/tx/pearland/pearland-2-h-e-b-675?utm_source=google&utm_medium=organic&utm_campaign=gmb_pharmacy,,02/03/2021      ,08:05:00        ,-95.265007,29.558199
293,Heb Pharmacy 487,Pharmacy,,4500 Fm 2338,Georgetown,Williamson,4500 Fm 2338,78628,30.6829143949648,-97.7178886000734,0,0,0,200,(512) 868-1273,https://www.heb.com/heb-store/US/tx/georgetown/williams-drive-h-e-b-487?utm_source=google&utm_medium=organic&utm_campaign=gmb_pharmacy,,02/03/2021      ,08:05:00        ,-97.717889,30.682914
294,Heb Pharmacy 031,Pharmacy,,12860 N Highway 183,Austin,Travis,12860 N Highway 183,78750,30.4350421463214,-97.7721977852244,0,0,0,200,(254) 773-2177,https://www.heb.com/heb-store/US/tx/temple/31st-and-market-h-e-b-182?utm_source=google&utm_medium=organic&utm_campaign=gmb_pharmacy,,02/03/2021      ,08:05:00        ,-97.772198,30.435042
295,Heb Pharmacy 658,Pharmacy,,23635 Wilderness Oak,San Antonio,Bexar,23635 Wilderness Oak,78258,29.6620268559373,-98.499581701355,0,0,0,200,(210) 490-2677,https://www.heb.com/heb-store/US/tx/san-antonio/the-market-at-stone-oak-658?utm_source=google&utm_medium=organic&utm_campaign=gmb_pharmacy,,02/03/2021      ,08:05:00        ,-98.499582,29.662027
296,Heb Pharmacy 229,Pharmacy,,6607 S Interstate 35,Austin,Travis,6607 S Interstate 35,78744,30.1898684493216,-97.7703794267819,0,0,0,300,(512) 441-9266,https://www.heb.com/heb-store/US/tx/austin/i-35-and-william-cannon-h-e-b-229?utm_source=google&utm_medium=organic&utm_campaign=gmb_stores,,02/03/2021      ,08:05:00        ,-97.770379,30.189868
297,Heb Pharmacy 025,Pharmacy,,925 10th St,Floresville,Wilson,925 10th St,78114,29.1444376712405,-98.1560250921902,0,0,0,200,(210) 523-0296,https://www.heb.com/heb-store/US/tx/san-antonio/bandera-and-guilbeau-h-e-b-224?utm_source=google&utm_medium=organic&utm_campaign=gmb_stores,,02/03/2021      ,08:05:00        ,-98.156025,29.144438
298,Heb Pharmacy 096,Pharmacy,,7025 Village Center Dr,Austin,Travis,7025 Village Center Dr,78731,30.3526783689635,-97.7561778844129,0,0,0,200,(281) 334-2012,,,02/03/2021      ,08:05:00        ,-97.756178,30.352678
299,Heb Pharmacy 599,Pharmacy,,5225 Buffalo Speedway,Houston,Harris,5225 Buffalo Speedway,77005,29.7269992940189,-95.4277663601943,0,0,0,200,(713) 664-3426,https://www.heb.com/heb-store/US/tx/houston/buffalo-market-h-e-b-on-buffalo-speedway-599?utm_source=google&utm_medium=organic&utm_campaign=gmb_pharmacy,,02/03/2021      ,08:05:00        ,-95.427766,29.726999
300,Heb Pharmacy 263,Pharmacy,,1628 Central Blvd,Brownsville,Cameron,1628 Central Blvd,78520,25.9264497765928,-97.5112926203341,0,0,0,200,(956) 542-0934,https://www.heb.com/heb-store/US/tx/brownsville/central-blvd-h-e-b-263?utm_source=google&utm_medium=organic&utm_campaign=gmb_pharmacy,,02/03/2021      ,08:05:00        ,-97.511293,25.92645
301,Heb Pharmacy 388,Pharmacy,,6001 W Parmer Lane,Austin,Travis,6001 W Parmer Lane,78727,30.44194320703,-97.7415051952666,0,0,0,200,(512) 249-8316,https://www.heb.com/heb-store/US/tx/austin/parmer-and-mcneil-h-e-b-388?utm_source=google&utm_medium=organic&utm_campaign=gmb_pharmacy,,02/03/2021      ,08:05:00        ,-97.741505,30.441943
302,Heb Pharmacy 182,Pharmacy,,3002 S 31st St,Temple,Bell,3002 S 31st St,76502,31.0713698207734,-97.3687952372104,0,0,0,200,(254) 773-2177,https://www.heb.com/heb-store/US/tx/temple/31st-and-market-h-e-b-182?utm_source=google&utm_medium=organic&utm_campaign=gmb_pharmacy,,02/03/2021      ,08:05:00        ,-97.368795,31.07137
303,Heb Pharmacy 038,Pharmacy,,901 W Expressway 83,San Juan,Hidalgo,901 W Expressway 83,78589,26.201559893015,-98.1587317085077,0,0,0,200,(210) 341-3875,https://www.heb.com/heb-store/US/tx/san-antonio/west-ave-and-jackson-keller-h-e-b-389?utm_source=google&utm_medium=organic&utm_campaign=gmb_pharmacy,,02/03/2021      ,08:05:00        ,-98.158732,26.20156
304,Heb Pharmacy 745,Pharmacy,,4955 Beechnut,Houston,Harris,4955 Beechnut,77096,29.6890924822953,-95.4635039882099,0,0,0,200,(713) 664-4700,https://www.heb.com/pharmacy?utm_source=google&utm_medium=organic&utm_campaign=gmb_pharmacy,,02/03/2021      ,08:05:00        ,-95.463504,29.689092
305,Heb Pharmacy 498,Pharmacy,,7405 Fm 1960 E,Humble,Harris,7405 Fm 1960 E,77346,29.9983261868735,-95.1644160825979,0,0,0,200,(281) 812-4729,https://www.heb.com/heb-store/US/tx/humble/atascocita-h-e-b-498?utm_source=google&utm_medium=organic&utm_campaign=gmb_pharmacy,,02/03/2021      ,08:05:00        ,-95.164416,29.998326
306,Heb Pharmacy 102,Pharmacy,,8503 Nw Military Hwy,San Antonio,Bexar,8503 Nw Military Hwy,78231,29.5533433275079,-98.5332386468229,0,0,0,200,(210) 479-4350,https://www.heb.com/heb-store/US/tx/san-antonio/alon-market-h-e-b-102?utm_source=google&utm_medium=organic&utm_campaign=gmb_pharmacy,,02/03/2021      ,08:05:00        ,-98.533239,29.553343
307,Heb Pharmacy 411,Pharmacy,,219 W Oaklawn Rd,Pleasanton,Atascosa,219 W Oaklawn Rd,78064,28.9570824797063,-98.4852900535265,0,0,0,200,(830) 281-8190,https://www.heb.com/heb-store/US/tx/pleasanton/pleasanton-h-e-b-411?utm_source=google&utm_medium=organic&utm_campaign=gmb_pharmacy,,02/03/2021      ,08:05:00        ,-98.48529,28.957082
308,Heb Pharmacy 045,Pharmacy,,2400 S Congress Ave,Austin,Travis,2400 S Congress Ave,78704,30.2379668691374,-97.7543017630254,0,0,0,200,(281) 907-7950,https://www.heb.com/heb-store/US/tx/spring/spring-market-h-e-b-610?utm_source=google&utm_medium=organic&utm_campaign=gmb_pharmacy,,02/03/2021      ,08:05:00        ,-97.754302,30.237967
309,Heb Pharmacy 567,Pharmacy,,999 E Basse Rd,San Antonio,Bexar,999 E Basse Rd,78209,29.4967115435272,-98.4692089531892,0,0,0,200,(210) 822-0270,https://www.heb.com/heb-store/US/tx/san-antonio/lincoln-heights-market-h-e-b-567?utm_source=google&utm_medium=organic&utm_campaign=gmb_pharmacy,,02/03/2021      ,08:05:00        ,-98.469209,29.496712
310,Heb Pharmacy 742,Pharmacy,,6430 Garth Rd,Baytown,Harris,6430 Garth Rd,77521,29.7962015194488,-94.9805935296052,0,0,0,200,(281) 421-5300,https://www.heb.com/heb-store/US/tx/baytown/baytown-h-e-b-742?utm_source=google&utm_medium=organic&utm_campaign=gmb_pharmacy,,02/03/2021      ,08:05:00        ,-94.980594,29.796202
