OBJECTID,NAME,TYPE,TSA,STREET,CITY,COUNTY,ADDRESS,ZIP,LATITUDE,LONGITUDE,PFIZER_AVAILABLE,MODERNA_AVAILABLE,PFIZER_AVAILABLE2,MODERNA_AVAILABLE2,JJ_AVAILABLE,VACCINES_AVAILABLE,VACCINES_AVAILABLE2,PublicPhone,WEBSITE,RemoveRecord,LAST_UPDATE_VAC,LAST_UPDATE_TIME_VAC,CESenabled,x,y
1,Sunrise Comprehensive Healthcare,Community Clinic,,,Houston,Harris,10603 Bellaire Blvd Suite B116,77072,29.7032616539677,-95.5679379136591,0,80,0,0,0,80,0,,,,05/01/2021      ,12:51:15        ,,-95.567938,29.703262
2,Brookshires Pharmacy 79,Pharmacy,,1705 W Audie Murphy Pkwy,Farmersville,Collin,1705 W Audie Murphy Pkwy,75442,33.1588567808075,-96.3887366821937,0,0,0,0,205,205,0,(972) 782-8601,https://www.brookshires.com/covid-19-information,,05/01/2021      ,11:28:07        ,,-96.388737,33.158857
3,Medly Pharmacy,Federal Allocation,,,San Antonio,Bexar,13331 Nacogdoches Rd,78217,30.3195496,-97.7056526,0,0,0,0,100,100,0,,,,04/28/2021      ,11:28:20        ,,-97.705653,30.31955
4,"Oaks Ambulatory Surgery Center, LLC",Other,,4126 Southwest Fwy,Houston,Harris,"4126 Southwest Freeway, Houston, TX, USA",77027,29.7299644,-95.4449531,0,14,0,0,0,14,0,,,,05/01/2021      ,06:55:34        ,,-95.444953,29.729964
5,The University of Texas Health Science Center at Houston,Vaccine Hub,Q,1851 Crosspoint Ave.,Houston,Harris,1851 Crosspoint Ave.,77054,29.6707709830585,-95.4059914757526,0,0,0,0,0,0,0,713-500-7476,https://www.utphysicians.com/covid19vaccine/,,04/29/2021      ,07:40:29        ,,-95.405991,29.670771
6,Tarrant County Public Health District,Vaccine Hub,,1101 S Main St Ste 1350,Fort Worth,Tarrant,1101 S Main St Suite. 1350,76104,32.730265,-97.32002,14682,17600,9468,7640,0,32282,17108,817-248-6299 Option 7,www.tarrantcounty.com/COVIDshot,,04/30/2021      ,15:01:14        ,,-97.32002,32.730265
7,KING-DAVIS ENTERPRISE LLC,Other,,3945 Braxton Dr,Houston,Harris,3945 Braxton Drive,77063,29.7236421,-95.5089602,0,90,0,0,0,90,0,(281) 636-6861,KINGDAVISENTERPRISE1@gmail.com,,05/01/2021      ,08:40:53        ,,-95.50896,29.723642
8,Walgreens Pharmacy 04134,Pharmacy,,,Austin,,11724 RESEARCH BLVD,78759,30.4223810798127,-97.7264112094485,1,0,0,0,60,61,0,(512) 250-2070,https://www.walgreens.com/locator/walgreens-11724+research+blvd-austin-tx-78759/id=4134,,04/30/2021      ,23:03:28        ,,-97.726411,30.422381
9,Walgreens Pharmacy 06643,Pharmacy,,,,,"6360 SAN FELIPE ST Houston, TX 77057",,29.7508214271357,-95.4970612818772,0,0,0,0,100,100,0,(713) 278-2616,https://www.walgreens.com/locator/walgreens-6360+san+felipe+st-houston-tx-77057/id=6643,,04/30/2021      ,21:07:57        ,,-95.497061,29.750821
10,Walgreens Pharmacy 03224,Pharmacy,,,,,"6901 SAN PEDRO AVE San Antonio, TX 78216",,29.5059290407028,-98.5006285879054,78,0,0,0,140,218,0,(210) 349-9809,https://www.walgreens.com/locator/walgreens-6901+san+pedro+ave-san+antonio-tx-78216/id=3224,,04/30/2021      ,20:46:29        ,,-98.500629,29.505929
11,Walgreens Pharmacy 04538,Pharmacy,,,,,"1180 CLEAR LAKE CITY BLVD Houston, TX 77062",,29.5808335214013,-95.1556571860489,0,0,0,0,40,40,0,(281) 218-0184,https://www.walgreens.com/locator/walgreens-1180+clear+lake+city+blvd-houston-tx-77062/id=4538,,04/30/2021      ,20:40:31        ,,-95.155657,29.580834
12,CASH SAVER PHARMACY #6,Federal Allocation,,655 LAVACA ST ,BEAUMONT ,,655 LAVACA ST BEAUMONT 77705,77705,30.0466559944656,-94.0875097111191,0,195,0,0,195,390,0,,,,04/30/2021      ,20:34:04        ,,-94.08751,30.046656
13,Walgreens Pharmacy 11175,Pharmacy,,,,,"701 US HIGHWAY 259 N Kilgore, TX 75662",,32.3876068718482,-94.868369768839,54,0,54,0,0,54,54,(903) 983-2892,https://www.walgreens.com/locator/walgreens-701+us+highway+259+n-kilgore-tx-75662/id=11175,,04/30/2021      ,20:22:55        ,,-94.86837,32.387607
14,Walgreens Pharmacy 09647,Pharmacy,,,,,"5201 BELT LINE RD Dallas, TX 75254",,32.9544591767458,-96.8189410147996,6,490,0,0,320,816,0,(972) 386-6254,https://www.walgreens.com/locator/walgreens-5201+belt+line+rd-dallas-tx-75254/id=9647,,04/30/2021      ,20:22:25        ,,-96.818941,32.954459
15,Walgreens Pharmacy 07963,Pharmacy,,,,,"2906 HOUSTON HWY Victoria, TX 77901",,28.8127756126209,-96.9735039367591,2628,370,2628,0,70,3068,2628,(361) 576-5458,https://www.walgreens.com/locator/walgreens-2906+houston+hwy-victoria-tx-77901/id=7963,,04/30/2021      ,20:11:59        ,,-96.973504,28.812776
16,Walgreens Pharmacy 07964,Pharmacy,,,,,"5204 N NAVARRO ST Victoria, TX 77904",,28.8435372447648,-96.9993728815118,12,0,12,0,90,102,12,(361) 576-5238,https://www.walgreens.com/locator/walgreens-5204+n+navarro+st-victoria-tx-77904/id=7964,,04/30/2021      ,20:07:31        ,,-96.999373,28.843537
17,Walgreens Pharmacy 03696,Pharmacy,,,Sugar Land,,4711 SWEETWATER BLVD,77479,29.5853552061569,-95.6152700031419,78,0,0,0,100,178,0,(281) 980-6304,https://www.walgreens.com/locator/walgreens-4711+sweetwater+blvd-sugar+land-tx-77479/id=3696,,04/30/2021      ,20:06:58        ,,-95.61527,29.585355
18,Walgreens Pharmacy 10839,Pharmacy,,,,,"704 S ADAMS ST Fredericksburg, TX 78624",,30.2674571423996,-98.879101984704,24,0,0,0,85,109,0,(830) 990-5089,https://www.walgreens.com/locator/walgreens-704+s+adams+st-fredericksburg-tx-78624/id=10839,,04/29/2021      ,15:24:03        ,,-98.879102,30.267457
19,Walgreens Pharmacy 09602,Pharmacy,,,,,"6467 WOODLANDS PKWY The Woodlands, TX 77381",,30.1784895965151,-95.5345819869354,0,230,0,0,110,340,0,(281) 292-6743,https://www.walgreens.com/locator/walgreens-6467+woodlands+pkwy-the+woodlands-tx-77381/id=9602,,04/30/2021      ,19:18:21        ,,-95.534582,30.17849
20,Walgreens Pharmacy 07251,Pharmacy,,, Houston ,,11038 Westheimer Rd,77042,29.7376948162122,-95.5713272030007,60,250,0,0,70,380,0,,,,04/30/2021      ,18:55:47        ,,-95.571327,29.737695
21,El Paso Pulmonary Association West,Medical Practice,,4305 N Mesa St,El Paso,El Paso,4305 N Mesa St Ste A,79902,31.7973560010071,-106.511277419753,0,900,0,0,25,925,0,(915) 532-2477,http://www.elpasopulmonary.com/,,04/30/2021      ,17:06:46        ,,-106.511277,31.797356
22,Pediatric Center Richmond,Medical Practice,,1300 Main Street,Richmond,Fort Bend,1300 Main Street,77469,29.5773164087802,-95.7678574303947,0,190,0,0,50,240,0,(281) 341-9696,http://www.pediatriccenter.com/,,04/29/2021      ,11:09:41        ,,-95.767857,29.577316
23,LUMIN Diagnostic Services LLC,Other,,610 Uptown Blvd,Cedar Hill,Dallas,"610 Uptown Boulevard, Cedar Hill, TX, USA",75104,32.5954586,-96.9446387,0,180,0,0,0,180,0,469-773-9261,,,04/30/2021      ,08:06:22        ,,-96.944639,32.595459
24,International Travel Solutions-Fort Worth,Medical Practice,,5608 Malvey Ave,Fort Worth,Tarrant,"5608 Malvey Avenue, Fort Worth, TX, USA",76107,32.7333788,-97.4067908,0,150,0,0,0,150,0,,,,05/01/2021      ,07:50:52        ,,-97.406791,32.733379
25,Walgreens Pharmacy 06189,Pharmacy,,,,,"12550 METRIC BLVD Austin, TX 78727",,30.4138220544764,-97.6908563653504,0,0,0,0,65,65,0,(512) 835-4963,https://www.walgreens.com/locator/walgreens-12550+metric+blvd-austin-tx-78727/id=6189,,04/30/2021      ,17:23:29        ,,-97.690856,30.413822
26,InHouse Physicians-R3 Core Clinic,Other,,2613 Denton Tap Rd,Lewisville,Denton,2613 Denton Tap Road,75067,32.9982361,-96.9910555,0,100,0,0,0,100,0,,,,04/29/2021      ,09:07:59        ,,-96.991055,32.998236
27,Texas Diagnostic Services PLLC,Other,,Suite 101,Plano,collin,"5228 Village Creek Drive, Plano, TX, USA",75093,33.0140258,-96.8083336,0,100,0,0,0,100,0,,,,04/30/2021      ,15:32:15        ,,-96.808334,33.014026
28,Woori Pharmacy,Pharmacy,,3320 K Ave,Plano,Collin,"3320 K Avenue, Plano, TX, USA",75074,33.0397833,-96.6970411,0,290,0,0,0,290,0,,,,04/30/2021      ,17:23:39        ,,-96.697041,33.039783
29,Princeton  Pharmacy,Federal Allocation,,100 W Princeton Dr Ste A,Princeton,Collin,100 W PRINCETON DR # A PRINCETON 75407,75407,33.1749445029216,-96.5001321574494,0,120,0,0,125,245,0,,,,04/30/2021      ,17:16:25        ,,-96.500132,33.174945
30,Ultra Care Pharmacy,Federal Allocation,,3250 W Pleasant Run Rd Ste 165,Lancaster,Dallas,3250 W Pleasant Run Rd Ste 165,75146,32.6029873,-96.8210319,0,23,0,0,46,69,0,,,,04/26/2021      ,00:00:00        ,,-96.821032,32.602987
31,Medi Pro International Pharmacy,Pharmacy,,11811 FALLBROOK DR # B3 Houston 77065,Houston,Harris,11811 Fallbrook Dr,77065,29.9317,-95.41275,0,100,0,0,0,100,0,,,,04/30/2021      ,10:08:20        ,,-95.41275,29.9317
32,Pieratts Pharmacy,Federal Allocation,,233 S Knox Ave,Giddings,Lee,233 South Knox Avenue,3429,30.1799265,-96.9287044,0,230,0,10,0,230,10,(979) 542-3164,,,05/01/2021      ,07:36:55        ,,-96.928704,30.179927
33,HEREFORD PHARMACY,Federal Allocation,,809 S 25 Mile Ave,Hereford,Deaf Smith,809 S 25 Mile Ave,79045,34.820489611554,-102.406077688264,0,140,0,0,185,325,0,806-364-3400,,,04/30/2021      ,08:46:47        ,,-102.406078,34.82049
34,KROGER PHARMACY 917,Federal Allocation,,,Granbury,,3915 E US HIGHWAY 377,76049,32.4546221319016,-97.7269034297048,168,0,0,0,0,168,0,,,,04/30/2021      ,08:05:00        ,,-97.726903,32.454622
35,Kroger Pharmacy 851,Pharmacy,,2210 S Fielder Rd,Arlington,Tarrant,2210 S Fielder Rd,76013,32.7078450111243,-97.1320074783325,276,0,0,0,100,376,0,(817) 277-3533,http://www.kroger.com/stores/details/026/00851?cid=loc_02600851PP_gmb,,04/30/2021      ,08:05:00        ,,-97.132007,32.707845
36,Kroger Pharmacy 817,Pharmacy,,2525 W Interstate 20,Grand Prairie,Dallas,2525 W Interstate 20,75052,32.6749246253977,-97.0432194867371,156,0,0,0,100,256,0,(972) 988-1366,http://www.kroger.com/stores/details/035/00542?cid=loc_03500542PP_gmb,,04/30/2021      ,08:05:00        ,,-97.043219,32.674925
37,Kroger Pharmacy 695,Pharmacy,,5701 W Pleasant Ridge Rd,Arlington,Tarrant,5701 W Pleasant Ridge Rd,76016,32.6816559642005,-97.193171734546,162,0,0,0,0,162,0,(817) 483-0354,http://www.kroger.com/stores/details/035/00695?cid=loc_03500695PP_gmb,,04/30/2021      ,08:05:00        ,,-97.193172,32.681656
38,Kroger Pharmacy 688,Pharmacy,,301 S Bowen Rd,Arlington,Tarrant,301 S Bowen Rd,76013,32.7328723681778,-97.1491019507631,180,0,0,0,90,270,0,(817) 277-0072,http://www.kroger.com/stores/details/029/00688?cid=loc_02900688PP_gmb,,04/30/2021      ,08:05:00        ,,-97.149102,32.732872
39,Kroger Pharmacy 596,Pharmacy,,2200 Fm 663,Midlothian,Ellis,2200 Fm 663,76065,32.4602088483329,-96.9948020097773,258,0,0,0,200,458,0,(469) 336-2041,http://www.kroger.com/stores/details/035/00596?cid=loc_03500596PP_gmb,,04/30/2021      ,08:05:00        ,,-96.994802,32.460209
40,Kroger Pharmacy 594,Pharmacy,,3300 E Broad St,Mansfield,Tarrant,3300 E Broad St,76063,32.5756597996573,-97.0839572963694,0,0,0,0,100,100,0,(817) 435-5418,http://www.kroger.com/stores/details/035/00594?cid=loc_03500594PP_gmb,,04/30/2021      ,08:05:00        ,,-97.083957,32.57566
41,Kroger Pharmacy 592,Pharmacy,,5101 W Sublett Rd,Arlington,Tarrant,5101 W Sublett Rd,76017,32.648117999848,-97.1886600075237,180,0,0,0,0,180,0,(817) 516-3763,,,04/30/2021      ,08:05:00        ,,-97.18866,32.648118
42,Kroger Pharmacy 591,Pharmacy,,1631 Sw Wilshire Blvd,Burleson,Johnson,1631 Sw Wilshire Blvd,76028,32.5173757520449,-97.3509747108234,138,10,0,0,0,148,0,(817) 258-5952,http://www.kroger.com/stores/details/035/00591?cid=loc_03500591PP_gmb,,04/30/2021      ,08:05:00        ,,-97.350975,32.517376
43,Kroger Pharmacy 590,Pharmacy,,1004 S Crowley Rd,Crowley,Tarrant,1004 S Crowley Rd,76036,32.562919139193,-97.3523245460135,294,0,0,0,0,294,0,(817) 297-0006,http://www.kroger.com/stores/details/035/00590?cid=loc_03500590PP_gmb,,04/30/2021      ,08:05:00        ,,-97.352325,32.562919
44,Kroger Pharmacy 584,Federal Allocation,,3001 Matlock,Mansfield,Tarrant,3001 Matlock,76063,32.607,-97.11773,90,0,0,0,100,190,0,,,,04/30/2021      ,08:05:00        ,,-97.11773,32.607
45,Kroger Pharmacy 545,Pharmacy,,1001 N Beckley Ste 500,Desoto,Dallas,1001 N Beckley Ste 500,75115,32.6057527545048,-96.8234571807083,138,0,0,0,160,298,0,(972) 224-3225,http://www.kroger.com/stores/details/026/00545?cid=loc_02600545PP_gmb,,04/30/2021      ,08:05:00        ,,-96.823457,32.605753
46,Kroger Pharmacy 543,Pharmacy,,945 W Lamar Blvd,Arlington,Tarrant,945 W Lamar Blvd,76012,32.7618374595243,-97.1188887102149,258,0,0,0,100,358,0,(817) 277-2144,http://www.kroger.com/stores/details/035/00543?cid=loc_03500543PP_gmb,,04/30/2021      ,08:05:00        ,,-97.118889,32.761837
47,Kroger Pharmacy 538,Pharmacy,,2350 Se Green Oaks Blvd,Arlington,Tarrant,2350 Se Green Oaks Blvd,76018,32.6603115315828,-97.0664221034694,258,0,0,0,80,338,0,(817) 419-0312,http://www.kroger.com/stores/details/035/00538?cid=loc_03500538PP_gmb,,04/30/2021      ,08:05:00        ,,-97.066422,32.660312
48,Kroger Pharmacy 529,Pharmacy,,4241 Capitol Ave,Dallas,Dallas,4241 Capitol Ave,75204,32.8071281621449,-96.7873040511898,264,0,0,0,85,349,0,(972)338-3101,http://www.kroger.com/stores/details/034/00352?cid=loc_03400352PP_gmb,,04/30/2021      ,08:05:00        ,,-96.787304,32.807128
49,Kroger Pharmacy 528,Pharmacy,,4142 Cedar Springs Rd,Dallas,Dallas,4142 Cedar Springs Rd,75219,32.8125188466222,-96.813119983679,258,0,0,0,70,328,0,(214)599-9861,http://www.kroger.com/stores/details/034/00744?cid=loc_03400744PP_gmb,,04/30/2021      ,08:05:00        ,,-96.81312,32.812519
50,Kroger Pharmacy 527,Pharmacy,,200 W Camp Wisdom Rd,Duncanville,Dallas,200 W Camp Wisdom Rd,75116,32.6618790732051,-96.9093604930254,348,0,0,0,200,548,0,(972) 298-6255,http://www.kroger.com/stores/details/035/00527?cid=loc_03500527PP_gmb,,04/30/2021      ,08:05:00        ,,-96.90936,32.661879
51,Kroger Pharmacy 520,Pharmacy,,3120 S University Dr,Fort Worth,Tarrant,3120 S University Dr,76109,32.7045125759694,-97.3604560817409,30,0,14,0,85,115,14,(817) 566-7861,http://www.kroger.com/stores/details/018/00520?cid=loc_01800520PP_gmb,,04/30/2021      ,08:05:00        ,,-97.360456,32.704513
52,Kroger Pharmacy 518,Pharmacy,,5665 E Mockingbird Ln,Dallas,Dallas,5665 E Mockingbird Ln,75206,32.8366574704818,-96.7702799927305,222,0,0,0,80,302,0,(214) 826-2967,http://www.kroger.com/stores/details/034/00343?cid=loc_03400343PP_gmb,,04/30/2021      ,08:05:00        ,,-96.77028,32.836657
53,Kroger Pharmacy 509,Federal Allocation,,,Dallas ,,4901 Maple Ave ,75235,32.8140016680626,-96.8292192452673,266,0,34,0,65,331,34,,,,04/30/2021      ,08:05:00        ,,-96.829219,32.814002
54,Kroger Pharmacy 495,Pharmacy,,515 S Macarthur Blvd,Irving,Dallas,515 S Macarthur Blvd,75060,32.8094833822965,-96.9600784671309,114,0,10,0,90,204,10,(972) 254-9105,http://www.kroger.com/stores/details/035/00495?cid=loc_03500495PP_gmb,,04/30/2021      ,08:05:00        ,,-96.960078,32.809483
55,Kroger Pharmacy 445,Pharmacy,,5330 S Cooper St,Arlington,Tarrant,5330 S Cooper St,76017,32.6607374579929,-97.1344508869272,138,0,0,0,75,213,0,(817) 472-9576,http://www.kroger.com/stores/details/035/00445?cid=loc_03500445PP_gmb,,04/30/2021      ,08:05:00        ,,-97.134451,32.660737
56,Kroger Pharmacy 439,Pharmacy,,9114 Camp Bowie West Blvd,Fort Worth,Tarrant,9114 Camp Bowie West Blvd,76116,32.724607476371,-97.4773719801928,258,0,20,0,80,338,20,(817) 560-4233,http://www.kroger.com/stores/details/035/00439?cid=loc_03500439PP_gmb,,04/30/2021      ,08:05:00        ,,-97.477372,32.724607
57,Kroger Pharmacy 436,Pharmacy,,235 E Fm 1382,Cedar Hill,Dallas,235 E Fm 1382,75104,32.5977437256827,-96.9415061813503,258,0,0,0,0,258,0,(972) 291-0224,http://www.kroger.com/stores/details/035/00436?cid=loc_03500436PP_gmb,,04/30/2021      ,08:05:00        ,,-96.941506,32.597744
58,KROGER PHARMACY 435,Federal Allocation,,,Arlington,,2475 Ascension Blvd,76006,32.7752397536448,-97.0816208005199,78,0,0,0,100,178,0,,,,04/30/2021      ,08:05:00        ,,-97.081621,32.77524
59,Kroger Pharmacy 415,Pharmacy,,1617 W Henderson St,Cleburne,Johnson,1617 W Henderson St,76033,32.3383550449916,-97.4135885468746,180,0,0,0,0,180,0,(817) 641-0700,http://www.kroger.com/stores/details/024/00711?cid=loc_02400711PP_gmb,,04/30/2021      ,08:05:00        ,,-97.413589,32.338355
60,Kroger Pharmacy 413,Pharmacy,,2580 E Arkansas Ln,Arlington,Tarrant,2580 E Arkansas Ln,76014,32.7060225339165,-97.0649960064632,150,0,0,0,0,150,0,(817) 861-2779,http://www.kroger.com/stores/details/011/00413?cid=loc_01100413PP_gmb,,04/30/2021      ,08:05:00        ,,-97.064996,32.706023
61,Kroger Pharmacy 224,Pharmacy,,3510 Altamesa Blvd,Fort Worth,Tarrant,3510 Altamesa Blvd,76133,32.6498780318772,-97.3666256653921,258,0,15,0,185,443,15,(817) 292-3777,http://www.kroger.com/stores/details/035/00224?cid=loc_03500224PP_gmb,,04/30/2021      ,08:05:00        ,,-97.366626,32.649878
62,Kroger Pharmacy 213,Pharmacy,,752 Wynnewood Village Shp Ctr,Dallas,Dallas,752 Wynnewood Village Shp Ctr,75224,32.721619445936,-96.8323298943602,174,0,0,0,100,274,0,(214) 942-3191,http://www.kroger.com/stores/details/035/00213?cid=loc_03500213PP_gmb,,04/30/2021      ,08:05:00        ,,-96.83233,32.721619
63,Kroger Pharmacy 191,Pharmacy,,313 E Pioneer Pkwy,Grand Prairie,Dallas,313 E Pioneer Pkwy,75051,32.7093019626399,-97.0010955742679,96,0,0,0,90,186,0,(972) 264-3011,http://www.kroger.com/stores/details/035/00191?cid=loc_03500191PP_gmb,,04/30/2021      ,08:05:00        ,,-97.001096,32.709302
64,Kroger Pharmacy 879,Pharmacy,,6805 N Main,The Colony,Denton,6805 N Main,75056,33.0981285511973,-96.8927226666794,30,0,0,0,100,130,0,(972) 370-1006,http://www.kroger.com/stores/details/016/00879?cid=loc_01600879PP_gmb,,04/30/2021      ,08:05:00        ,,-96.892723,33.098129
65,Kroger Pharmacy 870,Pharmacy,,3770 Belt Line Rd,Addison,Dallas,3770 Belt Line Rd,75001,32.9505169917599,-96.8530190162608,66,0,0,0,100,166,0,(972) 620-0349,http://www.kroger.com/stores/details/035/00870?cid=loc_03500870PP_gmb,,04/30/2021      ,08:05:00        ,,-96.853019,32.950517
66,Kroger Pharmacy 844,Pharmacy,,708 E Pipeline Rd,Hurst,Tarrant,708 E Pipeline Rd,76053,32.8235024925429,-97.1591106975261,24,0,0,0,70,94,0,(817) 285-8851,http://www.kroger.com/stores/details/035/00844?cid=loc_03500844PP_gmb,,04/30/2021      ,08:05:00        ,,-97.159111,32.823502
67,Kroger Pharmacy 807,Pharmacy,,7201 Boulevard 26,North Richland Hills,Tarrant,7201 Boulevard 26,76180,32.8242517508681,-97.2273077057803,60,0,0,0,70,130,0,(817) 281-8310,http://www.kroger.com/stores/details/035/00807?cid=loc_03500807PP_gmb,,04/30/2021      ,08:05:00        ,,-97.227308,32.824252
68,Kroger Pharmacy 599,Pharmacy,,4620 State Highway 121,Lewisville,Denton,4620 State Highway 121,75056,33.0637339563405,-96.8921995521021,138,0,0,0,115,253,0,(469) 535-2480,http://www.kroger.com/stores/details/035/00599?cid=loc_03500599PP_gmb,,04/30/2021      ,08:05:00        ,,-96.8922,33.063734
69,Kroger Pharmacy 587,Pharmacy,,3939 Frankford Rd,Dallas,Denton,3939 Frankford Rd,75287,32.9970674836067,-96.8458219789182,66,0,0,0,100,166,0,(972) 662-1011,http://www.kroger.com/stores/details/035/00587?cid=loc_03500587PP_gmb,,04/30/2021      ,08:05:00        ,,-96.845822,32.997067
70,Kroger Pharmacy 586,Pharmacy,,1592 S Loop 288,Denton,Denton,1592 S Loop 288,76205,33.1938544535983,-97.0948950932805,24,0,0,0,100,124,0,(940) 566-5252,http://www.kroger.com/stores/details/035/00586?cid=loc_03500586PP_gmb,,04/30/2021      ,08:05:00        ,,-97.094895,33.193854
71,KROGER PHARMACY 585,Federal Allocation,,,Flower Mound ,,1101 Flower Mound Rd,75028,33.0098743959091,-97.0469232299177,12,0,0,0,0,12,0,,,,04/30/2021      ,08:05:00        ,,-97.046923,33.009874
72,Kroger Pharmacy 582,Pharmacy,,9135 Grapevine Hwy,North Richland Hills,Tarrant,9135 Grapevine Hwy,76180,32.8507213707682,-97.1923263296366,30,0,0,0,75,105,0,(817) 605-3937,http://www.kroger.com/stores/details/035/00582?cid=loc_03500582PP_gmb,,04/30/2021      ,08:05:00        ,,-97.192326,32.850721
73,Kroger Pharmacy 577,Pharmacy,,7505 N Macarthur Blvd,Irving,Dallas,7505 N Macarthur Blvd,75063,32.9090515511039,-96.9588772200675,66,0,0,0,65,131,0,(972) 373-8158,http://www.kroger.com/stores/details/035/00577?cid=loc_03500577PP_gmb,,04/30/2021      ,08:05:00        ,,-96.958877,32.909052
74,Kroger Pharmacy 576,Pharmacy,,4750 W Bailey Boswell Rd,Fort Worth,Tarrant,4750 W Bailey Boswell Rd,76179,32.8809734690063,-97.3955165764222,66,0,0,0,150,216,0,(682) 316-7508,http://www.kroger.com/stores/details/026/00576?cid=loc_02600576PP_gmb,,04/30/2021      ,08:05:00        ,,-97.395517,32.880973
75,Kroger Pharmacy 572,Pharmacy,,3400 Fm 407 E,Argyle,Denton,3400 Fm 407 E,76226,33.0761631033735,-97.1291159731939,0,0,0,0,200,200,0,(940) 294-8332,http://www.kroger.com/stores/details/035/00572?cid=loc_03500572PP_gmb,,04/30/2021      ,08:05:00        ,,-97.129116,33.076163
76,Kroger Pharmacy 562,Pharmacy,,12600 N Beach St,Fort Worth,Tarrant,12600 N Beach St,76244,32.9557919748854,-97.2813043451312,120,0,0,0,0,120,0,(817) 562-3901,http://www.kroger.com/stores/details/035/00562?cid=loc_03500562PP_gmb,,04/30/2021      ,08:05:00        ,,-97.281304,32.955792
77,Kroger Pharmacy 542,Pharmacy,,3300 Texas Sage Trl,Fort Worth,Tarrant,3300 Texas Sage Trl,76177,32.9119824911057,-97.3093589941549,0,0,24,0,100,100,24,(817) 750-2041,http://www.kroger.com/stores/details/035/00542?cid=loc_03500542PP_gmb,,04/30/2021      ,08:05:00        ,,-97.309359,32.911982
78,Kroger Pharmacy 537,Pharmacy,,2061 Rufe Snow Dr,Keller,Tarrant,2061 Rufe Snow Dr,76248,32.8970886454438,-97.2384487638425,30,0,0,0,100,130,0,(817) 605-8728,http://www.kroger.com/stores/details/026/00537?cid=loc_02600537PP_gmb,,04/30/2021      ,08:05:00        ,,-97.238449,32.897089
79,Kroger Pharmacy 535,Pharmacy,,9150 N Tarrant Pkwy,North Richland Hills,Tarrant,9150 N Tarrant Pkwy,76182,32.903737715866,-97.1886891765467,95,0,0,0,0,95,0,(817) 918-3387,http://www.kroger.com/stores/details/035/00535?cid=loc_03500535PP_gmb,,04/30/2021      ,08:05:00        ,,-97.188689,32.903738
80,Kroger Pharmacy 532,Pharmacy,,5241 North Tarrant Pkwy,Fort Worth,Tarrant,5241 North Tarrant Pkwy,76244,32.8951074569,-97.2710329933423,66,0,0,0,100,166,0,(817) 380-6181,http://www.kroger.com/stores/details/035/00532?cid=loc_03500532PP_gmb,,04/30/2021      ,08:05:00        ,,-97.271033,32.895107
81,Kroger Pharmacy 530,Pharmacy,,1653 Basswood Blvd,Fort Worth,Tarrant,1653 Basswood Blvd,76131,32.87097750831,-97.3401840298158,102,0,0,0,100,202,0,(682) 316-6387,http://www.kroger.com/stores/details/035/00530?cid=loc_03500530PP_gmb,,04/30/2021      ,08:05:00        ,,-97.340184,32.870978
82,Kroger Pharmacy 521,Pharmacy,,2109 Harwood Rd,Bedford,Tarrant,2109 Harwood Rd,76021,32.852137546452,-97.1331970380308,48,0,0,0,5,53,0,(817) 685-9628,http://www.kroger.com/stores/details/035/00521?cid=loc_03500521PP_gmb,,04/30/2021      ,08:05:00        ,,-97.133197,32.852138
83,Kroger Pharmacy 516,Pharmacy,,976 Keller Pkwy,Keller,Tarrant,976 Keller Pkwy,76248,32.9322930159663,-97.2304940024533,18,0,0,0,100,118,0,(817) 431-5178,http://www.kroger.com/stores/details/035/00516?cid=loc_03500516PP_gmb,,04/30/2021      ,08:05:00        ,,-97.230494,32.932293
84,Kroger Pharmacy 512,Pharmacy,,2110 E Southlake Blvd,Southlake,Tarrant,2110 E Southlake Blvd,76092,32.9428729894305,-97.1215089769669,30,0,0,0,135,165,0,(817) 421-7487,http://www.kroger.com/stores/details/035/00460?cid=loc_03500460PP_gmb,,04/30/2021      ,08:05:00        ,,-97.121509,32.942873
85,Kroger Pharmacy 493,Pharmacy,,500 W University Dr,Denton,Denton,500 W University Dr,76201,33.230929539181,-97.1377724675172,90,0,0,0,0,90,0,(940) 383-3512,http://www.kroger.com/stores/details/011/00493?cid=loc_01100493PP_gmb,,04/30/2021      ,08:05:00        ,,-97.137772,33.23093
86,Kroger Pharmacy 460,Pharmacy,,4038 Old Denton Rd,Carrollton,Denton,4038 Old Denton Rd,75007,33.0189513336025,-96.9150901105788,1098,30,48,0,0,1128,48,(972) 512-3366,http://www.kroger.com/stores/details/029/00391?cid=loc_02900391PP_gmb,,04/30/2021      ,08:05:00        ,,-96.91509,33.018951
87,Kroger Pharmacy 456,Pharmacy,,2709 Cross Timbers Road,Flower Mound,Denton,2709 Cross Timbers Road,75028,33.0361759769895,-97.0717040435746,66,0,0,0,100,166,0,(972) 355-1086,http://www.kroger.com/stores/details/011/00456?cid=loc_01100456PP_gmb,,04/30/2021      ,08:05:00        ,,-97.071704,33.036176
88,Kroger Pharmacy 451,Pharmacy,E,1060 N MAIN ST,EULESS,Tarrant,1060 N MAIN ST,76039,32.85018,-97.08154,0,0,0,0,300,300,0,(817) 283-1152,,,04/30/2021      ,08:05:00        ,,-97.08154,32.85018
89,Kroger Pharmacy 448,Pharmacy,,950 E Sandy Lake Rd,Coppell,Dallas,950 E Sandy Lake Rd,75019,32.9695325544896,-96.9610008117561,24,0,0,0,100,124,0,(972) 304-0823,http://www.kroger.com/stores/details/035/00448?cid=loc_03500448PP_gmb,,04/30/2021      ,08:05:00        ,,-96.961001,32.969533
90,Kroger Pharmacy 429,Pharmacy,,2201 W Grauwyler Rd,Irving,Dallas,2201 W Grauwyler Rd,75061,32.8289855983244,-96.9747077380189,48,0,0,0,115,163,0,(972) 790-5747,http://www.kroger.com/stores/details/035/00429?cid=loc_03500429PP_gmb,,04/30/2021      ,08:05:00        ,,-96.974708,32.828986
91,Kroger Pharmacy 402,Pharmacy,,3612 N Belt Line Rd,Irving,Dallas,3612 N Belt Line Rd,75062,32.8553555227261,-96.9919882401021,60,0,0,0,65,125,0,(972) 252-6450,http://www.kroger.com/stores/details/035/00402?cid=loc_03500402PP_gmb,,04/30/2021      ,08:05:00        ,,-96.991988,32.855356
92,Kroger Pharmacy 990,Pharmacy,,1215 North St,Nacogdoches,Nacogdoches,1215 North St,75961,31.6141083192146,-94.6530319539146,18,200,96,50,0,218,146,(936) 569-9884,http://www.kroger.com/stores/details/035/00990?cid=loc_03500990PP_gmb,,04/30/2021      ,08:05:00        ,,-94.653032,31.614108
93,Kroger Pharmacy 959,Pharmacy,,701 W Marshall Ave,Longview,Gregg,701 W Marshall Ave,75601,32.5000352098141,-94.7495244232703,96,0,0,0,70,166,0,(903) 758-0323,http://www.kroger.com/stores/details/021/00959?cid=loc_02100959PP_gmb,,04/30/2021      ,08:05:00        ,,-94.749524,32.500035
94,Kroger Pharmacy 953,Pharmacy,,300 E End Blvd Hwy 80,Marshall,Harrison,300 E End Blvd Hwy 80,75670,32.5428882765318,-94.3498888585481,0,0,0,0,105,105,0,(903) 935-7410,http://www.kroger.com/stores/details/035/00953?cid=loc_03500953PP_gmb,,04/30/2021      ,08:05:00        ,,-94.349889,32.542888
95,Kroger Pharmacy 893,Pharmacy,,1919 Faithon P Lucas Blvd,Mesquite,Dallas,1919 Faithon P Lucas Blvd,75181,32.7438584787229,-96.5524886277029,114,0,0,0,100,214,0,(469) 726-0013,http://www.kroger.com/stores/details/035/00893?cid=loc_03500893PP_gmb,,04/30/2021      ,08:05:00        ,,-96.552489,32.743858
96,Kroger Pharmacy 579,Pharmacy,,500 Marketplace Blvd,Forney,Kaufman,500 Marketplace Blvd,75126,32.74742886698,-96.4480002976873,294,0,0,0,200,494,0,(972) 564-8490,http://www.kroger.com/stores/details/035/00579?cid=loc_03500579PP_gmb,,04/30/2021      ,08:05:00        ,,-96.448,32.747429
97,Kroger Pharmacy 574,Pharmacy,,1950 N Goliad St,Rockwall,Rockwall,1950 N Goliad St,75087,32.9488631165349,-96.4620531892689,84,0,0,0,110,194,0,(469) 651-6027,http://www.kroger.com/stores/details/026/00574?cid=loc_02600574PP_gmb,,04/30/2021      ,08:05:00        ,,-96.462053,32.948863
98,Kroger Pharmacy 490,Pharmacy,,2415 Us Highway 79 S,Henderson,Rusk,2415 Us Highway 79 S,75654,32.1301439181574,-94.8083119070195,12,0,0,0,255,267,0,(903) 657-8596,http://www.kroger.com/stores/details/011/00490?cid=loc_01100490PP_gmb,,04/30/2021      ,08:05:00        ,,-94.808312,32.130144
99,Kroger Pharmacy 450,Pharmacy,,3600 Gus Thomasson Road,Mesquite,Dallas,3600 Gus Thomasson Road,75150,32.8136274790456,-96.6348935648027,42,0,36,0,100,142,36,(972) 270-2401,http://www.kroger.com/stores/details/035/00450?cid=loc_03500450PP_gmb,,04/30/2021      ,08:05:00        ,,-96.634894,32.813627
100,Kroger Pharmacy 431,Pharmacy,,325 E Spring St,Palestine,Anderson,325 E Spring St,75801,31.7617474551135,-95.6276390029246,66,0,0,0,0,66,0,(903) 729-5362,http://www.kroger.com/stores/details/011/00431?cid=loc_01100431PP_gmb,,04/30/2021      ,08:05:00        ,,-95.627639,31.761747
101,Kroger Pharmacy 403,Pharmacy,,532 W Interstate 30,Garland,Dallas,532 W Interstate 30,75043,32.8385032531402,-96.5983458898317,84,0,0,0,195,279,0,(972) 226-1132,http://www.kroger.com/stores/details/035/00403?cid=loc_03500403PP_gmb,,04/30/2021      ,08:05:00        ,,-96.598346,32.838503
102,Kroger Pharmacy 209,Pharmacy,,525 N Galloway,Mesquite,Dallas,525 N Galloway,75149,32.7717830067369,-96.5992374516092,42,0,36,0,100,142,36,(409) 948-3471,https://www.kroger.com/stores/details/034/00108?cid=loc_03400108_gmb,,04/30/2021      ,08:05:00        ,,-96.599237,32.771783
103,Kroger Pharmacy 957,Pharmacy,,1310 Clarksville St,Paris,Lamar,1310 Clarksville St,75460,33.6587317770619,-95.5422577520564,0,0,0,0,130,130,0,(903) 785-1922,http://www.kroger.com/stores/details/035/00957?cid=loc_03500957PP_gmb,,04/30/2021      ,08:05:00        ,,-95.542258,33.658732
104,Kroger Pharmacy 824,Pharmacy,,1820 N Loy Lake Rd,Sherman,Grayson,1820 N Loy Lake Rd,75090,33.6556291317828,-96.6064137018318,0,0,0,0,75,75,0,(903) 868-1565,http://www.kroger.com/stores/details/035/00824?cid=loc_03500824PP_gmb,,04/30/2021      ,08:05:00        ,,-96.606414,33.655629
105,Kroger Pharmacy 589,Pharmacy,,4650 W University Dr,Prosper,Collin,4650 W University Dr,75078,33.2191206529829,-96.8772940136852,0,0,0,0,70,70,0,(972) 346-5244,http://www.kroger.com/stores/details/035/00589?cid=loc_03500589PP_gmb,,04/30/2021      ,08:05:00        ,,-96.877294,33.219121
106,Kroger Pharmacy 588,Pharmacy,,9140 Forest Ln,Dallas,Dallas,9140 Forest Ln,75243,32.9090017841729,-96.7457993374567,0,0,0,0,190,190,0,(214) 221-0978,http://www.kroger.com/stores/details/035/00588?cid=loc_03500588PP_gmb,,04/30/2021      ,08:05:00        ,,-96.745799,32.909002
107,KROGER PHARMACY 581,Federal Allocation,,,Plano,,2925 Custer Rd ,75075,33.0389877610022,-96.7347840912897,30,0,0,0,200,230,0,,,,04/30/2021      ,08:05:00        ,,-96.734784,33.038988
108,Kroger Pharmacy 580,Pharmacy,,2671 Little Elm Pkwy,Little Elm,Denton,2671 Little Elm Pkwy,75068,33.1691576788061,-96.8921690419744,186,0,0,0,200,386,0,(469) 888-5519,http://www.kroger.com/stores/details/035/00580?cid=loc_03500580PP_gmb,,04/30/2021      ,08:05:00        ,,-96.892169,33.169158
109,Kroger Pharmacy 573,Pharmacy,,1250 N Preston Road,Prosper,Collin,1250 N Preston Road,75078,33.2498681979486,-96.784771213673,36,0,0,0,200,236,0,(972) 346-5210,http://www.kroger.com/stores/details/035/00573?cid=loc_03500573PP_gmb,,04/30/2021      ,08:05:00        ,,-96.784771,33.249868
110,KROGER PHARMACY 568,Federal Allocation,,,Allen,,1320 W MCDERMOTT DR,75013,33.1035197872381,-96.6990334385864,0,0,0,0,100,100,0,,,,04/30/2021      ,08:05:00        ,,-96.699033,33.10352
111,Kroger Pharmacy 567,Pharmacy,,2901 Lake Forest Dr,Mckinney,Collin,2901 Lake Forest Dr,75072,33.1745619946972,-96.6819359905468,0,0,0,0,60,60,0,(972) 540-1172,http://www.kroger.com/stores/details/026/00567?cid=loc_02600567PP_gmb,,04/30/2021      ,08:05:00        ,,-96.681936,33.174562
112,Kroger Pharmacy 565,Pharmacy,,1801 N Lake Forest Dr,Mckinney,Collin,1801 N Lake Forest Dr,75071,33.2167008277283,-96.6795535936165,174,0,72,0,90,264,72,(469) 678-3882,http://www.kroger.com/stores/details/026/00565?cid=loc_02600565PP_gmb,,04/30/2021      ,08:05:00        ,,-96.679554,33.216701
113,Kroger Pharmacy 560,Federal Allocation,,7500 Preston,Frisco,Collin,7500 Preston,75034,33.14016,-96.80449,0,0,0,0,40,40,0,,,,04/30/2021      ,08:05:00        ,,-96.80449,33.14016
114,Kroger Pharmacy 559,Pharmacy,,1406 W Walnut St,Garland,Dallas,1406 W Walnut St,75042,32.916232493201,-96.6498789827572,150,0,0,0,0,150,0,(972) 494-3306,http://www.kroger.com/stores/details/035/00559?cid=loc_03500559PP_gmb,,04/30/2021      ,08:05:00        ,,-96.649879,32.916232
115,Kroger Pharmacy 557,Pharmacy,,6850 North Shiloh Road,Garland,Dallas,6850 North Shiloh Road,75044,32.9774112920172,-96.6652174464727,331,0,331,0,230,561,331,(972) 496-4503,http://www.kroger.com/stores/details/035/00557?cid=loc_03500557PP_gmb,,04/30/2021      ,08:05:00        ,,-96.665217,32.977411
116,Kroger Pharmacy 548,Pharmacy,,1210 N Greenville Ave,Allen,Collin,1210 N Greenville Ave,75002,33.1158859902601,-96.6497240013674,0,0,0,0,100,100,0,(214) 383-7100,https://www.kroger.com/stores/details/035/00548?cid=loc_03500548_gmb,,04/30/2021      ,08:05:00        ,,-96.649724,33.115886
117,Kroger Pharmacy 547,Pharmacy,,3205 Main St,Frisco,Collin,3205 Main St,75034,33.152982491605,-96.8623302210412,0,0,0,0,70,70,0,(972) 731-0615,http://www.kroger.com/stores/details/035/00547?cid=loc_03500547PP_gmb,,04/30/2021      ,08:05:00        ,,-96.86233,33.152982
118,Kroger Pharmacy 546,Pharmacy,,4851 Legacy Drive,Frisco,Collin,4851 Legacy Drive,75034,33.1181749203792,-96.8403484285067,0,0,0,0,100,100,0,(972) 377-0251,http://www.kroger.com/stores/details/035/00546?cid=loc_03500546PP_gmb,,04/30/2021      ,08:05:00        ,,-96.840348,33.118175
119,Kroger Pharmacy 544,Pharmacy,,1212 E Bethany Dr,Allen,Collin,1212 E Bethany Dr,75002,33.08262400007,-96.6447960290335,72,0,0,0,0,72,0,(972) 244-7681,http://www.kroger.com/stores/details/035/00578?cid=loc_03500578PP_gmb,,04/30/2021      ,08:05:00        ,,-96.644796,33.082624
120,Kroger Pharmacy 540,Pharmacy,,3305 N Dallas Parkway,Plano,Collin,3305 N Dallas Parkway,75093,33.0468759793075,-96.8300674375291,96,0,0,0,0,96,0,(972) 608-4694,http://www.kroger.com/stores/details/025/00430?cid=loc_02500430PP_gmb,,04/30/2021      ,08:05:00        ,,-96.830067,33.046876
121,Kroger Pharmacy 526,Pharmacy,,536 Centennial Blvd,Richardson,Dallas,536 Centennial Blvd,75081,32.938212525536,-96.7205000374096,24,0,0,0,75,99,0,(972) 437-2478,http://www.kroger.com/stores/details/035/00526?cid=loc_03500526PP_gmb,,04/30/2021      ,08:05:00        ,,-96.7205,32.938213
122,Kroger Pharmacy 522,Pharmacy,,7100 Independence Pkwy,Plano,Collin,7100 Independence Pkwy,75025,33.0724629137209,-96.7500884113458,66,0,0,0,80,146,0,(972) 491-2596,http://www.kroger.com/stores/details/035/00522?cid=loc_03500522PP_gmb,,04/30/2021      ,08:05:00        ,,-96.750088,33.072463
123,Kroger Pharmacy 517,Pharmacy,,160 N Coit,Richardson,Dallas,160 N Coit,75080,32.9532189820675,-96.7688025146574,6,0,0,0,0,6,0,(972) 497-9339,http://www.kroger.com/stores/details/034/00241?cid=loc_03400241PP_gmb,,04/30/2021      ,08:05:00        ,,-96.768803,32.953219
124,Kroger Pharmacy 488,Pharmacy,,1707 W University Dr,Mckinney,Collin,1707 W University Dr,75069,33.216502607435,-96.6326020362939,60,0,0,0,80,140,0,(972) 548-9633,http://www.kroger.com/stores/details/011/00488?cid=loc_01100488PP_gmb,,04/30/2021      ,08:05:00        ,,-96.632602,33.216503
125,Kroger Pharmacy 461,Pharmacy,,5190 Highway 78,Sachse,Dallas,5190 Highway 78,75048,32.9701932580069,-96.6046804080737,30,0,0,0,75,105,0,(972) 675-1066,http://www.kroger.com/stores/details/011/00461?cid=loc_01100461PP_gmb,,04/30/2021      ,08:05:00        ,,-96.60468,32.970193
126,Kroger Pharmacy 746,Pharmacy,,11701 S Sam Houston Pkwy,Houston,Harris,11701 S Sam Houston Pkwy,77089,29.589831,-95.22251,0,0,0,0,40,40,0,(281) 484-3294,,,04/30/2021      ,08:05:00        ,,-95.22251,29.589831
127,Kroger Pharmacy 744,Pharmacy,,3135 Fm 528,Friendswood,Galveston,3135 Fm 528,77546,29.4645456622281,-95.2271091417117,0,0,0,0,95,95,0,(281) 557-4894,http://www.kroger.com/stores/details/034/00744?cid=loc_03400744PP_gmb,,04/30/2021      ,08:05:00        ,,-95.227109,29.464546
128,Kroger Pharmacy 740,Pharmacy,,7747 Kirby Dr,Houston,Harris,7747 Kirby Dr,77030,29.6953467231689,-95.4155875814219,0,0,0,0,60,60,0,(713) 661-7440,http://www.kroger.com/stores/details/034/00740?cid=loc_03400740PP_gmb,,04/30/2021      ,08:05:00        ,,-95.415588,29.695347
129,Kroger Pharmacy 734,Pharmacy,,,League City ,,250 S EGRET BAY BLVD ,77573,29.5198121653864,-95.0758447763251,0,0,0,0,40,40,0,,,,04/30/2021      ,08:05:00        ,,-95.075845,29.519812
130,Kroger Pharmacy 398,Pharmacy,,,League City,,2750 E League City PKWY,77573,29.5079735231247,-95.0414925030416,0,0,78,0,165,165,78,,,,04/30/2021      ,08:05:00        ,,-95.041493,29.507974
131,Kroger Pharmacy 397,Pharmacy,,8011 W Grand Pkwy S,Richmond,Fort Bend,8011 W Grand Pkwy S,77407,29.6639329845383,-95.7379829863729,0,110,0,0,100,210,0,(281) 341-2761,http://www.kroger.com/stores/details/034/00397?cid=loc_03400397PP_gmb,,04/30/2021      ,08:05:00        ,,-95.737983,29.663933
132,Kroger Pharmacy 385,Pharmacy,,16400 El Camino Real,Houston,Harris,16400 El Camino Real,77062,29.5589571071597,-95.1242390811092,0,20,0,0,0,20,0,(281) 286-8364,http://www.kroger.com/stores/details/034/00385?cid=loc_03400385PP_gmb,,04/30/2021      ,08:05:00        ,,-95.124239,29.558957
133,Kroger Pharmacy 375,Pharmacy,,11565 State Hwy 6 South,Sugar Land,Fort Bend,11565 State Hwy 6 South,77478,29.6480352510492,-95.6512821824848,0,0,0,0,100,100,0,(281) 340-1504,http://www.kroger.com/stores/details/034/00375?cid=loc_03400375PP_gmb,,04/30/2021      ,08:05:00        ,,-95.651282,29.648035
134,Kroger Pharmacy 347,Pharmacy,,9303 Hwy 6 South,Houston,Harris,9303 Hwy 6 South,77083,29.6786343817034,-95.643535952849,0,0,0,0,50,50,0,(713) 474-2111,http://www.kroger.com/stores/details/034/00347?cid=loc_03400347PP_gmb,,04/30/2021      ,08:05:00        ,,-95.643536,29.678634
135,Kroger Pharmacy 343,Pharmacy,,8323 Broadway St,Pearland,Brazoria,8323 Broadway St,77581,29.5590729031522,-95.3491304886291,0,0,0,0,102,102,0,(281) 997-6500,http://www.kroger.com/stores/details/029/00343?cid=loc_02900343PP_gmb,,04/30/2021      ,08:05:00        ,,-95.34913,29.559073
136,Kroger Pharmacy 321,Pharmacy,,3100 Hwy 35,Alvin,Brazoria,3100 Hwy 35,77511,29.3985214957587,-95.247541810787,0,0,0,0,330,330,0,(281) 388-3403,http://www.kroger.com/stores/details/034/00321?cid=loc_03400321PP_gmb,,04/30/2021      ,08:05:00        ,,-95.247542,29.398521
137,Kroger Pharmacy 320,Pharmacy,,4825 Sweetwater Blvd,Sugar Land,Fort Bend,4825 Sweetwater Blvd,77479,29.5863645056197,-95.6323654743065,0,0,0,0,40,40,0,(281) 494-6555,http://www.kroger.com/stores/details/011/00320?cid=loc_01100320PP_gmb,,04/30/2021      ,08:05:00        ,,-95.632365,29.586365
138,Kroger Pharmacy 313,Pharmacy,,,Houston,,10306 S Post Oak Rd, 77035,29.6695600043408,-95.4636869607085,84,0,0,0,350,434,0,,,,04/30/2021      ,08:05:00        ,,-95.463687,29.66956
139,Kroger Pharmacy 308,Pharmacy,,,Pearland ,Brazoria,11003 Shadow Creek PWY,77584,29.5832555865591,-95.3898827453678,0,0,0,0,295,295,0,281-669-1250,,,04/30/2021      ,08:05:00        ,,-95.389883,29.583256
140,Kroger Pharmacy 302,Pharmacy,,5730 Seawall Blvd,Galveston,Galveston,5730 Seawall Blvd,77551,29.2687283600529,-94.82277614634,78,0,0,0,50,128,0,(409) 741-9091,http://www.kroger.com/stores/details/034/00302?cid=loc_03400302PP_gmb,,04/30/2021      ,08:05:00        ,,-94.822776,29.268728
141,Kroger Pharmacy 300,Pharmacy,,1950 El Dorado Blvd,Houston,Harris,1950 El Dorado Blvd,77062,29.5782270187411,-95.1215090114258,228,10,0,0,20,258,0,(281) 480-7092,http://www.kroger.com/stores/details/016/00522?cid=loc_01600522PP_gmb,,04/30/2021      ,08:05:00        ,,-95.121509,29.578227
142,Kroger Pharmacy 264,Pharmacy,,,Pearland ,,3245 East Broadway (F.M. 518,77581,29.5602232026212,-95.2713100742043,147,0,0,10,180,327,10,,,,04/30/2021      ,08:05:00        ,,-95.27131,29.560223
143,Kroger Pharmacy 256,Pharmacy,,1804 N Velasco St,Angleton,Brazoria,1804 N Velasco St,77515,29.1827026537057,-95.4329200670943,0,0,0,0,305,305,0,(979) 849-5460,http://www.kroger.com/stores/details/016/00538?cid=loc_01600538PP_gmb,,04/30/2021      ,08:05:00        ,,-95.43292,29.182703
144,Kroger Pharmacy 241,Pharmacy,,,Dickinson ,,3410 Gulf Fwy ,77539,29.4500258726597,-95.0795036895508,0,0,0,0,70,70,0,,,,04/30/2021      ,08:05:00        ,,-95.079504,29.450026
145,Kroger Pharmacy 156,Pharmacy,,6322 Telephone Rd,Houston,Harris,6322 Telephone Rd,77087,29.6756243983634,-95.2899220657025,156,0,0,0,50,206,0,(713) 644-1815,http://www.kroger.com/stores/details/034/00156?cid=loc_03400156PP_gmb,,04/30/2021      ,08:05:00        ,,-95.289922,29.675624
146,Kroger Pharmacy 149,Pharmacy,,800 N Dixie Dr,Clute,Brazoria,800 N Dixie Dr,77531,29.0384250781679,-95.4222465843995,0,0,0,0,220,220,0,(979) 529-4392,,,04/30/2021      ,08:05:00        ,,-95.422247,29.038425
147,Kroger Pharmacy 144,Pharmacy,,1920 W League City Pkwy,League City,Galveston,1920 W League City Pkwy,77573,29.4885370086359,-95.1139740157472,114,0,0,0,145,259,0,(877) 852-2677,,,04/30/2021      ,08:05:00        ,,-95.113974,29.488537
148,Kroger Pharmacy 131,Pharmacy,,,Sugar Land ,,18861 University Blvd ,77479,29.5515970445571,-95.5842350453687,72,0,0,0,0,72,0,(832) 342-9649,,,04/30/2021      ,08:05:00        ,,-95.584235,29.551597
149,Kroger Pharmacy 108,Pharmacy,,,Texas City ,,3541 Palmer @ Hwy. 146 ,77590,29.3936297976527,-94.9494116318808,150,0,0,0,215,365,0,,,,04/30/2021      ,08:05:00        ,,-94.949412,29.39363
150,KROGER PHARMACY 009,Federal Allocation,,,FRESNO,,10250 STATE HIGHWAY 6,77545,29.529845996266,-95.5110288453694,0,0,120,10,225,225,130,,,,04/30/2021      ,08:05:00        ,,-95.511029,29.529846
151,Kroger Pharmacy 346,Pharmacy,,,HOUSTON,,1505 WIRT RD , 77055,29.7968582798374,-95.4864223866717,324,0,0,0,0,324,0,,,,04/30/2021      ,08:05:00        ,,-95.486422,29.796858
152,Kroger Pharmacy 739,Other,,,Houston,,9125 W Sam Houston Pkwy ,77064,29.9032281,-95.5535627,48,0,150,0,5,53,150,281-447-0701,,,04/30/2021      ,08:05:00        ,,-95.553563,29.903228
153,Kroger Pharmacy 737,Pharmacy,,12400 Fm 1960 Rd W,Houston,Harris,12400 Fm 1960 Rd W,77065,29.9224241310373,-95.6036239283178,192,20,0,0,50,262,0,(832) 237-4890,https://www.kroger.com/stores/details/034/00737?cid=loc_03400737_gmb,,04/30/2021      ,08:05:00        ,,-95.603624,29.922424
154,Kroger Pharmacy 735,Pharmacy,,12555 Briar Forest Dr,Houston,Harris,12555 Briar Forest Dr,77077,29.7538125094739,-95.6053060086469,6,200,0,0,55,261,0,(281) 496-1092,http://www.kroger.com/stores/details/021/00735?cid=loc_02100735PP_gmb,,04/30/2021      ,08:05:00        ,,-95.605306,29.753813
155,Kroger Pharmacy 733,Pharmacy,,1550 W Grand Pkwy S,Katy,Fort Bend,1550 W Grand Pkwy S,77494,29.758022068887,-95.7768191098131,0,50,12,0,55,105,12,(281) 693-0606,http://www.kroger.com/stores/details/034/00733?cid=loc_03400733PP_gmb,,04/30/2021      ,08:05:00        ,,-95.776819,29.758022
156,Kroger Pharmacy 607,Pharmacy,,2300 Gessner Rd,Houston,Harris,2300 Gessner Rd,77080,29.8140439855932,-95.5451625006016,258,0,0,0,0,258,0,(713) 467-9425,http://www.kroger.com/stores/details/034/00607?cid=loc_03400607PP_gmb,,04/30/2021      ,08:05:00        ,,-95.545163,29.814044
157,Kroger Pharmacy 396,Pharmacy,,6350 N Eldridge Pkwy,Houston,Harris,6350 N Eldridge Pkwy,77041,29.8651947173594,-95.6082534210792,0,0,60,0,0,0,60,(713) 896-8487,http://www.kroger.com/stores/details/034/00396?cid=loc_03400396PP_gmb,,04/30/2021      ,08:05:00        ,,-95.608253,29.865195
158,Kroger Pharmacy 392,Pharmacy,,6425 Fm 1464 Rd,Richmond,Fort Bend,6425 Fm 1464 Rd,77407,29.7082364557815,-95.6880609577931,102,205,0,0,0,307,0,(281) 277-2242,http://www.kroger.com/stores/details/034/00392?cid=loc_03400392PP_gmb,,04/30/2021      ,08:05:00        ,,-95.688061,29.708236
159,Kroger Pharmacy 378,Pharmacy,,6055 Fry Rd,Katy,Harris,6055 Fry Rd,77449,29.8605707566535,-95.7202358989608,0,0,0,0,35,35,0,(281) 858-7613,http://www.kroger.com/stores/details/034/00378?cid=loc_03400378PP_gmb,,04/30/2021      ,08:05:00        ,,-95.720236,29.860571
160,Kroger Pharmacy 374,Pharmacy,,8550 Highway 6 N,Houston,Harris,8550 Highway 6 N,77095,29.9014360131237,-95.6315950097663,114,0,0,0,100,214,0,(281) 463-2409,http://www.kroger.com/stores/details/034/00374?cid=loc_03400374PP_gmb,,04/30/2021      ,08:05:00        ,,-95.631595,29.901436
161,Kroger Pharmacy 363,Pharmacy,,9919 Westheimer Elmside,Houston,Harris,9919 Westheimer Elmside,77042,29.7369941369336,-95.5446733327325,198,0,0,0,0,198,0,(713) 532-5858,http://www.kroger.com/stores/details/011/00363?cid=loc_01100363PP_gmb,,04/30/2021      ,08:05:00        ,,-95.544673,29.736994
162,Kroger Pharmacy 356,Pharmacy,,,Houston,,1352 W 43rd St ,77018,29.8288181,-95.4320766,258,0,66,0,200,458,66,,,,04/30/2021      ,08:05:00        ,,-95.432077,29.828818
163,Kroger Pharmacy 355,Pharmacy,,1938 W Gray St,Houston,Harris,1938 W Gray St,77019,29.7531311445653,-95.4054996256742,0,0,0,0,100,100,0,(713) 521-2317,http://www.kroger.com/stores/details/034/00355?cid=loc_03400355PP_gmb,,04/30/2021      ,08:05:00        ,,-95.4055,29.753131
164,Kroger Pharmacy 352,Pharmacy,,18030 Fm 529 Rd,Cypress,Harris,18030 Fm 529 Rd,77433,29.8799374792169,-95.6855909785654,108,200,108,0,0,308,108,(281) 550-6942,http://www.kroger.com/stores/details/034/00352?cid=loc_03400352PP_gmb,,04/30/2021      ,08:05:00        ,,-95.685591,29.879937
165,Kroger Pharmacy 349,Pharmacy,,1520 Eldridge Pkwy,Houston,Harris,1520 Eldridge Pkwy,77077,29.7575360023219,-95.6254174633075,282,20,0,0,0,302,0,(281) 496-7719,https://www.kroger.com/stores/details/034/00349?cid=loc_03400349_gmb,,04/30/2021      ,08:05:00        ,,-95.625417,29.757536
166,Kroger Pharmacy 336,Pharmacy,,22150 Westheimer Pkwy,Katy,Harris,22150 Westheimer Pkwy,77450,29.7341873728367,-95.7544985207516,0,0,36,0,100,100,36,(281) 828-8778,http://www.kroger.com/stores/details/034/00136?cid=loc_03400136PP_gmb,,04/30/2021      ,08:05:00        ,,-95.754499,29.734187
167,Kroger Pharmacy 314,Pharmacy,,5150 Buffalo Speedway,Houston,Harris,"5150 Buffalo Speedway, Houston, TX, USA",77005,29.7267894,-95.4295452,0,0,6,80,0,0,86,,,,04/30/2021      ,08:05:00        ,,-95.429545,29.726789
168,Kroger Pharmacy 312,Pharmacy,,1035 N Shepherd Dr,Houston,Harris,1035 N Shepherd Dr,77008,29.7893450315061,-95.409885288873,0,0,0,0,5,5,0,(713) 880-4661,,,04/30/2021      ,17:52:34        ,,-95.409885,29.789345
169,Kroger Pharmacy 311,Pharmacy,,9330 Jones Rd,Houston,Harris,9330 Jones Rd,77065,29.9078861809838,-95.5845082437545,0,0,78,0,5,5,78,(281) 894-4859,http://www.kroger.com/stores/details/034/00311?cid=loc_03400311PP_gmb,,04/30/2021      ,08:05:00        ,,-95.584508,29.907886
170,Kroger Pharmacy 309,Pharmacy,,1801 S Voss Rd,Houston,Harris,1801 S Voss Rd,77057,29.7484707225806,-95.5009583549111,222,40,0,40,0,262,40,(713) 780-7643,http://www.kroger.com/stores/details/029/00572P?cid=loc_02900572PP_gmb,,04/30/2021      ,08:05:00        ,,-95.500958,29.748471
171,Kroger Pharmacy 179,Pharmacy,,,Cypress,,20355 Cypresswood Dr ,77433,29.9900018202319,-95.7368847472816,0,0,0,0,85,85,0,,,,04/30/2021      ,08:05:00        ,,-95.736885,29.990002
172,Kroger Pharmacy 161,Pharmacy,,,Houston,,14344 Memorial Dr ,77079,29.7713486761154,-95.5991132848225,216,300,42,0,0,516,42,,,,04/30/2021      ,08:05:00        ,,-95.599113,29.771349
173,Kroger Pharmacy 146,Pharmacy,,,Katy,,1712 Spring Green Blvd , 77494,29.7633499744725,-95.8429532511957,144,90,144,0,60,294,144,,,,04/30/2021      ,08:05:00        ,,-95.842953,29.76335
174,Kroger Pharmacy 122,Pharmacy,,,Katy,Harris,2700 W Grand Pkwy N,77449,29.8129324585784,-95.7703180750279,126,0,0,0,45,171,0,,,,04/30/2021      ,08:05:00        ,,-95.770318,29.812932
175,Kroger Pharmacy 121,Pharmacy,,,Katy,Fort Bend,9806 Gaston Rd,77494,29.736539,-95.810186,0,0,168,0,80,80,168,(346) 307-3055,,,04/30/2021      ,08:05:00        ,,-95.810186,29.736539
176,Kroger Pharmacy 115,Pharmacy,,9703 Barker Cypress Rd,Cypress,Harris,9703 Barker Cypress Rd,77433,29.9189569986979,-95.6896039823487,216,305,0,0,0,521,0,(281) 746-3645,http://www.kroger.com/stores/details/034/00115?cid=loc_03400115PP_gmb,,04/30/2021      ,08:05:00        ,,-95.689604,29.918957
177,Kroger Pharmacy 038,Pharmacy,,,Richmond ,Fort Bend,25050 FM 1093 ,77406,29.7006825561223,-95.8115514308513,12,0,0,0,0,12,0,832-586-7376,,,04/30/2021      ,08:05:00        ,,-95.811551,29.700683
178,Kroger Pharmacy 017,Pharmacy,,1440 Studemont St,Houston,Harris,1440 Studemont St,77007,29.77325517208,-95.3905712046615,78,0,0,0,0,78,0,(832) 708-2287,http://www.kroger.com/stores/details/034/00017?cid=loc_03400017PP_gmb,,04/30/2021      ,08:05:00        ,,-95.390571,29.773255
179,Walgreens Pharmacy 06821,Other,,,MEADOWS PLACE ,,11675 W Airport Blvd ,77477,29.6472186924797,-95.5815795471798,108,0,0,0,0,108,0,,,,04/30/2021      ,16:49:17        ,,-95.58158,29.647219
180,"Dr. Mario Sanchez, DO",Other,V,106 N Main St,La Feria,Cameron,"106 N Main St, La Feria, TX 78559",78559,26.1582,-97.82401,0,40,0,0,0,40,0,956-797-2002,,,04/30/2021      ,17:15:51        ,,-97.82401,26.1582
181,I Care Network Consultants LLC,Community Clinic,,6201 MATLOCK RD,Arlington,tarrent,6201 MATLOCK RD STE 125,76002,32.6441379,-97.1143618,0,450,0,0,0,450,0,(214)-214-9322   (817)-217-1880  (214) 210-9969  ,icarehealthpc.com,,04/30/2021      ,17:47:14        ,,-97.114362,32.644138
182,hometown healthcare Dilley,Other,,205 North Commerce Street,Dilley,Frio,"205 North Commerce Street, Dilley, Texas 78017",78017,28.670551445327,-99.168484565033,0,0,0,0,45,45,0,(830) 965-4466,HTHCDilley@yahoo.com,,04/29/2021      ,08:37:48        ,,-99.168485,28.670551
183,Hometown Healthcare Cotulla ,Medical Practice,,408 N Giraud St,Cotulla,La Salle,"408 North Giraud Street, Cotulla, TX 78014",78014,28.4396415,-99.2387,0,130,0,230,0,130,230,830-879-2279,no,,04/29/2021      ,08:23:56        ,,-99.2387,28.439642
184,Lisa E. Medwedeff Md,Medical Practice,,,Plano,Collin,5425 W Spring Creek Pkwy,75024,33.0630758,-96.8134297,0,100,0,0,0,100,0,,,,04/29/2021      ,17:54:50        ,,-96.81343,33.063076
185,Lamar University Student Health Center,Other,,,Beaumont,Jefferson,857 E Virginia St,77705,30.0422983,-94.0792803,0,0,0,0,285,285,0,,,,04/30/2021      ,16:34:01        ,,-94.07928,30.042298
186,HIPPO PHARMACY,Federal Allocation,,107A EAST ST,HUTTO,Williamson,107A EAST ST,78634,30.5433871,-97.549614,0,420,0,100,0,420,100,(512) 846-6004,,,04/30/2021      ,19:06:36        ,,-97.549614,30.543387
187,Brookshire Family Practice,Other,,,Brookshire,Waller,4019 S Front St,77423,29.7863,-95.9513,1152,0,0,0,100,1252,0,,,,04/26/2021      ,16:10:11        ,,-95.9513,29.7863
188,Forney Isd Hq,Other,,600 S Bois D Arc St,Forney,Kaufman,600 South Bois D Arc Street,75126,32.7440688,-96.4768212,0,0,0,0,15,15,0,,,,04/30/2021      ,16:14:36        ,,-96.476821,32.744069
189,Neo Services Llc,Other,,9728 Greenville Avenue,Dallas,Dallas,9728 Greenville Avenue,75243,32.90828,-96.74672,0,100,0,0,0,100,0,,,,04/30/2021      ,16:03:09        ,,-96.74672,32.90828
190,Simply Health Mobile Clinic PLLC,Medical Practice,,S US Highway 281,Mineral Wells,Palo Pinto,2915 S US Highway 281,76067,32.7803369,-98.1072057,0,70,0,0,0,70,0,,,,04/30/2021      ,17:00:42        ,,-98.107206,32.780337
191,DSHS - Gainesville,Other,,1714 Justice Center Blvd Ste A,Gainesville,Cooke,1714 Justice Center Blvd Ste A,76240,33.64318,-97.1685,0,100,0,140,87,187,140,940-665-9315,https://www.dshs.texas.gov/region2-3/clinics/clinicsreg3.shtm,,04/30/2021      ,15:56:19        ,Yes,-97.1685,33.64318
192,Walgreens Pharmacy 09126,Pharmacy,,2602 Fort Worth Ave,Dallas,Dallas,"2602 Fort Worth Avenue, Dallas, TX, USA",75211,32.7577497,-96.8644604,0,50,0,50,100,150,50,214-941-0926,https://www.walgreens.com/locator/walgreens-2602+fort+worth+ave-dallas-tx-75211/id=9126,,04/30/2021      ,17:18:50        ,,-96.86446,32.75775
193,Walgreens Pharmacy 09323,Pharmacy,,610 E Malloy Bridge Rd,Seagoville,Dallas,"610 East Malloy Bridge Road, Seagoville, TX, USA",75159,32.6482573,-96.5319549,0,0,0,0,100,100,0,,,,04/30/2021      ,20:08:37        ,,-96.531955,32.648257
194,Marsalis Avenue Church of Christ,Community Vaccination Center,,,Dallas,Dallas,2431 South Marsalis Avenue,75216,32.7182,-96.81491,0,100,0,0,0,100,0,214-941-2531,,,04/30/2021      ,15:22:04        ,,-96.81491,32.7182
195,Hyland's Pharmacy - Shamrock,Pharmacy,,Bill Mack Rd,Shamrock,Wheeler,1814 Bill Mack Rd,79079,35.2334549,-100.2473072,0,170,0,170,285,455,170,,,,04/28/2021      ,15:36:59        ,,-100.247307,35.233455
196,PAGES HEALTH SERVICES INC,Community Clinic,,,Houston,Harris,16100 Cairnway Dr,77084,29.8419981502398,-95.6438304011507,0,86,0,0,0,86,0,,,,04/30/2021      ,11:36:45        ,,-95.64383,29.841998
197,Procare Health Services Llc,Other,,,Mission,Hidalgo,2101 E Griffin Pkwy,78572,26.2256015,-98.2892604,0,447,0,0,0,447,0,,,,04/28/2021      ,09:34:54        ,,-98.28926,26.225602
198,Quickcare.me,Community Clinic,,,Corpus Christi,Nueces,6181 Saratoga Blvd,78414,27.6782779,-97.374294,0,250,0,0,0,250,0,,,,05/01/2021      ,10:08:55        ,,-97.374294,27.678278
199,East Texas Border Health Clinic dba Genesis PrimeCare - Atlanta,Community Clinic,F,1011 S William Street,Atlanta,Cass,1011 S William Street,75551,33.1052409,-94.16545608,0,1270,0,0,475,1745,0,,,,04/29/2021      ,08:35:46        ,,-94.165456,33.105241
200,East Texas Border Health Clinic dba Genesis PrimeCare - Marshall,Community Clinic,,805 Lindsey Dr,Marshall,Harrison,"805 Lindsey Drive, Marshall, TX, USA",5271,32.5376649,-94.3699086,0,1860,0,0,0,1860,0,,,,04/29/2021      ,08:55:36        ,,-94.369909,32.537665
201,Nadia Malik MD PA,Medical Practice,,,Grapevine,Tarrant,4100 Heritage Ave,76051,32.8926537,-97.1079726,0,190,0,0,0,190,0,,,,04/30/2021      ,16:00:01        ,,-97.107973,32.892654
202,Mario R Anzaldua Md,Other,,,Mission,Hidalgo,1512 E Griffin Pkwy Ste 2,78572,26.225218,-98.3005593,0,100,0,0,0,100,0,,,,04/28/2021      ,08:44:16        ,,-98.300559,26.225218
203,"DTR Labs, LLC",Medical Practice,,,Lewisville,Denton,2150 Justin Rd,75077,33.0720071,-97.0562762,0,200,0,0,200,400,0,,,,04/30/2021      ,15:24:28        ,,-97.056276,33.072007
204,METHODIST HOSPITAL AND METHODIST CHILDRENS HOSPITAL,Other,,,SAN ANTONIO,,770 FLOYD CURL DR ,78229,29.5170341633675,-98.5855479598491,12,2000,0,0,495,2507,0,,,,04/27/2021      ,12:30:12        ,,-98.585548,29.517034
205,LifeRestore MD USA LLC,Medical Practice,,3910 Gaston Ave,Dallas,Dallas,"3910 Gaston Avenue Ste 140, Dallas, TX, USA",75246,32.7924497,-96.7780523,600,0,0,0,0,600,0,214-494-8121,,,04/28/2021      ,14:32:46        ,,-96.778052,32.79245
206,"Lehealth, Llc - Cleveland",Medical Practice,,,Cleveland ,,210 E HOUSTON ST,77327,30.3415478417389,-95.0866939544597,0,190,0,0,0,190,0,,,,04/23/2021      ,14:51:19        ,,-95.086694,30.341548
207,Stamford Family Health Center,Other,,1303 Mabee,Stamford,Jones,1303 Mabee,79553,32.92875,-99.78417,0,0,0,0,75,75,0,(325) 773-5733,,,04/30/2021      ,16:04:01        ,,-99.78417,32.92875
208,Palacios Family Medicine,Medical Practice,,,Edinburg,Hidalgo,2722 W. Canton Rd,78539,26.2796671,-98.1990468,0,130,0,200,0,130,200,,,,04/27/2021      ,10:43:38        ,,-98.199047,26.279667
209,BJP Healthcare LLC,Pharmacy,,1724 S colorado Street,lockhart,caldwell,"1724 South Colorado Street, Lockhart, TX, USA",78644,29.861939,-97.667846,0,0,0,0,340,340,0,(512) 398-2288,,,04/30/2021      ,15:07:43        ,,-97.667846,29.861939
210,HOUSTON MEDICAL CLINIC,Community Clinic,,9889 Bellaire Blvd,Houston,Harris,9889 BELLAIRE BLVD # E219A Houston 77036,77036,29.7054709871669,-95.5283515440223,0,94,0,0,0,94,0,,,,04/30/2021      ,14:58:52        ,,-95.528352,29.705471
211,Colleyville Fire Department,Other,,Colleyville Blvd,Colleyville,Tarrant,5209 Colleyville Blvd,76034,32.8854861579315,-97.1512931029197,468,0,1170,0,0,468,1170,,,,05/01/2021      ,12:56:34        ,,-97.151293,32.885486
212,Crossover Health Medical Group- Spring,Medical Practice,,Hardy Toll Road,Spring,Texas,28420 E Hardy Rd,77373,30.1050606,-95.423176,0,170,0,0,0,170,0,,,,04/30/2021      ,15:10:47        ,,-95.423176,30.105061
213,Burleson Pharmacy,Pharmacy,,Sw Wilshire Blvd,Burleson,Johnson,344 Sw Wilshire Blvd Ste P,76028,32.5409876708749,-97.332674830806,0,260,0,0,140,400,0,,,,04/27/2021      ,09:32:05        ,,-97.332675,32.540988
214,Taha Pharmacy,Pharmacy,,1383 Bunker Hill Rd,Houston,Harris,"1383 Bunker Hill Road, Houston, TX, USA",77055,29.7946115,-95.5341851,0,100,0,0,0,100,0,832-409-6333,,,04/30/2021      ,14:51:08        ,,-95.534185,29.794612
215,KELL WEST REGIONAL HOSPITAL,Hospital,C,5420 Kell West Blvd,Wichita Falls,Wichita,5420 Kell West Blvd,76310,33.8724190352958,-98.5794426218627,0,0,0,0,460,460,0,(940) 692-5888,https://www.kellwest.com/,,04/20/2021      ,11:02:58        ,,-98.579443,33.872419
216,Tackett Pharmacy,Pharmacy,,,Weatherford,Parker County,138 College Park Drive Suite 130,76086,32.7386629537352,-97.7955652270485,0,190,0,0,385,575,0,(817) 341-7046,,,04/30/2021      ,19:10:35        ,,-97.795565,32.738663
217,COLUMBUS LOCAL PHARMACY,Pharmacy,,,Columbus,Colorado,109 Shult Dr,78934,29.693789,-96.5423763,0,170,0,0,0,170,0,,,,04/30/2021      ,14:55:41        ,,-96.542376,29.693789
218,"Superfast Pharmacy And Medical Supplies, LLC",Pharmacy,,11690 Spring Cypress Rd Ste 100,Tomball,Harris,11690 Spring Cypress Rd Ste 100,77377,30.0135429365737,-95.601148175182,0,80,0,100,95,175,100,,,,04/30/2021      ,18:58:06        ,,-95.601148,30.013543
219,Summerwood Pharmacy,Pharmacy,,13176 W Lake Houston Pkwy Ste1,Houston,Harris,13176 W Lake Houston Pkwy Ste1,77044,29.9240255689583,-95.188217618847,0,240,0,0,265,505,0,(281) 225-4300,https://summerwoodrx.com/,,04/27/2021      ,18:57:34        ,,-95.188218,29.924026
220,Spring Creek Pharmacy,Other,,,Plano,Collin,4666 Mcdermott Road,75024,33.0936527,-96.7936302,0,50,0,50,0,50,50,,,,04/27/2021      ,08:56:37        ,,-96.79363,33.093653
221,RGV Hometown Pharmacy PLLC,Pharmacy,,608 E Harrison Ave ,Harlingen,Cameron,"608 E Harrison Ave, Harlingen, Texas 78550",78550,26.1905991,-97.689917,0,220,0,0,0,220,0,(956) 496-2093,https://www.rgvhometownpharmacy.com/,,04/30/2021      ,08:46:50        ,,-97.689917,26.190599
222,Evins Regional Juvenile Center/Utmb,Other,,,Edinburg,Hidalgo,3801 E Monte Cristo,78541,26.3324393,-98.1230482,54,50,0,0,80,184,0,,,,04/30/2021      ,21:59:52        ,,-98.123048,26.332439
223,Medpark Pharmacy,Federal Allocation,,,San Marcos,Bexar,2004 Medical Pkwy Ste A,78666,29.8535782059796,-97.9481048176911,0,122,0,0,183,305,0,,,,04/26/2021      ,00:00:00        ,,-97.948105,29.853578
224,Sridhar Iyer Md,Medical Practice,,802 N Bonnie Brae St Ste 104,Denton,Denton,802 N BONNIE BRAE ST STE 104104 Denton 76201,76201,33.222286037891,-97.1608224286122,0,180,0,0,0,180,0,,,,04/30/2021      ,10:10:37        ,,-97.160822,33.222286
225,Nuestra Clinica Del Valle - Edcouch,Community Clinic,,1518 E Santa Rosa,Edcouch,,"1518 E Santa Rosa, Edcouch, TX 78538",78538,26.2941113,-97.9454372,0,0,0,0,120,120,0,(956) 262-1363,http://www.nuestraclinicadelvalle.org/,,04/30/2021      ,17:00:15        ,,-97.945437,26.294111
226,FIRST LONE STAR PHARMACY GROUP III LLC,Community Clinic,,,Joshua,Joshua,504 N Broadway St,76058,32.4787423561976,-97.3797244019713,0,200,0,0,0,200,0,,,,04/30/2021      ,14:27:40        ,,-97.379724,32.478742
227,Dept of Public Health - Burleson,Other,E,828 SW Alsbury,Burleson,Johnson,828 SW Alsbury,76028,32.54318399,-97.3522946,78,0,0,0,105,183,0,682-312-2780,www.burlesontx.com,,05/01/2021      ,07:05:24        ,,-97.352295,32.543184
228,Medicine Shoppe 1247,Pharmacy,,3310 Fort Boulevard,El Paso,El Paso,3310 Fort Boulevard,79930,31.805882026026,-106.454781902357,0,200,0,0,290,490,0,,,,04/30/2021      ,21:36:32        ,,-106.454782,31.805882
229,Genoa Healthcare LLC - Harlingen,Community Clinic,V,103 N Loop 499,Harlingen,Cameron,103 N Loop 499,78550,26.19089,-97.66319,0,70,0,0,0,70,0,(956) 230-7017,,,04/30/2021      ,20:59:10        ,,-97.66319,26.19089
230,Genoa Healthcare Brownsville,Community Clinic,,861 old alice rd,brownsville,Cameron,"861 old alice rd brownsville,texas 78520",78520,25.9333881,-97.4997582,0,100,0,0,0,100,0,9564040202,https://www.ttbh.org/tropical-texas-behavioral-health-locations,,04/30/2021      ,12:44:49        ,,-97.499758,25.933388
231,The Wellness Pharmacy,Other,,,Houston,Harris,12401 South Post Oak Road,77045,,,0,90,0,0,0,90,0,,,,05/01/2021      ,11:55:14        ,,,
232,Contents Trader Inc,Other,,1403 Highway 6,Sugar Land,Fort Bend,1403 Highway 6 Suite 700a,77478,29.6027346,-95.6323561,1170,160,0,0,0,1330,0,(832) 944-6112,,,04/30/2021      ,08:11:28        ,,-95.632356,29.602735
233,Cleveland Pharmacy,Pharmacy,,111 S.william Barnett Ave,Cleveland,Liberty,111 S WILLIAM BARNETT AVE Cleveland 77327,77327,30.3406081291667,-95.0854416305188,0,320,0,0,245,565,0,,,,04/30/2021      ,19:59:04        ,,-95.085442,30.340608
234,Brightmed Corporation,Other,,,Houston,Harris,9630 CLAREWOOD DR STE A3,77036,29.70722,-95.5506031,1026,180,0,0,0,1206,0,,,,04/30/2021      ,09:48:16        ,,-95.550603,29.70722
235,Walgreens Pharmacy 21161,Other,,,Houston ,,3701 KIRBY DR STE 1230 ,77098,30.0629726,-97.0904405,0,70,0,0,200,270,0,,,,04/30/2021      ,16:10:03        ,,-97.09044,30.062973
236,Primecare Pharmacy - San Antonio,Community Clinic,,14032 Nacogdoches Rd,San Antonio,Bexar,14032 Nacogdoches Rd,78247,29.56835,-98.38345,0,2,0,0,0,2,0,+12105304269,http://www.primecarepharmacy.net/,,04/30/2021      ,19:00:54        ,,-98.38345,29.56835
237,Super Value Pharmacy,Pharmacy,,Industrial Blvd,Euless,Tarrant,720 N INDUSTRIAL BLVD,76039,32.8482923,-97.0994732,0,300,0,0,0,300,0,(817) 283-5308,,,04/30/2021      ,14:57:14        ,,-97.099473,32.848292
238,Nuestra Clinica Del Valle - San Juan 3,Community Clinic,,2900 N Raul Longoria Rd Rear Entry,San Juan,Hidalgo,2900 N Raul Longoria Rd Rear Entry,78589,26.2233137607146,-98.1485372352829,0,90,0,40,95,185,40,(956) 781-6077,,,04/30/2021      ,14:19:41        ,,-98.148537,26.223314
239,OCEANS BEHAVIORAL - LONGVIEW,Hospital,G,615 Clinic Dr., Longview,Gregg,"615 Clinic Dr., Longview, TX, 75605",75605,32.5375902328737,-94.7345333156046,0,88,0,0,0,88,0,(903) 212-3105,https://oceanshealthcare.com/longview,,04/28/2021      ,07:58:11        ,,-94.734533,32.53759
240,Gulf Coast Health Center Inc.,Other,,,Port Arthur,Jefferson,2548 Memorial Blvd,77640,29.904135,-93.936165,1038,100,0,0,500,1638,0,(409) 983-1161,,,04/30/2021      ,16:57:17        ,,-93.936165,29.904135
241,Umc Internal Medicine,Medical Practice,,808 Joliet Ave,Lubbock,Lubbock,808 Joliet Ave,79415,33.5878220077547,-101.889357539774,0,190,0,0,0,190,0,(806) 761-0566,https://www.umchealthsystem.com/medical-services/umc-clinics/details/umc-internal-medicine,,04/30/2021      ,14:21:46        ,,-101.889358,33.587822
242,Montana Vista Community Partnership,Other,,14900 GREG DRIVE STE B ,EL PASO,EL PASO,14900 GREG DRIVE STE B EL PASO 79938,79938,31.798157,-106.162859,0,0,0,580,100,100,580,915-533-7057,,,04/20/2021      ,13:54:35        ,,-106.162859,31.798157
243,Pine Medical PLLC,Other,,1412 S Front St,Bellville,Austin,"1412 S Front St, Bellville, TX 77418",77418,29.9303462209961,-96.2488271857241,0,340,0,0,0,340,0,+19792274151,,,04/30/2021      ,18:27:39        ,,-96.248827,29.930346
244,"Ricky A. Siewert, DO",Other,,3006 Garrett Dr,Perryton,Ochiltree,3006 Garrett Dr,79070,36.3700599,-100.8009338,0,70,0,70,0,70,70,,,,04/26/2021      ,14:08:44        ,,-100.800934,36.37006
245,Arp ISD,Other,,16438 Cr 294,Arp,Smith,"16438 County Rd 294, Arp, TX 75750",75750,32.2370103306344,-95.0702769722064,0,0,0,0,90,90,0,+19038594650,https://www.arpisd.org/,,04/30/2021      ,13:42:10        ,,-95.070277,32.23701
246,Valleywide Pharmacy And Dme,Pharmacy,,,Brownsville,,680 Paredes Line Rd Suite B,78521,25.9322162337229,-97.4879705836768,0,100,0,0,0,100,0,(956) 372-1405,,,04/27/2021      ,20:05:07        ,,-97.487971,25.932216
247,League City Family Clinic,Other,,1507 W League City Pkwy,League City,0040272667,1507 W LEAGUE CITY PKWY STE 200,77573,29.48694,-95.10589,0,170,0,0,0,170,0,(713) 248-1440,,,04/26/2021      ,15:01:32        ,,-95.10589,29.48694
248,Monzer Yazji MD and associates,Medical Practice,,502 S Closner Blvd,Edinburg,Hidalgo,"502 S Closner Blvd, Edinburg, TX, USA",78539,26.2971436,-98.1627413,0,139,0,0,0,139,0,,,,04/20/2021      ,09:27:17        ,,-98.162741,26.297144
249,Walgreens Pharmacy 11513,Pharmacy,,,,,"5011 W SLAUGHTER LN Austin, TX 78749",,30.1990544889205,-97.8634390797613,0,0,0,0,93,93,0,(512) 292-1340,https://www.walgreens.com/locator/walgreens-5011+w+slaughter+ln-austin-tx-78749/id=11513,,04/30/2021      ,13:01:06        ,,-97.863439,30.199054
250,Jefferson County Immunization Clinic,Other,,1295 Pearl St,Beaumont,Jefferson,"1295 Pearl Street, Beaumont, TX, USA",77701,30.0776871,-94.092148,0,0,0,700,0,0,700,(409)835-8530,https://co.jefferson.tx.us/PublicHealth/PublicHealth.htm,,04/29/2021      ,09:09:33        ,,-94.092148,30.077687
251,CHRISTUS SANTA ROSA HOSPITAL - CHILDRENS,Hospital,P,"333 N Santa Rosa St, San Antonio, TX 78207", San Antonio,Bexar,333 N Santa Rosa St,78207,29.42812137,-98.49825657,0,0,1220,0,50,50,1220,(210) 704-2011,,,04/27/2021      ,10:17:00        ,,-98.498257,29.428121
252,Sergio Zamora Do,Other,,2450 El Indio Hwy,Eagle Pass,Maverick,2450 El Indio Hwy,78852,28.69126,-100.48048,0,5,0,0,0,5,0,,,,04/30/2021      ,12:51:46        ,,-100.48048,28.69126
253,Advant-Edge Pharmacy,Federal Allocation,,,El Paso,El Paso,1576 Lomaland Drive,79935,31.734934,-106.3335526,0,110,0,0,0,110,0,,,,04/28/2021      ,12:18:35        ,,-106.333553,31.734934
254,Greater Texoma Health Clinic,Other,,900 N Armstrong Ave,Denison,Grayson,900 N Armstrong Ave,75020,33.76443,-96.54523,0,78,0,0,0,78,0,,,,04/30/2021      ,12:26:54        ,,-96.54523,33.76443
255,Walgreens Pharmacy 07307,Pharmacy,,,,,"2103 FM 2920 RD Spring, TX 77388",,30.0697099368469,-95.4474226739722,6,0,0,0,60,66,0,(281) 288-9008,https://www.walgreens.com/locator/walgreens-2103+fm+2920+rd-spring-tx-77388/id=7307,,04/30/2021      ,21:04:10        ,,-95.447423,30.06971
256,PHARMCARE LLC,Federal Allocation,,,Pearland,Brazoria,1834 Broadway Street Suite 106,77581,33.6257136,-97.1232219,0,200,0,0,0,200,0,,,,04/30/2021      ,12:05:00        ,,-97.123222,33.625714
257,ReNue Rx #1- TELP,Pharmacy,,Loop 288,Denton,76209,"306 N Loop 288, Ste 210",TX,33.21674,-97.089433,0,100,0,0,0,100,0,,DENTONCREDENTIALING@RENUERX.COM,,04/30/2021      ,11:52:22        ,,-97.089433,33.21674
258,King's Daughters Pharmacy,Federal Allocation,,,Temple,Bell,1905 South West H K Dodgen Loop,76502,31.07272,-97.376535,0,0,0,0,248,248,0,2547781731,,,04/30/2021      ,13:06:39        ,,-97.376535,31.07272
259,NATNAO,Pharmacy,,189 North Plano Rd,Richardson,Dallas,189 North Plano Rd,75081,32.9479935,-96.7025389,0,470,0,0,0,470,0,,,,04/30/2021      ,11:18:32        ,,-96.702539,32.947994
260,W & W Medical Consulting,Other,,,Harlingen,,1821 S SESAME SQ STE 14 ,78550,26.1667746227936,-97.6794710445575,0,270,0,0,0,270,0,+19568251235,,,04/27/2021      ,16:14:27        ,,-97.679471,26.166775
261,Jose I Sosa Md,Medical Practice,,151 Medical Dr,Pearsall,Frio,151 Medical Dr,78061,28.8971907566906,-99.1168639682055,0,0,0,0,310,310,0,(830) 334-4142,,,04/30/2021      ,11:01:50        ,,-99.116864,28.897191
262,Sunrise Urgent Care Center,Medical Practice,,,Richmond,Fort Bend,24948 FM 1093 Suite 205,77406,29.7000733,-95.8119341,1164,0,0,0,0,1164,0,,,,04/30/2021      ,17:11:18        ,,-95.811934,29.700073
263,Family Care Clinic of Panhandle,Medical Practice,A,102 Hwy 60,PANHANDLE,Carson,PO BOX 10,79068,35.3399643187129,-101.376587823674,0,1000,0,100,0,1000,100,(806) 532-2273,http://www.familycarepanhandle.com/,,04/27/2021      ,07:52:41        ,,-101.376588,35.339964
264,"Cano Health Texas, LLC",Other,,7031 MARBACH RD,SAN ANTONIO,Bexar,"7031 MARBACH RD, San Antonio, Tx 78227",78227,29.4178291,-98.6281767,0,50,0,500,200,250,500,210.761.3393,https://canohealth.com/map-location/7031-marbach-rd/?mpfy-pin=12716,,04/29/2021      ,17:32:04        ,,-98.628177,29.417829
265,"BBC Healthcare Group, PLLC",Community Clinic,,,Lewisville,Denton,571 W Main St,75057,33.0470316647355,-97.0060982424409,0,200,0,0,0,200,0,,,,04/28/2021      ,14:26:13        ,,-97.006098,33.047032
266,INTERVENTIONAL PAIN ASSOCIATES,Medical Practice,,6618 Sitio Del Rio Blvd,Austin,Travis,"6618 Sitio Del Rio Boulevard, Austin, TX, USA",78730,30.392186,-97.8430849,0,90,0,0,0,90,0,,,,04/30/2021      ,10:18:49        ,,-97.843085,30.392186
267,Medical Arts Clinic - Bay City,Other,,1120 Avenue G,Bay City,Matagorda,1120 Avenue G,77414,28.9928192744493,-95.9695459175276,0,280,0,240,0,280,240,(979) 245-5721,,,04/23/2021      ,09:49:19        ,,-95.969546,28.992819
268,Absolute CPR and Allied Health Training ,Other,,Wheatland Road Suite 180,Duncanville,DALLAS,"4025 West Wheatland Road, Dallas, TX, USA",75116,32.6479758,-96.8859643,1127,0,0,0,0,1127,0,,,,04/29/2021      ,08:42:38        ,,-96.885964,32.647976
269,InHouse Physicians/LivingWell Clinic,Other,,4700 Marine Creek Pkwy,Fort Worth,USA,"4700 Marine Creek Pkwy, Fort Worth, TX 76179, USA",76179,32.829551,-97.3833973,0,100,0,0,0,100,0,,,,04/27/2021      ,16:54:45        ,,-97.383397,32.829551
270,KNAPP MEDICAL CENTER,Hospital,V,1401 E 8th St,Weslaco,Hidalgo,1401 E 8th St,78596,26.1519849472555,-97.9763872131394,0,180,0,0,0,180,0,956-968-8567,https://care.advocatehealth.com/doctors/keith-knapp-chicago-family-medicine,,05/01/2021      ,09:17:54        ,,-97.976387,26.151985
271,Walgreens Pharmacy 03570,Pharmacy,,,,,"890 N RESLER DR El Paso, TX 79912",,31.8589612078799,-106.558045873761,462,0,28,0,132,594,28,(915) 584-1359,https://www.walgreens.com/locator/walgreens-890+n+resler+dr-el+paso-tx-79912/id=3570,,05/01/2021      ,11:49:03        ,,-106.558046,31.858961
272,Fulshear Family Medicine,Medical Practice,Q,7629 Tiki Dr,Fulshear,Fort Bend,7629 Tiki Dr,77441,29.692250039341,-95.8838642270824,0,41,0,0,0,41,0,281-346-0018,,,04/30/2021      ,09:29:17        ,,-95.883864,29.69225
273,BROWNSVILLE CHILDRENS CLINIC,Community Clinic,,,Brownsville,,4430 E 14th St Unit A,78521,25.9202813,-97.4669414,0,50,0,0,0,50,0,,,,04/30/2021      ,15:04:25        ,,-97.466941,25.920281
274,Healthy House Call Providers and HealthSuccess Clinic,Other,,9304 Forest Lane,Dallas,Dallas,9304 FOREST LN # S100 Dallas 75243,75243,32.9081344201096,-96.7382720728206,0,90,0,90,0,90,90,,,,04/30/2021      ,09:29:38        ,,-96.738272,32.908134
275,Crossover Healthcare,Other,,4500 Mercantile Plaza Blvd,Fort Worth,Tarrant,4500 Mercantile Plaza Blvd,76137,32.82094,-97.310676,0,0,0,0,1000,1000,0,,,,04/30/2021      ,09:16:51        ,,-97.310676,32.82094
276,"Mid Valley Internists, P.A.",Medical Practice,,,Weslaco,Hidalgo,1330 E 6th St,78596,26.1554628,-97.9792969,0,281,0,0,0,281,0,,,,04/30/2021      ,09:09:09        ,,-97.979297,26.155463
277,Pinewood Medical Clinic,Community Clinic,,,Magnolia,Montgomery,6318 Fm 1488 Rd Ste 100,77354,30.22316,-95.5660907,0,51,0,0,0,51,0,,,,04/30/2021      ,08:59:48        ,,-95.566091,30.22316
278,Luna Medical Clinic,Community Clinic,,,PORT ISABEL,,112 W QUEEN ISABELLA STE CC ,78578,26.0758345559764,-97.2110029598286,0,95,0,1,0,95,1,,,,04/30/2021      ,08:37:46        ,,-97.211003,26.075835
279,Affordacare Urgent Care Clinic Ridgemont,Other,,,Abilene,Taylor,4009 Ridgemont Dr,79606,32.4031269,-99.7647466,0,50,0,50,0,50,50,,,,04/30/2021      ,08:01:25        ,,-99.764747,32.403127
280,Neurosurgical Associates,Other,,,Lubbock,Lubbock,3419 22nd Street,79410,33.5749878526889,-101.889745144256,0,88,0,88,0,88,88,,,,04/30/2021      ,07:19:11        ,,-101.889745,33.574988
281,North Texas Hospital Physicians Group,Other,,,Plano ,Collin,6020 W PARKER RD STE 420,75093,33.0441589569148,-96.8319418025958,0,80,0,0,0,80,0,(972) 244-1300 ext1390,bgwarren@texasmed.com,,04/30/2021      ,07:16:00        ,,-96.831942,33.044159
282,HEALTHCO PHARMACY #2,Federal Allocation,,8604 Martin Luther King Jr Blvd,Houston,77033,8604 Martin Luther King Jr Blvd,Harris,29.6583176,-95.3391354,0,0,0,0,620,620,0,,,,05/01/2021      ,08:36:26        ,,-95.339135,29.658318
283,BRUCES PHARMACY,Federal Allocation,,6001 39th St,Groves,Jefferson,6001 39th Street,77619,29.9450846,-93.9221114,0,23,0,100,0,23,100,(409) 962-4431,,,05/01/2021      ,07:58:59        ,,-93.922111,29.945085
284,Randol Mill Pharmacy,Pharmacy,,1014 N Fielder Rd,Arlington,Tarrant,1014 North Fielder Road,76012,32.7492602,-97.1323622,0,380,0,0,0,380,0,,randolmillrx@aol.com,,05/01/2021      ,08:38:40        ,,-97.132362,32.74926
285,Peoples Pharmacy #1,Pharmacy,,, Austin,,4018 N Lamar Blvd,78756,30.3090703303192,-97.7410968866638,0,50,0,0,0,50,0,,,,05/01/2021      ,09:10:49        ,,-97.741097,30.30907
286,United Pharmacy 513,Pharmacy,,3000 Wilbarger St,Vernon,Wilbarger,3000 Wilbarger St,76384,34.1526492949133,-99.2976499353955,0,340,0,260,90,430,260,,,,05/01/2021      ,10:44:40        ,,-99.29765,34.152649
287,Linex Enterprises LLC,Pharmacy,,8635 Long Point Rd Ste C,Houston,Harris,"8635 Long Point Road, STE C",77055,29.8027511,-95.5020756,0,100,0,0,0,100,0,(713) 492-2679,prontorxpharmacy@gmail.com,,04/29/2021      ,23:40:13        ,,-95.502076,29.802751
288,Walgreens Pharmacy 07720,Pharmacy,,,,,"21106 KUYKENDAHL RD Spring, TX 77379",,30.0751782870722,-95.5132822514382,0,100,0,0,215,315,0,(281) 355-6325,https://www.walgreens.com/locator/walgreens-21106+kuykendahl+rd-spring-tx-77379/id=7720,,04/30/2021      ,22:08:47        ,,-95.513282,30.075178
289,Walgreens Pharmacy 04078,Pharmacy,,,Katy ,,5161 Franz Rd ,77493,30.2017043,-97.2596101,108,80,0,0,125,313,0,,,,04/30/2021      ,20:08:29        ,,-97.25961,30.201704
290,Walgreens Pharmacy 06996,Pharmacy,,,,,"4200 E LANCASTER AVE Fort Worth, TX 76103",,32.7407493931972,-97.2621910507216,102,0,102,0,80,182,102,(817) 413-7442,https://www.walgreens.com/locator/walgreens-4200+e+lancaster+ave-fort+worth-tx-76103/id=6996,,04/30/2021      ,20:11:52        ,,-97.262191,32.740749
291,Walgreens Pharmacy 03160,Pharmacy,,,,,"6280 BARKER CYPRESS RD Houston, TX 77084",,29.8641315504432,-95.6825251335645,0,220,0,0,0,220,0,(281) 859-4898,https://www.walgreens.com/locator/walgreens-6280+barker+cypress+rd-houston-tx-77084/id=3160,,04/29/2021      ,19:54:11        ,,-95.682525,29.864132
292,"Beverly Advanced Practice Nursing, Pllc",Other,,103 Woodbine Pl Ste A Longview 75601,Longview,Gregg,103 Woodbine Pl Ste A,75601,32.52551,-94.74428,0,90,0,0,0,90,0,,,,04/29/2021      ,17:46:07        ,,-94.74428,32.52551
293,Heriberto Rodriguezayala Md Pa,Other,,,Edinburg,Hidalgo,5419 S Mccoll Rd,78539,26.2539195,-98.2047253,0,170,0,0,0,170,0,,,,04/30/2021      ,12:01:57        ,,-98.204725,26.25392
294,"PVD Urgent Care, LLC",Other,,"18007 W IH 10, STE 102",San Antonio,Bexar,"18007 W IH 10, San Antonio, TX, USA",78257,29.6552259,-98.6253011,500,0,0,0,0,500,0,,,,04/30/2021      ,09:17:13        ,,-98.625301,29.655226
295,Walgreens Pharmacy 05390,Pharmacy,,, Houston ,,8300 Wilcrest Dr,77072,30.0606886,-97.1600286,42,0,0,0,60,102,0,,,,04/30/2021      ,21:23:56        ,,-97.160029,30.060689
296,Lyford CISD,Other,,8240 Simon Gomez Rd,Lyford,Willacy,8240 Simon Gomez Rd. Lyford 78569,78569,26.4110498725324,-97.7967537845489,0,20,0,0,100,120,0,,,,04/29/2021      ,16:23:36        ,,-97.796754,26.41105
297,P Douglas Cochran Md Ltd,Other,,4214 Andrews Hwy Ste 306,Midland,Midland,4214 Andrews Hwy Ste 306,79703,32.00463,-102.13488,0,290,0,0,0,290,0,,,,04/29/2021      ,15:58:38        ,,-102.13488,32.00463
298,Parkland Family Medicine Clinic,Community Clinic,,5920 Forest Park Rd. Ste 601,Dallas,Dallas,"5920 Forest Park Road, Ste 601",75235,32.8209939,-96.841212,0,100,0,0,0,100,0,(214) 266-0324,covidvaccinecommunications@phhs.org,,04/30/2021      ,17:53:37        ,,-96.841212,32.820994
299,Valdez Family Clinic,Medical Practice,,98 Briggs St,San Antonio,Bexar,"98 Briggs St Suite 800, San Antonio, TX 78224",78224,29.3543785,-98.5530894,0,20,0,0,0,20,0,+1210 927 9500,https://www.vfc-afw.com/,,04/30/2021      ,14:31:03        ,,-98.553089,29.354379
300,"IVAN N. MEFFORD MD, PHD, PA",Community Clinic,,,Richmond,Fort Bend,1505 Liberty St,77469,29.5783085581594,-95.7690939443463,0,95,0,0,0,95,0,281-342-9500,,,04/29/2021      ,15:53:01        ,,-95.769094,29.578309
301,Samuel Gan Md,Medical Practice,,6918 Corporate Dr Ste A10,Houston,Harris,6918 Corporate Dr Ste A10,77036,29.7034391856793,-95.5516434987115,0,90,0,0,0,90,0,(713) 777-3150,http://www.memorialhermann.org/doctors/family-medicine-doctors/dr-samuel-gan-md-647087/,,04/30/2021      ,11:56:17        ,,-95.551643,29.703439
302,287 Family Medicine,Other,,,Midlothian,Ellis,4031 E Hwy 287,76065,32.4632406,-96.9846495,0,4,0,0,0,4,0,,,,04/29/2021      ,15:10:14        ,,-96.984649,32.463241
303,IRUKA & CO INC dba Voss Rd Pharmacy,Other,,2101 S VOSS RD # 1500 Houston 77057,Houston,Harris,2101 S Voss Rd,77057,29.74632,-95.50017,0,100,0,0,0,100,0,,,,04/30/2021      ,12:25:02        ,,-95.50017,29.74632
304,Kroger Pharmacy 974,Pharmacy,,,Baytown ,,1700 N Alexander Dr ,77520,30.2801866397388,-97.7094573040521,228,10,0,0,100,338,0,,,,04/28/2021      ,08:05:00        ,,-97.709457,30.280187
305,Kroger Pharmacy 950,Other,R,1600 N 16th St,Orange,Orange,"1600 N 16th St Orange, TX 77630",77630,30.1058,-93.7473,188,90,0,0,95,373,0,(409) 883-8521,,,04/28/2021      ,08:05:00        ,,-93.7473,30.1058
306,Kroger Pharmacy 367,Pharmacy,,,Humble ,,3820 Atascocita Road ,77396,29.9791935971336,-95.215102188603,42,0,0,0,85,127,0,,,,04/28/2021      ,08:05:00        ,,-95.215102,29.979194
307,Kroger Pharmacy 359,Pharmacy,,,Kingwood ,,25651 Highway 59 N ,77339,30.0721816766656,-95.2431616174374,126,0,0,0,100,226,0,,,,04/28/2021      ,08:05:00        ,,-95.243162,30.072182
308,Kroger Pharmacy 354,Pharmacy,,,Pasadena ,,3550 Spencer Hwy ,77504,29.6638645973941,-95.1895228611093,294,0,0,0,65,359,0,,,,04/28/2021      ,08:05:00        ,,-95.189523,29.663865
309,Kroger Pharmacy 351,Pharmacy,,,Houston ,,14710 Woodforest Blvd ,77015,29.7898177143536,-95.1593137444265,156,0,0,0,50,206,0,,,,04/28/2021      ,08:05:00        ,,-95.159314,29.789818
310,Kroger Pharmacy 342,Pharmacy,,,Seabrook ,,1905 El Mar Ln ,77586,29.5692024016703,-95.0255219174458,114,0,0,0,10,124,0,,,,04/28/2021      ,08:05:00        ,,-95.025522,29.569202
311,Kroger Pharmacy 337,Pharmacy,,,Pasadena ,,2619 Red Bluff ,77506,29.6969068942075,-95.1736324867562,288,0,0,0,65,353,0,,,,04/28/2021      ,08:05:00        ,,-95.173632,29.696907
312,Kroger Pharmacy 331,Pharmacy,,,Houston ,,12620 Woodforest Blvd Ste 200 ,77015,29.7902147577518,-95.2009311886062,156,0,0,0,15,171,0,,,,04/28/2021      ,08:05:00        ,,-95.200931,29.790215
313,Kroger Pharmacy 328,Pharmacy,,,Beaumont ,,3845 Phelan Blvd ,77707,30.0836473703952,-94.1420873139999,210,0,0,0,30,240,0,,,,04/28/2021      ,08:05:00        ,,-94.142087,30.083647
314,Kroger Pharmacy 325,Pharmacy,,,Beaumont ,,3965 Dowlen Rd,77706,30.1172473151145,-94.1698468309289,246,0,0,0,45,291,0,,,,04/28/2021      ,08:05:00        ,,-94.169847,30.117247
315,Kroger Pharmacy 322,Other,,,Pasadena ,,6767 Spencer Hwy,77505,29.665475,-95.135078,300,0,0,0,65,365,0,,,,04/28/2021      ,08:05:00        ,,-95.135078,29.665475
316,Kroger Pharmacy 318,Pharmacy,,19250 West Lake Houston Pkwy,Humble,Harris,19250 West Lake Houston Pkwy,77346,30.0010900106286,-95.1608610410061,132,0,0,0,35,167,0,(281) 812-4499,http://www.kroger.com/stores/details/034/00318?cid=loc_03400318PP_gmb,,04/28/2021      ,08:05:00        ,,-95.160861,30.00109
317,Kroger Pharmacy 310,Pharmacy,,3410 Northpark Dr,Kingwood,Harris,3410 Northpark Dr,77345,30.067865058659,-95.1874054406629,168,0,0,0,80,248,0,(281) 361-7404,http://www.kroger.com/stores/details/034/00310?cid=loc_03400310PP_gmb,,04/28/2021      ,08:05:00        ,,-95.187405,30.067865
318,Kroger Pharmacy 190,Pharmacy,,9475 Fm 1960 Bypass Rd W,Humble,Harris,9475 Fm 1960 Bypass Rd W,77338,30.0050462145868,-95.2831780652143,96,0,0,0,20,116,0,(281) 973-5090,http://www.kroger.com/stores/details/034/00190?cid=loc_03400190PP_gmb,,04/28/2021      ,08:05:00        ,,-95.283178,30.005046
319,Kroger Pharmacy 150,Pharmacy,,6315 Garth Rd,Baytown,Harris,6315 Garth Rd,77521,29.7921339840592,-94.9842749605813,390,0,0,0,55,445,0,(346) 216-4155,http://www.kroger.com/stores/details/034/00150?cid=loc_03400150PP_gmb,,04/28/2021      ,08:05:00        ,,-94.984275,29.792134
320,Kroger Pharmacy 138,Pharmacy,,22030 Market Place Dr,New Caney,Montgomery,22030 Market Place Dr,77357,30.1332999906192,-95.2362089861353,60,0,0,0,100,160,0,(281) 747-5089,http://www.kroger.com/stores/details/011/00320?cid=loc_01100320PP_gmb,,04/28/2021      ,08:05:00        ,,-95.236209,30.1333
321,Family Medicine East Clinic,Community Clinic,,116 John Dupre Drive,Levelland,Hockley,116 John Dupre Drive Levelland 79336,79336,33.5737387218231,-102.368569601335,0,0,0,20,0,0,20,,,,04/29/2021      ,14:22:37        ,,-102.36857,33.573739
322,EDNA PHARMACY LLC,Other,,,Edna ,,604 N WELLS ST ,77957,28.9826995278405,-96.6487935177932,0,100,0,400,0,100,400,,ednapharmacy@gmail.com,,04/30/2021      ,18:47:33        ,,-96.648794,28.9827
323,Psja Family Clinic,Community Clinic,,1536 S Cage Blvd Ste 5,Pharr,Hidalgo,1536 S Cage Blvd Ste 5 Pharr 78577,78577,26.1769117809866,-98.1875130747688,0,140,0,0,0,140,0,+19567818396,http://psjafamilyclinic.com/?utm_source=gmb&utm_medium=referral,,04/30/2021      ,10:43:55        ,,-98.187513,26.176912
324,"MP Southpark Pharmarcy, LLC  dba Myers Drug",Other,,,San Angelo,Tom Green,29 S Chadbourne St,76903,31.4626779,-100.4370988,0,200,0,0,0,200,0,,,,04/29/2021      ,14:04:51        ,,-100.437099,31.462678
325,COSTCO PHARMACY 1146,Federal Allocation,,17520 Sw Freeway,Sugar Land,Fort Bend,17520 Sw Freeway,77479,29.5857311404935,-95.6441580138805,0,100,0,0,165,265,0,,,,04/30/2021      ,18:38:15        ,,-95.644158,29.585731
326,Friedman Family Practice,Pharmacy,,,Frisco,Denton,11560 Teel Pkwy,75033,33.1749339721456,-96.8638391852057,0,370,0,0,0,370,0,,,,04/29/2021      ,14:01:57        ,,-96.863839,33.174934
327,YOAKUM COMMUNITY HOSPITAL,Hospital,S,1200 Carl Ramert Drive, Yoakum,Lavaca,"1200 Carl Ramert Drive, Yoakum, TX, 77995",77995,29.300673,-97.123626,0,0,0,0,490,490,0,(361) 293-2321,http://www.yoakumhospital.org/,,04/30/2021      ,04:11:07        ,,-97.123626,29.300673
328,Hometown Healthcare Pearsall,Community Clinic,,404 E San Marcos St,Pearsall,Texas,"404 E San Marcos St, Pearsall, Texas 78061",78061,28.89057,-99.0940682,0,185,0,0,185,370,0,(830) 334-3336,,,04/30/2021      ,12:08:20        ,,-99.094068,28.89057
329,Hometown Pharmacy,Federal Allocation,,310 Charlie St,Whitesboro,Grayson,"310 Charlie St, Whitesboro, Texas 76273",76273,33.667584,-96.905392,0,0,0,0,100,100,0,903-564-1234,https://www.vitals.com/pharmacy/hometown-pharmacy-310-charlie-st-whitesboro-tx,,05/01/2021      ,09:31:22        ,,-96.905392,33.667584
330,986 Specialty Pharmacy,Pharmacy,,,Plano,Collin,6205 Coit Rd Suite 356,75024,33.0579704822314,-96.7722876154546,0,150,0,0,175,325,0,,,,04/30/2021      ,09:42:01        ,,-96.772288,33.05797
331,Family Healthcare Associates North Richland Hills,Community Clinic,,7601 Glenview Dr,North Richland Hills,Tarrant,7601 Glenview Dr RICHLAND HILLS 76180,76180,32.824307018581,-97.214313203491,0,120,0,0,0,120,0,,,,04/30/2021      ,08:41:43        ,,-97.214313,32.824307
332,Gulf Coast Family Medicine,Other,,,WHARTON ,,10119 US 59 HWY ,77488,,,0,10,0,0,0,10,0,,,,04/29/2021      ,16:19:47        ,,,
333,The Medicine Shoppe Pharmacy 0937,Federal Allocation,,,NACOGDOCHES,Nacogdoches,212 NORTH STREET STE B,75961,31.6055913061952,-94.6551773013278,0,0,0,0,87,87,0,,,,04/26/2021      ,00:00:00        ,,-94.655177,31.605591
334,BEST HEALTH URGENT CARE & CLINIC,Community Clinic,,,Missouri City,Missouri City,3003 Texas Parkway,77489,29.5833550863813,-95.5255593453338,0,90,0,0,0,90,0,,,,04/29/2021      ,13:37:48        ,,-95.525559,29.583355
335,Austin Teen Health Center,Federal Allocation,,1514 Avenue N 12,Galveston,Galveston,1514 Avenue N 12,77550,29.2982286854758,-94.7820638013943,0,100,0,0,0,100,0,,,,04/28/2021      ,10:03:20        ,,-94.782064,29.298229
336,Baylor St. Luke's Medical Group ,Community Clinic,,6363 San Felipe St,Houston,Harris,6363 San Felipe Street,77057,29.7488197,-95.4966103,0,100,0,0,0,100,0,(713) 972-8900,,,04/29/2021      ,12:18:51        ,,-95.49661,29.74882
337,ARMANDO S VILLARREAL MD,Other,,W Goodwin St,Pleasanton,Atascosa,1540 W Goodwin St,78064,28.9604667507704,-98.5050778030195,0,486,0,500,0,486,500,,,,04/23/2021      ,14:37:40        ,,-98.505078,28.960467
338,The Neighborhood Doctor,Medical Practice,,,Raymondville,Willacy,525 South 10th street,78580,26.4776931,-97.7784856,0,70,0,0,0,70,0,,,,04/30/2021      ,15:49:50        ,,-97.778486,26.477693
339,Genesis Medical Group Six Pines,Other,,8845 Six Pines Dr,Spring,Montgomery,8845 Six Pines Dr,77380,,,0,200,0,0,0,200,0,(281) 440-5300,,,04/30/2021      ,09:01:19        ,,,
340,La Esperanza Clinic- 31st Street,Community Clinic,,35 e 31st st,San Angelo,Tom Green,35 E 31st St,76903,31.4921,-100.454,0,120,0,0,0,120,0,+13256585339,http://www.esperanzahealth.org/,,04/29/2021      ,13:16:55        ,,-100.454,31.4921
341,Medwin Family Medicine and Rehab ,Medical Practice,,Jose Marti Blvd ,Brownsville,Cameron ,315 Jose Marti Blvd ,78526,25.9515667,-97.4998104,0,100,0,0,0,100,0,956-546-7530,,,04/30/2021      ,13:41:49        ,,-97.49981,25.951567
342,Imperical Care Internal Med,Other,,600 E Taylor,Sherman,Grayson,600 E Taylor,75090,33.6558617,-96.6104384,0,190,0,0,0,190,0,,,,04/29/2021      ,13:31:05        ,,-96.610438,33.655862
343,Doctors Pharmacy,Other,,,Midland,Midland,2215 N Midland Dr,79707,32.0081993387269,-102.140618058766,0,390,0,0,0,390,0,,,,04/29/2021      ,13:17:22        ,,-102.140618,32.008199
344,PHARMACY STATION,Federal Allocation,,,RAYMONDVILLE,,640 S EXPRESSWAY 77 STE 2 ,78580,26.476803857863,-97.7711388733884,0,100,0,0,235,335,0,(956) 689-4120,,,04/30/2021      ,09:35:50        ,,-97.771139,26.476804
345,UTP BELLAIRE FAMILY AND MEDICINE,Other,,,HOUSTON,,5420 DASHWOOD DR STE 100 , 77081,29.7080893804978,-95.4749666867269,0,70,0,0,0,70,0,,,,04/30/2021      ,15:30:50        ,,-95.474967,29.708089
346,"Alamo City Urgent Care, LLC",Medical Practice,,8223 Marbach Rd,San Antonio,Bexar,"8223 Marbach Rd, San Antonio, TX, USA",78227,29.419167,-98.6539267,0,191,0,0,0,191,0,,,,04/30/2021      ,17:24:57        ,,-98.653927,29.419167
347,"J. Blake Bolin, M.D., P.A.",Medical Practice,,,Frisco,Collin,3550 Parkwood Blvd Bldg D,75034,33.109781,-96.8175691,0,53,0,0,0,53,0,,,,04/29/2021      ,12:56:38        ,,-96.817569,33.109781
348,Sths Clinics- Mcallen,Community Clinic,,,Mcallen,Hidalgo,1801 S 5th St,78501,26.1856257,-98.2287216,0,100,0,0,0,100,0,,,,04/29/2021      ,17:54:53        ,,-98.228722,26.185626
349,Care First Clinic Garrison,Other,,,Garrison,Nacogdoches,149 S Us Hwy 59,75946,31.8249346623186,-94.4915217693185,0,0,0,200,0,0,200,+19363473322,,,04/29/2021      ,10:51:40        ,,-94.491522,31.824935
350,Houston Health Department,Vaccine Hub,,8000 N Stadium Dr,Houston,Harris,"8000 N Stadium Dr, Houston, Texas 77054",77054,29.6931554841311,-95.4078596343324,0,10000,0,10000,300,10300,10000,(832) 393-4220,https://houstonemergency.org/covid19/,,05/01/2021      ,11:12:41        ,,-95.40786,29.693155
351,Chemik Health care services ,Other,,9555 W Sam Houston Pkwy S,Houston,Harris,"9555 West Sam Houston Parkway South, Houston, TX, USA",77099,29.6753911,-95.5593489,0,90,0,0,0,90,0,,,,04/30/2021      ,15:14:35        ,,-95.559349,29.675391
352,United Health Partners,Community Clinic,,6846 Antoine Dr,Houston,Harris,"6846 Antoine Drive, Houston, TX, USA",77091,29.8627263,-95.4717635,3180,790,0,0,500,4470,0,,,,04/29/2021      ,12:23:45        ,,-95.471763,29.862726
353,Bellaire Allergy &  Asthma,Other,,6750 WEST LOOP S STE 460 BELLAIRE 77401,Bellaire,Harris,6750 WEST LOOP S STE 460 BELLAIRE 77401,77401,29.70648,-95.46111,0,96,0,0,0,96,0,,,,04/29/2021      ,12:21:09        ,,-95.46111,29.70648
354,Uptown Rx Pharmacy & Nutrition,Federal Allocation,,,Dallas,Dallas,3408 Oak Lawn Ave,75219,32.8111201,-96.8062474,0,199,0,0,20,219,0,(214) 935-9092,,,04/29/2021      ,11:47:18        ,,-96.806247,32.81112
355,"Pediatric Pulmonary Associates of North Texas, P. A. ",Medical Practice,,Wade Blvd,Frisco,Collin,"8501 Wade Blvd, Suite 1020",75034,33.1269147,-96.8174227,0,90,0,0,0,90,0,+19726685864,,,04/30/2021      ,20:09:58        ,,-96.817423,33.126915
356,Vital Care Clinic LLC,Community Clinic,,"6805 NE Loop 820, Suite 408",North Richland Hills,TX,"6805 NE Loop 820, Suite 408",76180,32.8410626,-97.2351582,0,370,0,0,0,370,0,,,,04/27/2021      ,00:00:00        ,,-97.235158,32.841063
357,BAYTOWN OCCUPATIONAL AND FAMILY MEDICINE,Community Clinic,,4002 Garth Road,Baytown,Harris,4002 GARTH RD STE 150 BAYTOWN 77521,77521,29.7677405575625,-94.9757308305288,55,55,55,0,55,165,55,,,,04/30/2021      ,10:12:23        ,,-94.975731,29.767741
358,Chi St Joseph Health Rehabilitation Hos,Other,N,1600 Joseph Dr.,Bryan,Brazos,1600 Joseph Dr.,77802,30.66115361,-96.35028881,0,24,0,5,0,24,5,979-213-4300,,,04/30/2021      ,17:27:51        ,,-96.350289,30.661154
359,Glen Rose Healthcare Inc,Other,,409 Glenwood St,Glen Rose,Somervell,409 Glenwood St,76043,32.2427067903696,-97.7450588866327,0,186,0,77,0,186,77,+12548972202,http://www.glenrosehealthcare.com/,,04/30/2021      ,16:01:26        ,,-97.745059,32.242707
360,Dept of Public Health - Williamson County / Round Rock,Local Health Department,o,355 Texas Ave,Round Rock,Williamson,355 Texas Ave,78664,30.53033,-97.68339,0,0,0,7700,0,0,7700,(512) 248-3257,http://www.wcchd.org/,,05/01/2021      ,10:38:15        ,,-97.68339,30.53033
361,JD Healthcare 2 LLC,Other,,1824 Parkway Dr,Lubbock,,1824 PARKWAY DR # 100 Lubbock 79403,79403,33.59428,-101.81468,0,0,0,270,0,0,270,,,,04/30/2021      ,15:33:12        ,,-101.81468,33.59428
362,CANALES MEDICAL SERVICES LLC,Other,,, Rio Grande  ,Starr,2790 PHARMACY RD STE A, 78582,26.3756318196355,-98.8588908918665,0,80,0,0,0,80,0,,,,04/29/2021      ,11:28:37        ,,-98.858891,26.375632
363,Glenview Professional Pharmacy Richlan,Pharmacy,,7640 Glenview Dr Ste A,North Richland Hills,Tarrant,7640 Glenview Dr Ste A,76180,32.8237381916603,-97.2125928556605,858,400,0,0,380,1638,0,(817) 284-1489,http://www.glenviewrx.com/,,04/30/2021      ,13:06:04        ,,-97.212593,32.823738
364,Springcare,Medical Practice,,,Carrollton,Dallas,2840 Keller Springs Rd Ste 601,75006,32.9697426,-96.856302,0,160,0,0,0,160,0,,,,04/29/2021      ,14:12:25        ,,-96.856302,32.969743
365,Texas Diagnostic Imaging,Other,,5508 W Plano Pkwy,Plano,Collin,5508 W Plano Pkwy,75093,33.01546,-96.81039,0,190,0,0,0,190,0,,,,04/30/2021      ,11:21:51        ,,-96.81039,33.01546
366,JMTI Inc,Other,,5700 Tennyson Parkway,Plano,Collin,5700 TENNYSON PKWY STE 300 Plano 75024,75024,33.0709601324426,-96.8200077746501,918,0,0,0,0,918,0,,,,04/29/2021      ,11:14:33        ,,-96.820008,33.07096
367,Nacogdoches Pulmonary And Sleep Associates,Other,,1209 N Mound St,Nacogdoches,Nacogdoches,1209 N Mound St Nacogdoches 75961,75961,31.61355,-94.64946,0,30,0,500,0,30,500,936) 585-4646,N/A,,04/29/2021      ,11:53:59        ,,-94.64946,31.61355
368,Houston Eye Associates,Medical Practice,,2855 Gramercy St,Houston,Harris,"2855 Gramercy Street, Houston, TX, USA",77025,29.7040732,-95.4224467,0,60,0,0,0,60,0,,,,04/30/2021      ,23:25:12        ,,-95.422447,29.704073
369,Internal Medicine Associates Of Galveston,Medical Practice,,,Galveston,Galveston,501 Holiday Dr,77550,29.3099361,-94.7742193,0,80,0,0,0,80,0,,,,04/29/2021      ,15:16:06        ,,-94.774219,29.309936
370,AdventHealth Rollins Brook Hospital,Hospital,L,608 North Key Avenue,Lampasas,LAMPASAS,608 North Key Avenue,76550,31.07233,-98.185644,0,0,0,160,0,0,160,512-564-2240,,,04/30/2021      ,16:41:07        ,,-98.185644,31.07233
371,Falls Community Hospital & Clinic,Vaccine Hub,M,322 Coleman Street, Marlin,Falls,"307 Live Oak Street Marlin, TX  76661",76661,31.307442,-96.894062,3310,0,647,0,70,3380,647,254-252-2667,http://www.fallshospital.com/,,04/30/2021      ,08:11:28        ,,-96.894062,31.307442
372,Lockhart Family Medicine ,Medical Practice,,1009 W San Antonio St,Lockhart,Caldwell,1009 West San Antonio Street,78644,29.8836895,-97.6848263,0,20,0,0,0,20,0,(512) 376-5247,LOCKHARTFAMILY2@GMAIL.COM,,04/30/2021      ,17:30:08        ,,-97.684826,29.88369
373,Gatesville Drug Company,Other,,,Gatesville,Coryell,2513 S State Hwy 36,76528,31.431812335547,-97.727497861363,0,0,0,0,700,700,0,,,,05/01/2021      ,10:18:36        ,,-97.727498,31.431812
374,"Emergency Hospital Systems, LLC",Vaccine Hub,,,Cleveland,Liberty,300 E. Crockett Street,77327,30.3419162,-95.085492,4206,0,2604,0,0,4206,2604,281-592-5410 ,www.emergencyhospitals.care,,04/27/2021      ,19:08:00        ,,-95.085492,30.341916
375,Industrial Health Works,Medical Practice,,6201 South Cage Blvd,Pharr,Hidalgo,"6201 South Cage Blvd, Pharr, Texas 78577",78577,26.1341456042847,-98.1941647794836,0,0,0,0,20,20,0,(956) 609-8230,http://www.industrialfamilyclinic.com/,,04/30/2021      ,08:20:04        ,,-98.194165,26.134146
376,Corner Drug Pharmacy,Pharmacy,,600 Bessemer Ave,Llano,Llano,600 Bessemer Ave,78643,30.7562638,-98.6751578,0,100,0,0,0,100,0,,,,04/29/2021      ,11:27:28        ,,-98.675158,30.756264
377,Lithonia Healthcare Development LLC,Other,,W Mockingbird Lane,Dallas,Dallas,1341 W Mockingbird Lane,75247,32.8222574538203,-96.8658326019656,1170,0,0,0,0,1170,0,,,,04/29/2021      ,10:48:07        ,,-96.865833,32.822257
378,Youens And Duchicela Clinic,Community Clinic,,402 Youens Dr,Weimar,Colorado,402 Youens Dr Weimar 78962,78962,29.6939322414999,-96.7879661863489,0,150,0,0,0,150,0,,,,04/29/2021      ,16:31:12        ,,-96.787966,29.693932
379,MD KIDS PEDIATRICS- #34 CYPRESS,Medical Practice,Q,20403 FM-529 Rd. Ste. 200,Cypress,Harris,"20403 FM-529 Rd. Ste. 200, Cypress, Tx 77433",77433,29.8782984,-95.7225369,1128,0,0,0,0,1128,0,(281) 656-4041,https://mdmedicalgroup.us/location/cypress-practice-at-529/,,04/30/2021      ,14:31:20        ,,-95.722537,29.878298
380,COSTCO PHARMACY 669,Federal Allocation,,2601 E. State Hwy 114,Southlake,Tarrant,2601 E STATE HIGHWAY 114 SOUTHLAKE 76092,76092,32.9417924784726,-97.1114111286175,0,119,0,0,0,119,0,,,,04/29/2021      ,10:41:56        ,,-97.111411,32.941792
381,Hillside Family Health Clinic Pa,Medical Practice,,7130 Bell St,Amarillo,Randall,"7130 Bell St,  Amarillo, Texas 79109",79109,35.134605595439,-101.901970879129,0,0,0,10,60,60,10,(806) 373-4010,http://hfhcamarillo.com/,,05/01/2021      ,07:48:20        ,,-101.901971,35.134606
382,St. Hope Foundation -  Conroe,Other,,1414 S Frazier St Ste 105,Conroe,MONTGOMERY,1414 S Frazier St Ste 105,77301,30.285417,-95.456282,0,240,0,170,0,240,170,(936) 441-2440,http://offeringhope.org/,,04/29/2021      ,10:35:58        ,,-95.456282,30.285417
383,Hometown Healthcare Orange Grove,Other,U,101 S Eugenia St,Orange Grove,Jim Wells,"101 S Eugenia St, Orange Grove, Tx 78372",78372,27.957496,-97.938573,582,140,0,0,0,722,0,(361) 382-2024,https://urgentcarelocations.org/tx/orange-grove/289578--hometown-healthcare-llc#,,04/30/2021      ,11:37:53        ,,-97.938573,27.957496
384,Emergency Operations Center,Community Clinic,,West 10th,Del Rio,Val Verde,1051 West 10th,78840,29.3701092789369,-100.916992588528,5200,0,5850,30,970,6170,5880,,,,04/29/2021      ,13:23:26        ,,-100.916993,29.370109
385,Family Care Clinic Of Bushland,Medical Practice,,1600 S Fm 2381,Amarillo,Potter,1600 S Fm 2381,79124,35.1963033178804,-102.063955097489,0,150,0,0,0,150,0,(806) 310-9855,http://www.familycarepanhandle.com/,,04/26/2021      ,07:21:55        ,,-102.063955,35.196303
386,"Harold J Pean MD, PA",Medical Practice,,,Mission,Hidalgo,909 Business Park Drive,78572,26.196789,-98.3198444,0,98,0,0,0,98,0,,,,04/29/2021      ,11:02:20        ,,-98.319844,26.196789
387,EHE International,Other,,5555 San Felipe St,Houston,Harris,"5555 San Felipe Street, Ste 800",77056,29.7493564,-95.4715705,0,90,0,0,0,90,0,(713) 622-9900,,,04/29/2021      ,10:29:56        ,,-95.47157,29.749356
388,Rio Grande Medicine,Other,,,HARLINGEN,,5505 S EXPRESSWAY 77 STE205,78550,26.1578286873194,-97.6751280060378,0,26,0,123,0,26,123,(956) 421-2757,,,04/30/2021      ,15:23:18        ,,-97.675128,26.157829
389,Jeff's Topcare Pharmacy,Federal Allocation,,4901 Fm 2920 Rd,Spring,Harris,4901 Fm 2920 Rd,77388,30.0731907,-95.4953384,0,277,0,0,295,572,0,8328610081,jeffstopcarerx.com,,04/30/2021      ,09:06:17        ,,-95.495338,30.073191
390,Care ATC Ruiz Foods,Pharmacy,,W Morton St,Denison,Grayson,2300 W Morton St Suite 122,75020,33.7606009297939,-96.5699792759227,0,0,0,200,200,200,200,,,,04/28/2021      ,08:02:08        ,,-96.569979,33.760601
391,TEXAS RX SOLUTIONS and COMPONDING P,Federal Allocation,,,Houston,Harris,"7505 Fannin St, Suite 140",77054,29.692195,-95.400803,0,300,0,0,610,910,0,713-790-1228,,,04/30/2021      ,09:08:37        ,,-95.400803,29.692195
392,Innate Medical Solution,Medical Practice,,749 N Waldrip,Grand Saline,Van Zandt,"749 N Waldrip, Grand Saline, Texas 75140",75140,32.6804459307712,-95.7218185053504,0,110,0,0,100,210,0, (903) 781-3160    (972) 938-7319  ,http://www.innatemedicalsolutions.com/,,04/30/2021      ,08:33:53        ,,-95.721819,32.680446
393,Hill Country Direct Care,Medical Practice,,904 Ford St,Llano,Llano,"904 Ford St, Llano, Texas 78643",78643,30.7488530039549,-98.6758925200792,0,0,0,20,0,0,20,(325) 248-6309,https://www.hillcountrydirectcare.com/,,04/30/2021      ,14:39:16        ,,-98.675893,30.748853
394,"Chuling Jiang, Md",Federal Allocation,,375 Municipal Dr. ste. 244,Richardson,Dallas,"375 Municipal Drive, Richardson, TX, USA",75080,32.972961,-96.7257344,0,130,0,0,0,130,0,,,,04/30/2021      ,16:16:14        ,,-96.725734,32.972961
395,All Children Pediatric Clinic - Mcallen,Community Clinic,,6900 N10th Street,Mcallen,Hidalgo,6900 N10th Street,78504,26.26389,-98.21896,0,150,0,0,0,150,0,,,,04/29/2021      ,09:51:23        ,,-98.21896,26.26389
396,"Family HealthCare Associates, Keller , Texas",Medical Practice,,4140 Heritage Trace Pkwy,Keller,,"4140 Heritage Trace Pkwy Ste #312, Keller, Texas 76244",76244,32.91463142423,-97.2963342446699,0,100,0,0,0,100,0,,,,04/28/2021      ,15:13:46        ,,-97.296334,32.914631
397,10 Minute Pharmacy,Federal Allocation,,18 Gruene Park Dr,New Braunfels,Comal,18 GRUENE PARK DR NEW BRAUNFELS 78130,78130,29.7266261903978,-98.0948757728571,0,190,0,0,365,555,0,,,,04/30/2021      ,20:47:48        ,,-98.094876,29.726626
398,Complete Care Medical,Other,,2000 ESTERS RD STE 120 IRVING 75061,Irving,Dallas,2000 Esters Rd,75061,32.8351,-97.00897,0,100,0,0,0,100,0,(972) 986-7469,,,04/30/2021      ,08:01:59        ,,-97.00897,32.8351
399,Uptown Clinic PLLC,Medical Practice,,110 UPTOWN AVE STE AA,Brownsville,Cameron,110 UPTOWN AVE STE AA,78520,25.92475,-97.51085,1141,0,0,0,0,1141,0,(956) 620-3140,,,04/30/2021      ,16:37:23        ,,-97.51085,25.92475
400,Walgreens Pharmacy 06909,Pharmacy,,,,,"4007 BARKER CYPRESS RD Houston, TX 77084",,29.8313278962145,-95.6853202343828,0,350,0,0,0,350,0,(281) 550-9804,https://www.walgreens.com/locator/walgreens-4007+barker+cypress+rd-houston-tx-77084/id=6909,,04/30/2021      ,20:35:05        ,,-95.68532,29.831328
401,"Mid Valley Internists, P.A.",Other,,1313 East 6th St,Weslaco,Hidalgo,1313 East 16th St,78596,26.1545825941076,-97.9774027699154,0,348,0,0,0,348,0,(956) 968-7527,,,05/01/2021      ,09:24:02        ,,-97.977403,26.154583
402,1st Choice Pediatrics,Other,,1205 N 6t St,Longview,Gregg,1205 N 6t St,75601,32.5056101,-94.7312142,0,60,0,0,0,60,0,,,,04/30/2021      ,08:00:05        ,,-94.731214,32.50561
403,El Paso Primary Care Associates Pa,Other,,4545 N Mesa St,El Paso,El Paso,4545 N Mesa St,79912,31.79955,-106.51094,0,50,0,0,0,50,0,,,,04/30/2021      ,09:48:31        ,,-106.51094,31.79955
404,Prime Care Medical Group,Other,,929 Gessner Rd Ste 2450,Houston,,"Hermann Tower, 929 Gessner Rd Suite 2450, Houston, TX 77024",77024,29.7825807828215,-95.5454720423105,1110,0,0,0,0,1110,0,+1 713 464 9939,https://www.primecarehouston.com/,,04/29/2021      ,09:13:33        ,,-95.545472,29.782581
405,MASON PHARMACY LLC,Pharmacy,,17531 Fm 529 Rd,Houston,Harris,17531 FM 529 RD Houston 77095,77095,29.8787399432451,-95.6755571728556,0,80,0,0,0,80,0,,,,04/30/2021      ,19:23:21        ,,-95.675557,29.87874
406,Donnie Evans MD PA,Medical Practice,,18131 Obelisk Bay dr,Cypress,Harris,18131 Obelisk Bay dr,77429,29.9935930466952,-95.6985087009146,0,100,0,0,0,100,0,,,,04/30/2021      ,19:33:10        ,,-95.698509,29.993593
407,Chc Care Specialty Pharmacy And Consult,Other,,14211 COIT RD # 1 Dallas 75254,Dallas,Dallas,14211 Coit Rd,75254,32.94228,-96.76905,0,60,0,0,0,60,0,,,,05/01/2021      ,10:06:24        ,,-96.76905,32.94228
